[{"linha":"107","descricao_ponto":"Rua Marechal Cantuaria próximo ao 182","sequencia":"38","latitude":"-22.9492","longitude":"-43.1663","pontos_turisticos":[{"nome":"Praia da Urca","distancia":368}]},{"linha":"107","descricao_ponto":"Praia Do Flamengo próximo ao 164","sequencia":"18","latitude":"-22.9318","longitude":"-43.1744","pontos_turisticos":[{"nome":"Aterro do Flamengo","distancia":410},{"nome":"Oi Futuro","distancia":286},{"nome":"Praia do Flamengo","distancia":413}]},{"linha":"107","descricao_ponto":"Augusto Severo proximo ao 176","sequencia":"11","latitude":"-22.9159","longitude":"-43.1764","pontos_turisticos":[{"nome":"Arcos da Lapa","distancia":493},{"nome":"Igreja e Convento de Santa Teresa","distancia":401},{"nome":"Monumento aos Pracinhas","distancia":249},{"nome":"Museu de Arte Moderna","distancia":401},{"nome":"Praça Paris","distancia":158},{"nome":"Sala Cecília Meireles","distancia":255}]},{"linha":"107","descricao_ponto":"Praia Do Flamengo próximo ao 122","sequencia":"17","latitude":"-22.9293","longitude":"-43.1741","pontos_turisticos":[{"nome":"Aterro do Flamengo","distancia":237},{"nome":"Museu da República","distancia":451},{"nome":"Museu de Folclore Edison Carneiro","distancia":432},{"nome":"Oi Futuro","distancia":247},{"nome":"Praia do Flamengo","distancia":287}]},{"linha":"107","descricao_ponto":"Praia Do Flamengo próximo ao 136","sequencia":"17","latitude":"-22.9293","longitude":"-43.1741","pontos_turisticos":[{"nome":"Aterro do Flamengo","distancia":237},{"nome":"Museu da República","distancia":451},{"nome":"Museu de Folclore Edison Carneiro","distancia":432},{"nome":"Oi Futuro","distancia":247},{"nome":"Praia do Flamengo","distancia":287}]},{"linha":"107","descricao_ponto":"Rua Marechal Cantuaria próximo ao 48","sequencia":"39","latitude":"-22.9483","longitude":"-43.1644","pontos_turisticos":[{"nome":"Praia da Urca","distancia":149}]},{"linha":"107","descricao_ponto":"Avenida Portugal próximo ao 936","sequencia":"5","latitude":"-22.9485","longitude":"-43.1659","pontos_turisticos":[{"nome":"Praia da Urca","distancia":302}]},{"linha":"107","descricao_ponto":"Praia Do Flamengo próximo ao 66","sequencia":"15","latitude":"-22.9246","longitude":"-43.1727","pontos_turisticos":[{"nome":"Aterro do Flamengo","distancia":497},{"nome":"Igreja Nossa Senhora da Glória do Outeiro","distancia":453},{"nome":"Museu da República","distancia":409},{"nome":"Museu de Folclore Edison Carneiro","distancia":413},{"nome":"Teatro Glória","distancia":181}]},{"linha":"107","descricao_ponto":"Avenida Pasteur próximo ao 458","sequencia":"10","latitude":"-22.9531","longitude":"-43.1717","pontos_turisticos":[{"nome":"Teatro do Instituto Benjamin Constant","distancia":28}]},{"linha":"107","descricao_ponto":"Avenida Pasteur próximo ao 241","sequencia":"10","latitude":"-22.9531","longitude":"-43.1717","pontos_turisticos":[{"nome":"Teatro do Instituto Benjamin Constant","distancia":28}]},{"linha":"107","descricao_ponto":"Avenida Beira Mar próximo ao 36","sequencia":"13","latitude":"-22.9211","longitude":"-43.1737","pontos_turisticos":[{"nome":"Igreja Nossa Senhora da Glória do Outeiro","distancia":170},{"nome":"Praça Paris","distancia":483},{"nome":"Teatro Glória","distancia":232}]},{"linha":"107","descricao_ponto":"Avenida Pasteur próximo ao 458","sequencia":"34","latitude":"-22.9531","longitude":"-43.1718","pontos_turisticos":[{"nome":"Teatro do Instituto Benjamin Constant","distancia":18}]},{"linha":"107","descricao_ponto":"Avenida Pasteur próximo ao 241","sequencia":"34","latitude":"-22.9531","longitude":"-43.1718","pontos_turisticos":[{"nome":"Teatro do Instituto Benjamin Constant","distancia":18}]},{"linha":"107","descricao_ponto":"Praia Do Flamengo próximo ao 122","sequencia":"19","latitude":"-22.9294","longitude":"-43.174","pontos_turisticos":[{"nome":"Aterro do Flamengo","distancia":229},{"nome":"Museu da República","distancia":466},{"nome":"Museu de Folclore Edison Carneiro","distancia":446},{"nome":"Oi Futuro","distancia":254},{"nome":"Praia do Flamengo","distancia":277}]},{"linha":"107","descricao_ponto":"Praia Do Flamengo próximo ao 136","sequencia":"19","latitude":"-22.9294","longitude":"-43.174","pontos_turisticos":[{"nome":"Aterro do Flamengo","distancia":229},{"nome":"Museu da República","distancia":466},{"nome":"Museu de Folclore Edison Carneiro","distancia":446},{"nome":"Oi Futuro","distancia":254},{"nome":"Praia do Flamengo","distancia":277}]},{"linha":"107","descricao_ponto":"Praia Do Flamengo próximo ao 262","sequencia":"19","latitude":"-22.9338","longitude":"-43.1744","pontos_turisticos":[{"nome":"Oi Futuro","distancia":469}]},{"linha":"107","descricao_ponto":"Praia Do Flamengo próximo ao 54","sequencia":"22","latitude":"-22.9227","longitude":"-43.1723","pontos_turisticos":[{"nome":"Igreja Nossa Senhora da Glória do Outeiro","distancia":347},{"nome":"Teatro Glória","distancia":51}]},{"linha":"107","descricao_ponto":"Avenida Beira Mar próximo ao 191","sequencia":"22","latitude":"-22.9227","longitude":"-43.1723","pontos_turisticos":[{"nome":"Igreja Nossa Senhora da Glória do Outeiro","distancia":347},{"nome":"Teatro Glória","distancia":51}]},{"linha":"107","descricao_ponto":"Praia Do Flamengo próximo ao 544","sequencia":"21","latitude":"-22.9364","longitude":"-43.174","pontos_turisticos":[]},{"linha":"107","descricao_ponto":"Rua Da Passagem próximo ao 122","sequencia":"30","latitude":"-22.9536","longitude":"-43.1815","pontos_turisticos":[]},{"linha":"107","descricao_ponto":"Avenida Portugal próximo ao 546","sequencia":"4","latitude":"-22.9481","longitude":"-43.1642","pontos_turisticos":[{"nome":"Praia da Urca","distancia":122}]},{"linha":"107","descricao_ponto":"Avenida Beira Mar próximo ao 693","sequencia":"23","latitude":"-22.9195","longitude":"-43.1748","pontos_turisticos":[{"nome":"Igreja Nossa Senhora da Glória do Outeiro","distancia":211},{"nome":"Monumento aos Pracinhas","distancia":343},{"nome":"Praça Paris","distancia":275},{"nome":"Teatro Glória","distancia":442}]},{"linha":"107","descricao_ponto":"Rua Candido Gaffree próximo ao 48","sequencia":"40","latitude":"-22.9469","longitude":"-43.1623","pontos_turisticos":[{"nome":"Praia da Urca","distancia":125}]},{"linha":"107","descricao_ponto":"Avenida Joao Luiz Alves próximo ao 297","sequencia":"1","latitude":"-22.9433","longitude":"-43.1612","pontos_turisticos":[]},{"linha":"107","descricao_ponto":"Praia Do Flamengo próximo ao 312","sequencia":"17","latitude":"-22.9355","longitude":"-43.174","pontos_turisticos":[]},{"linha":"107","descricao_ponto":"Praia Do Flamengo próximo ao 306","sequencia":"17","latitude":"-22.9355","longitude":"-43.174","pontos_turisticos":[]},{"linha":"107","descricao_ponto":"Avenida Portugal próximo ao 61","sequencia":"6","latitude":"-22.9503","longitude":"-43.1678","pontos_turisticos":[]},{"linha":"107","descricao_ponto":"Praia Do Flamengo próximo ao 54","sequencia":"14","latitude":"-22.9227","longitude":"-43.1724","pontos_turisticos":[{"nome":"Igreja Nossa Senhora da Glória do Outeiro","distancia":338},{"nome":"Teatro Glória","distancia":43}]},{"linha":"107","descricao_ponto":"Avenida Beira Mar próximo ao 191","sequencia":"14","latitude":"-22.9227","longitude":"-43.1724","pontos_turisticos":[{"nome":"Igreja Nossa Senhora da Glória do Outeiro","distancia":338},{"nome":"Teatro Glória","distancia":43}]},{"linha":"107","descricao_ponto":"Avenida Oswaldo Cruz próximo ao 112","sequencia":"22","latitude":"-22.9396","longitude":"-43.1749","pontos_turisticos":[{"nome":"Museu Carmem Miranda","distancia":324}]},{"linha":"107","descricao_ponto":"Avenida Joao Luiz Alves próximo ao 76","sequencia":"3","latitude":"-22.9474","longitude":"-43.1629","pontos_turisticos":[{"nome":"Praia da Urca","distancia":45}]},{"linha":"107","descricao_ponto":"Avenida Beira Mar próximo ao 321","sequencia":"25","latitude":"-22.9122","longitude":"-43.1731","pontos_turisticos":[{"nome":"Academia Brasileira de Letras","distancia":148},{"nome":"Biblioteca Nacional","distancia":379},{"nome":"Monumento aos Pracinhas","distancia":487},{"nome":"Museu de Arte Moderna","distancia":180},{"nome":"Museu Nacional de Belas Artes","distancia":478},{"nome":"Teatro Dulcina","distancia":438},{"nome":"Teatro Municipal","distancia":459},{"nome":"Teatro Rival Petrobras","distancia":343}]},{"linha":"107","descricao_ponto":"Praia Do Flamengo próximo ao 1651","sequencia":"18","latitude":"-22.9327","longitude":"-43.1744","pontos_turisticos":[{"nome":"Aterro do Flamengo","distancia":490},{"nome":"Oi Futuro","distancia":363},{"nome":"Praia do Flamengo","distancia":483}]},{"linha":"107","descricao_ponto":"Praia Do Flamengo próximo ao 6","sequencia":"21","latitude":"-22.925","longitude":"-43.1726","pontos_turisticos":[{"nome":"Aterro do Flamengo","distancia":451},{"nome":"Igreja Nossa Senhora da Glória do Outeiro","distancia":495},{"nome":"Museu da República","distancia":406},{"nome":"Museu de Folclore Edison Carneiro","distancia":407},{"nome":"Teatro Glória","distancia":226}]},{"linha":"107","descricao_ponto":"Rua Araujo Porto Alegre lado oposto ao número 16","sequencia":"9","latitude":"-22.9097","longitude":"-43.1767","pontos_turisticos":[{"nome":"Academia Brasileira de Letras","distancia":404},{"nome":"Arcos da Lapa","distancia":482},{"nome":"Biblioteca Nacional","distancia":104},{"nome":"Catedral Metropolitana","distancia":433},{"nome":"Igreja de São Francisco da Penitência","distancia":407},{"nome":"Museu do Clube Naval","distancia":169},{"nome":"Museu Nacional de Belas Artes","distancia":108},{"nome":"Teatro Dulcina","distancia":117},{"nome":"Teatro Glauce Rocha","distancia":271},{"nome":"Teatro Municipal","distancia":47},{"nome":"Teatro Rival Petrobras","distancia":172}]},{"linha":"107","descricao_ponto":"Rua General Severiano próximo ao 40","sequencia":"32","latitude":"-22.9531","longitude":"-43.1775","pontos_turisticos":[]},{"linha":"107","descricao_ponto":"Avenida Marechal Floriano, próximo ao 185","sequencia":"2","latitude":"-22.9027","longitude":"-43.1868","pontos_turisticos":[{"nome":"Campo de Santana","distancia":468}]},{"linha":"107","descricao_ponto":"Praia Do Flamengo próximo ao 312","sequencia":"20","latitude":"-22.9355","longitude":"-43.1742","pontos_turisticos":[]},{"linha":"107","descricao_ponto":"Praia Do Flamengo próximo ao 306","sequencia":"20","latitude":"-22.9355","longitude":"-43.1742","pontos_turisticos":[]},{"linha":"107","descricao_ponto":"Avenida Beira Mar próximo ao 693","sequencia":"24","latitude":"-22.9156","longitude":"-43.1751","pontos_turisticos":[{"nome":"Monumento aos Pracinhas","distancia":146},{"nome":"Museu de Arte Moderna","distancia":277},{"nome":"Praça Paris","distancia":195},{"nome":"Sala Cecília Meireles","distancia":350}]},{"linha":"107","descricao_ponto":"Avenida Republica Do Paraguai próximo ao 1","sequencia":"6","latitude":"-22.9088","longitude":"-43.1805","pontos_turisticos":[{"nome":"Arcos da Lapa","distancia":456},{"nome":"Catedral Metropolitana","distancia":233},{"nome":"Confeitaria Colombo","distancia":431},{"nome":"Igreja de São Francisco da Penitência","distancia":246},{"nome":"Museu do Clube Naval","distancia":404},{"nome":"Museu Nacional de Belas Artes","distancia":451},{"nome":"Real Gabinete Português de Leitura","distancia":408},{"nome":"Teatro Carlos Gomes","distancia":271},{"nome":"Teatro Dulcina","distancia":411},{"nome":"Teatro Glauce Rocha","distancia":423},{"nome":"Teatro João Caetano","distancia":325},{"nome":"Teatro Municipal","distancia":426}]},{"linha":"107","descricao_ponto":"Rua Candido Gaffree próximo ao 143","sequencia":"42","latitude":"-22.9438","longitude":"-43.1602","pontos_turisticos":[]},{"linha":"107","descricao_ponto":"Praca Felix Laranjeiras próximo ao 25","sequencia":"8","latitude":"-22.9531","longitude":"-43.1682","pontos_turisticos":[{"nome":"Pão de Açúcar","distancia":308},{"nome":"Praia Vermelha","distancia":423},{"nome":"Teatro do Instituto Benjamin Constant","distancia":386}]},{"linha":"107","descricao_ponto":"Avenida Rui Barbosa próximo ao 660","sequencia":"14","latitude":"-22.9424","longitude":"-43.1741","pontos_turisticos":[{"nome":"Museu Carmem Miranda","distancia":206}]},{"linha":"107","descricao_ponto":"Avenida Rui Barbosa próximo ao 460","sequencia":"15","latitude":"-22.9412","longitude":"-43.1724","pontos_turisticos":[{"nome":"Museu Carmem Miranda","distancia":21}]},{"linha":"107","descricao_ponto":"BRS 2 - URUGUAIANA","sequencia":"29","latitude":"-22.9025","longitude":"-43.1832","pontos_turisticos":[{"nome":"Real Gabinete Português de Leitura","distancia":346},{"nome":"Teatro João Caetano","distancia":442}]},{"linha":"107","descricao_ponto":"Rua Evaristo Da Veiga próximo ao 49","sequencia":"8","latitude":"-22.9109","longitude":"-43.1779","pontos_turisticos":[{"nome":"Arcos da Lapa","distancia":300},{"nome":"Biblioteca Nacional","distancia":259},{"nome":"Catedral Metropolitana","distancia":290},{"nome":"Igreja de São Francisco da Penitência","distancia":465},{"nome":"Museu do Clube Naval","distancia":330},{"nome":"Museu Nacional de Belas Artes","distancia":289},{"nome":"Sala Cecília Meireles","distancia":385},{"nome":"Teatro Dulcina","distancia":89},{"nome":"Teatro Glauce Rocha","distancia":422},{"nome":"Teatro Municipal","distancia":228},{"nome":"Teatro Rival Petrobras","distancia":171}]},{"linha":"107","descricao_ponto":"Rua General Severiano próximo ao 171","sequencia":"31","latitude":"-22.954","longitude":"-43.18","pontos_turisticos":[]},{"linha":"107","descricao_ponto":"Avenida Venceslau Braz próximo ao 3554","sequencia":"33","latitude":"-22.9528","longitude":"-43.1762","pontos_turisticos":[{"nome":"Teatro do Instituto Benjamin Constant","distancia":434}]},{"linha":"107","descricao_ponto":"BRS 1,2 - VISCONDE DE OURO PRETO","sequencia":"28","latitude":"-22.9472","longitude":"-43.1825","pontos_turisticos":[{"nome":"Praia de Botafogo","distancia":287},{"nome":"Teatro Bibi Ferreira","distancia":316}]},{"linha":"107","descricao_ponto":"Terminal Procópio Ferreira - Plataforma B","sequencia":"31","latitude":"-22.9051","longitude":"-43.1924","pontos_turisticos":[{"nome":"Campo de Santana","distancia":452}]},{"linha":"107","descricao_ponto":"Terminal Procópio Ferreira - Plataforma A","sequencia":"31","latitude":"-22.9051","longitude":"-43.1924","pontos_turisticos":[{"nome":"Campo de Santana","distancia":452}]},{"linha":"107","descricao_ponto":"Rua Osorio De Almeida próximo ao 61","sequencia":"7","latitude":"-22.9519","longitude":"-43.1685","pontos_turisticos":[{"nome":"Pão de Açúcar","distancia":443},{"nome":"Teatro do Instituto Benjamin Constant","distancia":377}]},{"linha":"107","descricao_ponto":"Praia Do Flamengo próximo ao 86","sequencia":"16","latitude":"-22.9268","longitude":"-43.1734","pontos_turisticos":[{"nome":"Aterro do Flamengo","distancia":293},{"nome":"Museu da República","distancia":329},{"nome":"Museu de Folclore Edison Carneiro","distancia":319},{"nome":"Oi Futuro","distancia":469},{"nome":"Praia do Flamengo","distancia":363},{"nome":"Teatro Glória","distancia":432}]},{"linha":"107","descricao_ponto":"Avenida Pasteur próximo ao 458","sequencia":"35","latitude":"-22.9541","longitude":"-43.1686","pontos_turisticos":[{"nome":"Pão de Açúcar","distancia":242},{"nome":"Praia Vermelha","distancia":417},{"nome":"Teatro do Instituto Benjamin Constant","distancia":364}]},{"linha":"107","descricao_ponto":"Rua Marechal Cantuaria próximo ao 102","sequencia":"37","latitude":"-22.9506","longitude":"-43.1678","pontos_turisticos":[]},{"linha":"107","descricao_ponto":"Avenida Pasteur próximo ao 431","sequencia":"9","latitude":"-22.9539","longitude":"-43.1689","pontos_turisticos":[{"nome":"Pão de Açúcar","distancia":280},{"nome":"Praia Vermelha","distancia":452},{"nome":"Teatro do Instituto Benjamin Constant","distancia":328}]},{"linha":"107","descricao_ponto":"BRS 1,3 - VISCONDE DE OURO PRETO","sequencia":"12","latitude":"-22.9468","longitude":"-43.1823","pontos_turisticos":[{"nome":"Praia de Botafogo","distancia":240},{"nome":"Teatro Bibi Ferreira","distancia":321}]},{"linha":"107","descricao_ponto":"BRS 4,5 - ERASMO BRAGA","sequencia":"27","latitude":"-22.9054","longitude":"-43.1737","pontos_turisticos":[{"nome":"Espaço Cultural da Marinha","distancia":486},{"nome":"Igreja Nossa Senhora do Carmo da Antiga Sé","distancia":289},{"nome":"Museu do Clube Naval","distancia":430},{"nome":"Museu Histórico Nacional","distancia":436},{"nome":"Museu Nacional de Belas Artes","distancia":460},{"nome":"Paço Imperial","distancia":214},{"nome":"Palácio Tiradentes","distancia":154},{"nome":"Teatro Glauce Rocha","distancia":373}]},{"linha":"107","descricao_ponto":"Avenida Das Nacoes Unidas próximo ao 68","sequencia":"13","latitude":"-22.9426","longitude":"-43.1768","pontos_turisticos":[{"nome":"Museu Carmem Miranda","distancia":469},{"nome":"Praia de Botafogo","distancia":500}]},{"linha":"107","descricao_ponto":"BRS 1,3 - CANDELÁRIA","sequencia":"28","latitude":"-22.9005","longitude":"-43.1779","pontos_turisticos":[{"nome":"Casa França Brasil","distancia":196},{"nome":"Centro Cultural Banco do Brasil","distancia":142},{"nome":"Centro Cultural dos Correios","distancia":229},{"nome":"Espaço Cultural da Marinha","distancia":360},{"nome":"Igreja Nossa Senhora da Candelária","distancia":37},{"nome":"Igreja Nossa Senhora do Carmo da Antiga Sé","distancia":407},{"nome":"Mosteiro de São Bento","distancia":417}]},{"linha":"107","descricao_ponto":"Avenida Oswaldo Cruz próximo ao 112","sequencia":"23","latitude":"-22.9406","longitude":"-43.176","pontos_turisticos":[{"nome":"Museu Carmem Miranda","distancia":378}]},{"linha":"107","descricao_ponto":"Terminal Procópio Ferreira - Plataforma B","sequencia":"1","latitude":"-22.905","longitude":"-43.1924","pontos_turisticos":[{"nome":"Campo de Santana","distancia":456}]},{"linha":"107","descricao_ponto":"Terminal Procópio Ferreira - Plataforma A","sequencia":"1","latitude":"-22.905","longitude":"-43.1924","pontos_turisticos":[{"nome":"Campo de Santana","distancia":456}]},{"linha":"107","descricao_ponto":"Avenida Rui Barbosa próximo ao 266","sequencia":"16","latitude":"-22.9396","longitude":"-43.1711","pontos_turisticos":[{"nome":"Museu Carmem Miranda","distancia":240}]},{"linha":"107","descricao_ponto":"BRS 1 - MARQUÊS DE OLINDA","sequencia":"26","latitude":"-22.9448","longitude":"-43.1823","pontos_turisticos":[{"nome":"Praia de Botafogo","distancia":153},{"nome":"Teatro Bibi Ferreira","distancia":341}]},{"linha":"107","descricao_ponto":"Avenida Augusto Severo próximo ao 178","sequencia":"12","latitude":"-22.9181","longitude":"-43.1767","pontos_turisticos":[{"nome":"Igreja e Convento de Santa Teresa","distancia":459},{"nome":"Igreja Nossa Senhora da Glória do Outeiro","distancia":385},{"nome":"Monumento aos Pracinhas","distancia":324},{"nome":"Praça Paris","distancia":132},{"nome":"Sala Cecília Meireles","distancia":446}]},{"linha":"107","descricao_ponto":"Avenida Augusto Severo próximo ao 306","sequencia":"12","latitude":"-22.9181","longitude":"-43.1767","pontos_turisticos":[{"nome":"Igreja e Convento de Santa Teresa","distancia":459},{"nome":"Igreja Nossa Senhora da Glória do Outeiro","distancia":385},{"nome":"Monumento aos Pracinhas","distancia":324},{"nome":"Praça Paris","distancia":132},{"nome":"Sala Cecília Meireles","distancia":446}]},{"linha":"107","descricao_ponto":"Rua Ramom Franco próximo ao 10","sequencia":"36","latitude":"-22.9533","longitude":"-43.1673","pontos_turisticos":[{"nome":"Pão de Açúcar","distancia":258},{"nome":"Praia Vermelha","distancia":334},{"nome":"Teatro do Instituto Benjamin Constant","distancia":479}]},{"linha":"107","descricao_ponto":"Avenida Joao Luiz Alves próximo ao 192","sequencia":"2","latitude":"-22.9451","longitude":"-43.1632","pontos_turisticos":[{"nome":"Praia da Urca","distancia":298}]},{"linha":"107","descricao_ponto":"Avenida Pasteur próximo ao 241","sequencia":"11","latitude":"-22.9523","longitude":"-43.1733","pontos_turisticos":[{"nome":"Teatro do Instituto Benjamin Constant","distancia":160}]},{"linha":"107","descricao_ponto":"Praia Do Flamengo próximo ao 60","sequencia":"20","latitude":"-22.9269","longitude":"-43.1732","pontos_turisticos":[{"nome":"Aterro do Flamengo","distancia":272},{"nome":"Museu da República","distancia":352},{"nome":"Museu de Folclore Edison Carneiro","distancia":342},{"nome":"Oi Futuro","distancia":475},{"nome":"Praia do Flamengo","distancia":342},{"nome":"Teatro Glória","distancia":440}]},{"linha":"107","descricao_ponto":"Praia Do Flamengo próximo ao 86","sequencia":"20","latitude":"-22.9269","longitude":"-43.1732","pontos_turisticos":[{"nome":"Aterro do Flamengo","distancia":272},{"nome":"Museu da República","distancia":352},{"nome":"Museu de Folclore Edison Carneiro","distancia":342},{"nome":"Oi Futuro","distancia":475},{"nome":"Praia do Flamengo","distancia":342},{"nome":"Teatro Glória","distancia":440}]},{"linha":"107","descricao_ponto":"BRS 1,2,3,4 - FRANKLIN ROOSEVELT","sequencia":"26","latitude":"-22.9105","longitude":"-43.1718","pontos_turisticos":[{"nome":"Academia Brasileira de Letras","distancia":127},{"nome":"Biblioteca Nacional","distancia":407},{"nome":"Museu de Arte Moderna","distancia":396},{"nome":"Museu Nacional de Belas Artes","distancia":475},{"nome":"Teatro Municipal","distancia":486},{"nome":"Teatro Rival Petrobras","distancia":464}]},{"linha":"107","descricao_ponto":"BRS 1, 2, 3 - TOMÉ DE SOUSA","sequencia":"30","latitude":"-22.904","longitude":"-43.1883","pontos_turisticos":[{"nome":"Campo de Santana","distancia":297}]},{"linha":"107","descricao_ponto":"Rua Candido Gaffree próximo ao 116","sequencia":"41","latitude":"-22.9456","longitude":"-43.1614","pontos_turisticos":[{"nome":"Praia da Urca","distancia":296}]},{"linha":"107","descricao_ponto":"BRS 3, I - VISCONDE DE OURO PRETO","sequencia":"27","latitude":"-22.9464","longitude":"-43.1826","pontos_turisticos":[{"nome":"Praia de Botafogo","distancia":230},{"nome":"Teatro Bibi Ferreira","distancia":282}]}]