[{"linha":"120","descricao_ponto":"Avenida Das Nacoes Unidas próximo ao 3114","sequencia":"5","latitude":"-22.9438","longitude":"-43.1808","pontos_turisticos":[{"nome":"Praia de Botafogo","distancia":146}]},{"linha":"120","descricao_ponto":"Avenida Das Nacoes Unidas próximo ao 501","sequencia":"11","latitude":"-22.9495","longitude":"-43.1806","pontos_turisticos":[{"nome":"Praia de Botafogo","distancia":488}]},{"linha":"120","descricao_ponto":"BRS 1, 2, 3 - TOMÉ DE SOUSA","sequencia":"10","latitude":"-22.904","longitude":"-43.1883","pontos_turisticos":[{"nome":"Campo de Santana","distancia":297}]},{"linha":"120","descricao_ponto":"BRS 1, 2, 3, 4 - BEIRA MAR","sequencia":"6","latitude":"-22.9108","longitude":"-43.1713","pontos_turisticos":[{"nome":"Academia Brasileira de Letras","distancia":171},{"nome":"Biblioteca Nacional","distancia":464},{"nome":"Museu de Arte Moderna","distancia":388}]},{"linha":"120","descricao_ponto":"Avenida Prado Junior próximo ao 237","sequencia":"13","latitude":"-22.9631","longitude":"-43.1754","pontos_turisticos":[{"nome":"Teatro Princesa Isabel","distancia":112},{"nome":"Teatro Villa Lobos","distancia":200}]},{"linha":"120","descricao_ponto":"Avenida Venceslau Braz próximo ao 3554","sequencia":"3","latitude":"-22.9528","longitude":"-43.1762","pontos_turisticos":[{"nome":"Teatro do Instituto Benjamin Constant","distancia":434}]},{"linha":"120","descricao_ponto":"BRS 1 - MINISTRO VIVEIROS DE CASTRO","sequencia":"1","latitude":"-22.9622","longitude":"-43.1748","pontos_turisticos":[{"nome":"Teatro Princesa Isabel","distancia":103},{"nome":"Teatro Villa Lobos","distancia":111}]},{"linha":"120","descricao_ponto":"Avenida Das Nacoes Unidas próximo ao 68","sequencia":"8","latitude":"-22.9428","longitude":"-43.1769","pontos_turisticos":[{"nome":"Museu Carmem Miranda","distancia":486},{"nome":"Praia de Botafogo","distancia":479}]},{"linha":"120","descricao_ponto":"Terminal Procópio Ferreira - Plataforma B","sequencia":"11","latitude":"-22.9051","longitude":"-43.1924","pontos_turisticos":[{"nome":"Campo de Santana","distancia":452}]},{"linha":"120","descricao_ponto":"Terminal Procópio Ferreira - Plataforma A","sequencia":"11","latitude":"-22.9051","longitude":"-43.1924","pontos_turisticos":[{"nome":"Campo de Santana","distancia":452}]},{"linha":"120","descricao_ponto":"Terminal Procópio Ferreira - Plataforma B","sequencia":"1","latitude":"-22.905","longitude":"-43.1924","pontos_turisticos":[{"nome":"Campo de Santana","distancia":456}]},{"linha":"120","descricao_ponto":"Terminal Procópio Ferreira - Plataforma A","sequencia":"1","latitude":"-22.905","longitude":"-43.1924","pontos_turisticos":[{"nome":"Campo de Santana","distancia":456}]},{"linha":"120","descricao_ponto":"BRS 1 - AVENIDA LAURO SODRE","sequencia":"2","latitude":"-22.9566","longitude":"-43.1775","pontos_turisticos":[]},{"linha":"120","descricao_ponto":"BRS 1 - BUENOS AIRES","sequencia":"5","latitude":"-22.9023","longitude":"-43.1787","pontos_turisticos":[{"nome":"Casa França Brasil","distancia":350},{"nome":"Centro Cultural Banco do Brasil","distancia":292},{"nome":"Centro Cultural dos Correios","distancia":314},{"nome":"Confeitaria Colombo","distancia":328},{"nome":"Espaço Cultural da Marinha","distancia":456},{"nome":"Igreja Nossa Senhora da Candelária","distancia":205},{"nome":"Igreja Nossa Senhora do Carmo da Antiga Sé","distancia":367},{"nome":"Paço Imperial","distancia":475}]},{"linha":"120","descricao_ponto":"Avenida Das Nacoes Unidas próximo ao 2672","sequencia":"4","latitude":"-22.9479","longitude":"-43.1814","pontos_turisticos":[{"nome":"Praia de Botafogo","distancia":315},{"nome":"Teatro Bibi Ferreira","distancia":451}]},{"linha":"120","descricao_ponto":"BRS 4,5 - ERASMO BRAGA","sequencia":"7","latitude":"-22.9054","longitude":"-43.1737","pontos_turisticos":[{"nome":"Espaço Cultural da Marinha","distancia":486},{"nome":"Igreja Nossa Senhora do Carmo da Antiga Sé","distancia":289},{"nome":"Museu do Clube Naval","distancia":430},{"nome":"Museu Histórico Nacional","distancia":436},{"nome":"Museu Nacional de Belas Artes","distancia":460},{"nome":"Paço Imperial","distancia":214},{"nome":"Palácio Tiradentes","distancia":154},{"nome":"Teatro Glauce Rocha","distancia":373}]},{"linha":"120","descricao_ponto":"Avenida Marechal Floriano, próximo ao 185","sequencia":"2","latitude":"-22.9027","longitude":"-43.1868","pontos_turisticos":[{"nome":"Campo de Santana","distancia":468}]},{"linha":"120","descricao_ponto":"Avenida Lauro Sodre próximo ao 150","sequencia":"12","latitude":"-22.9549","longitude":"-43.1783","pontos_turisticos":[]},{"linha":"120","descricao_ponto":"BRS 1,3 - CANDELÁRIA","sequencia":"8","latitude":"-22.9005","longitude":"-43.1779","pontos_turisticos":[{"nome":"Casa França Brasil","distancia":196},{"nome":"Centro Cultural Banco do Brasil","distancia":142},{"nome":"Centro Cultural dos Correios","distancia":229},{"nome":"Espaço Cultural da Marinha","distancia":360},{"nome":"Igreja Nossa Senhora da Candelária","distancia":37},{"nome":"Igreja Nossa Senhora do Carmo da Antiga Sé","distancia":407},{"nome":"Mosteiro de São Bento","distancia":417}]},{"linha":"120","descricao_ponto":"Avenida Das Nacoes Unidas próximo ao 402","sequencia":"10","latitude":"-22.9457","longitude":"-43.1818","pontos_turisticos":[{"nome":"Praia de Botafogo","distancia":118},{"nome":"Teatro Bibi Ferreira","distancia":364}]},{"linha":"120","descricao_ponto":"BRS 1, 2, 3 - URUGUAIANA","sequencia":"3","latitude":"-22.9023","longitude":"-43.1816","pontos_turisticos":[{"nome":"Confeitaria Colombo","distancia":435},{"nome":"Igreja Nossa Senhora da Candelária","distancia":441},{"nome":"Real Gabinete Português de Leitura","distancia":357},{"nome":"Teatro João Caetano","distancia":460}]},{"linha":"120","descricao_ponto":"BRS 2 - URUGUAIANA","sequencia":"9","latitude":"-22.9025","longitude":"-43.1832","pontos_turisticos":[{"nome":"Real Gabinete Português de Leitura","distancia":346},{"nome":"Teatro João Caetano","distancia":442}]}]