[{"linha":"127","descricao_ponto":"Avenida Venezuela próximo ao 189","sequencia":"10","latitude":"-22.8952","longitude":"-43.188","pontos_turisticos":[]},{"linha":"127","descricao_ponto":"BRS 2 - BARÃO DE IPANEMA","sequencia":"2","latitude":"-22.975","longitude":"-43.1896","pontos_turisticos":[{"nome":"Teatro Brigitte Blair","distancia":368}]},{"linha":"127","descricao_ponto":"Rua Sacadura Cabral, próximo ao Hospital dos Servidores do Estado","sequencia":"18","latitude":"-22.8971","longitude":"-43.1891","pontos_turisticos":[{"nome":"Memorial dos Pretos Novos","distancia":411}]},{"linha":"127","descricao_ponto":"Terminal Padre Henrique Otte","sequencia":"1","latitude":"-22.9014","longitude":"-43.2079","pontos_turisticos":[]},{"linha":"127","descricao_ponto":"BRS 2 - DEMÉTRIO RIBEIRO","sequencia":"7","latitude":"-22.9616","longitude":"-43.1751","pontos_turisticos":[{"nome":"Teatro Princesa Isabel","distancia":177},{"nome":"Teatro Villa Lobos","distancia":37}]},{"linha":"127","descricao_ponto":"BRS 2 - REPÚBLICA DO PERU","sequencia":"22","latitude":"-22.9662","longitude":"-43.182","pontos_turisticos":[{"nome":"Praia de Copacabana","distancia":398},{"nome":"Sala Baden Powell","distancia":175},{"nome":"Teatro Gláucio Gil","distancia":152}]},{"linha":"127","descricao_ponto":"Terminal Padre Henrique Otte","sequencia":"23","latitude":"-22.9014","longitude":"-43.2079","pontos_turisticos":[]},{"linha":"127","descricao_ponto":"Avenida Das Nacoes Unidas próximo ao 530","sequencia":"17","latitude":"-22.9433","longitude":"-43.1805","pontos_turisticos":[{"nome":"Praia de Botafogo","distancia":205}]},{"linha":"127","descricao_ponto":"BRS 1, 2, 3 - FRANCISCO OTAVIANO","sequencia":"27","latitude":"-22.9865","longitude":"-43.1909","pontos_turisticos":[{"nome":"Forte de Copacabana","distancia":322},{"nome":"Parque Peter Pan","distancia":387},{"nome":"Praia do Arpoador","distancia":328},{"nome":"Teatro da Praia","distancia":405}]},{"linha":"127","descricao_ponto":"Avenida Lauro Sodre próximo ao 150","sequencia":"20","latitude":"-22.9549","longitude":"-43.1783","pontos_turisticos":[]},{"linha":"127","descricao_ponto":"BRS 2 - HILÁRIO DE GOUVEIA","sequencia":"4","latitude":"-22.9687","longitude":"-43.184","pontos_turisticos":[{"nome":"Sala Baden Powell","distancia":388},{"nome":"Teatro Gláucio Gil","distancia":492}]},{"linha":"127","descricao_ponto":"Avenida Francisco Bicalho próximo Rodoviária Novo Rio","sequencia":"3","latitude":"-22.9007","longitude":"-43.2098","pontos_turisticos":[]},{"linha":"127","descricao_ponto":"Avenida Venezuela próximo ao 153","sequencia":"11","latitude":"-22.8958","longitude":"-43.1863","pontos_turisticos":[{"nome":"Museu de Arte do Rio","distancia":469}]},{"linha":"127","descricao_ponto":"BRS 2 - FIGUEIREDO MAGALHÃES","sequencia":"23","latitude":"-22.9688","longitude":"-43.186","pontos_turisticos":[]},{"linha":"127","descricao_ponto":"BRS 2 - RAIMUNDO CORREIA","sequencia":"24","latitude":"-22.9717","longitude":"-43.1897","pontos_turisticos":[]},{"linha":"127","descricao_ponto":"BRS 2 - BOLÍVAR","sequencia":"25","latitude":"-22.9754","longitude":"-43.1922","pontos_turisticos":[{"nome":"Teatro Brigitte Blair","distancia":295}]},{"linha":"127","descricao_ponto":"BRS 2 - AVENIDA LAURO SODRE","sequencia":"8","latitude":"-22.9569","longitude":"-43.1774","pontos_turisticos":[]},{"linha":"127","descricao_ponto":"Avenida Francisco Bicalho, próximo a Unidos da Tijuca","sequencia":"2","latitude":"-22.9038","longitude":"-43.2096","pontos_turisticos":[]},{"linha":"127","descricao_ponto":"Avenida Das Nacoes Unidas próximo ao 3114","sequencia":"11","latitude":"-22.9438","longitude":"-43.1808","pontos_turisticos":[{"nome":"Praia de Botafogo","distancia":146}]},{"linha":"127","descricao_ponto":"BRS 2 - BELFORT ROXO","sequencia":"6","latitude":"-22.9649","longitude":"-43.1763","pontos_turisticos":[{"nome":"Teatro Gláucio Gil","distancia":465},{"nome":"Teatro Princesa Isabel","distancia":293},{"nome":"Teatro Villa Lobos","distancia":413}]},{"linha":"127","descricao_ponto":"Avenida Das Nacoes Unidas próximo ao 2672","sequencia":"10","latitude":"-22.9479","longitude":"-43.1814","pontos_turisticos":[{"nome":"Praia de Botafogo","distancia":315},{"nome":"Teatro Bibi Ferreira","distancia":451}]},{"linha":"127","descricao_ponto":"Avenida Venceslau Braz próximo ao 3554","sequencia":"9","latitude":"-22.9528","longitude":"-43.1762","pontos_turisticos":[{"nome":"Teatro do Instituto Benjamin Constant","distancia":434}]},{"linha":"127","descricao_ponto":"Avenida Das Nacoes Unidas próximo ao 501","sequencia":"19","latitude":"-22.9495","longitude":"-43.1806","pontos_turisticos":[{"nome":"Praia de Botafogo","distancia":488}]},{"linha":"127","descricao_ponto":"BRS 2 - SANTA CLARA","sequencia":"3","latitude":"-22.9722","longitude":"-43.1877","pontos_turisticos":[]},{"linha":"127","descricao_ponto":"Rua Santo Cristo próximo ao 193","sequencia":"4","latitude":"-22.9","longitude":"-43.2023","pontos_turisticos":[]},{"linha":"127","descricao_ponto":"Avenida Das Nacoes Unidas próximo ao 68","sequencia":"16","latitude":"-22.9428","longitude":"-43.1769","pontos_turisticos":[{"nome":"Museu Carmem Miranda","distancia":486},{"nome":"Praia de Botafogo","distancia":479}]},{"linha":"127","descricao_ponto":"BRS 1, 2, 3, 4 - BEIRA MAR","sequencia":"12","latitude":"-22.9108","longitude":"-43.1713","pontos_turisticos":[{"nome":"Academia Brasileira de Letras","distancia":171},{"nome":"Biblioteca Nacional","distancia":464},{"nome":"Museu de Arte Moderna","distancia":388}]},{"linha":"127","descricao_ponto":"BRS 1, 2, 3, I - DUVIVIER","sequencia":"21","latitude":"-22.9638","longitude":"-43.1784","pontos_turisticos":[{"nome":"Sala Baden Powell","distancia":434},{"nome":"Teatro Gláucio Gil","distancia":303},{"nome":"Teatro Princesa Isabel","distancia":428},{"nome":"Teatro Villa Lobos","distancia":423}]},{"linha":"127","descricao_ponto":"BRS 2 - DJALMA ULRICH","sequencia":"1","latitude":"-22.9794","longitude":"-43.191","pontos_turisticos":[{"nome":"Parque Peter Pan","distancia":435},{"nome":"Teatro Brigitte Blair","distancia":167}]},{"linha":"127","descricao_ponto":"BRS 2 - REPÚBLICA DO PERU","sequencia":"5","latitude":"-22.9671","longitude":"-43.181","pontos_turisticos":[{"nome":"Praia de Copacabana","distancia":255},{"nome":"Sala Baden Powell","distancia":39},{"nome":"Teatro Gláucio Gil","distancia":191}]},{"linha":"127","descricao_ponto":"BRS 2 - SOUSA LIMA","sequencia":"26","latitude":"-22.9817","longitude":"-43.1924","pontos_turisticos":[{"nome":"Parque Peter Pan","distancia":169},{"nome":"Teatro Brigitte Blair","distancia":435},{"nome":"Teatro da Praia","distancia":236}]},{"linha":"127","descricao_ponto":"BRS 4,5 - ERASMO BRAGA","sequencia":"13","latitude":"-22.9054","longitude":"-43.1737","pontos_turisticos":[{"nome":"Espaço Cultural da Marinha","distancia":486},{"nome":"Igreja Nossa Senhora do Carmo da Antiga Sé","distancia":289},{"nome":"Museu do Clube Naval","distancia":430},{"nome":"Museu Histórico Nacional","distancia":436},{"nome":"Museu Nacional de Belas Artes","distancia":460},{"nome":"Paço Imperial","distancia":214},{"nome":"Palácio Tiradentes","distancia":154},{"nome":"Teatro Glauce Rocha","distancia":373}]}]