[{"linha":"133","descricao_ponto":"Rua Das Laranjeiras próximo ao 218","sequencia":"4","latitude":"-22.9337","longitude":"-43.1863","pontos_turisticos":[{"nome":"Aterro do Flamengo","distancia":1573},{"nome":"Cristo Redentor (Corcovado)","distancia":1455},{"nome":"Fundação Casa de Rui Barbosa","distancia":1751},{"nome":"Igreja Nossa Senhora da Glória do Outeiro","distancia":1776},{"nome":"Mirante Dona Marta","distancia":1773},{"nome":"Museu Carmem Miranda","distancia":1660},{"nome":"Museu da Chácara do Céu","distancia":1832},{"nome":"Museu da República","distancia":1333},{"nome":"Museu de Folclore Edison Carneiro","distancia":1322},{"nome":"Oi Futuro","distancia":1095},{"nome":"Parque das Ruínas","distancia":1837},{"nome":"Parque Eduardo Guinle","distancia":467},{"nome":"Praia de Botafogo","distancia":1387},{"nome":"Praia do Flamengo","distancia":1608},{"nome":"Santa Teresa","distancia":1220},{"nome":"Teatro Bibi Ferreira","distancia":1379},{"nome":"Teatro Glória","distancia":1834}]},{"linha":"133","descricao_ponto":"Avenida Pedro Ii próximo ao 167","sequencia":"3","latitude":"-22.9034","longitude":"-43.2147","pontos_turisticos":[{"nome":"Centro Luiz Gonzaga de Tradições Nordestinas","distancia":874},{"nome":"Jardim Zoológico (Riozoo)","distancia":1450},{"nome":"Quinta da Boa Vista/Museu Nacional","distancia":1068},{"nome":"Teatro Mário Lago","distancia":786}]},{"linha":"133","descricao_ponto":"Rua Campos Da Paz próximo ao 117","sequencia":"15","latitude":"-22.9237","longitude":"-43.2064","pontos_turisticos":[{"nome":"Sambódromo","distancia":1676},{"nome":"Santa Teresa","distancia":1253},{"nome":"Teatro Ziembinski","distancia":1820}]},{"linha":"133","descricao_ponto":"Avenida Francisco Bicalho próximo ao 344","sequencia":"6","latitude":"-22.9081","longitude":"-43.2099","pontos_turisticos":[{"nome":"Centro Luiz Gonzaga de Tradições Nordestinas","distancia":1585},{"nome":"Jardim Zoológico (Riozoo)","distancia":1981},{"nome":"Quinta da Boa Vista/Museu Nacional","distancia":1563},{"nome":"Sambódromo","distancia":1389},{"nome":"Teatro Mário Lago","distancia":1498}]},{"linha":"133","descricao_ponto":"Rua Do Matoso próximo ao 280","sequencia":"15","latitude":"-22.9196","longitude":"-43.2118","pontos_turisticos":[{"nome":"Sambódromo","distancia":1779},{"nome":"Santa Teresa","distancia":1966},{"nome":"Teatro Ziembinski","distancia":1250}]},{"linha":"133","descricao_ponto":"Rua Barao De Petropolis próximo ao 207","sequencia":"22","latitude":"-22.9283","longitude":"-43.2035","pontos_turisticos":[{"nome":"Cristo Redentor (Corcovado)","distancia":1444},{"nome":"Sambódromo","distancia":1992},{"nome":"Santa Teresa","distancia":689}]},{"linha":"133","descricao_ponto":"Rua Alice próximo ao 2040","sequencia":"10","latitude":"-22.9365","longitude":"-43.1989","pontos_turisticos":[{"nome":"Cristo Redentor (Corcovado)","distancia":440},{"nome":"Fundação Casa de Rui Barbosa","distancia":1892},{"nome":"Mirante Dona Marta","distancia":1057},{"nome":"Museu do Índio","distancia":1892},{"nome":"Parque Eduardo Guinle","distancia":1774},{"nome":"Santa Teresa","distancia":514},{"nome":"Teatro Bibi Ferreira","distancia":1750}]},{"linha":"133","descricao_ponto":"Rua Carmo Neto próximo ao 174","sequencia":"8","latitude":"-22.9095","longitude":"-43.2002","pontos_turisticos":[{"nome":"Campo de Santana","distancia":1256},{"nome":"Cidade do Samba","distancia":1717},{"nome":"Memorial dos Pretos Novos","distancia":1667},{"nome":"Museu da Chácara do Céu","distancia":1862},{"nome":"Real Gabinete Português de Leitura","distancia":1900},{"nome":"Sambódromo","distancia":408},{"nome":"Teatro Carlos Gomes","distancia":1829},{"nome":"Teatro João Caetano","distancia":1867}]},{"linha":"133","descricao_ponto":"Rua Das Laranjeiras próximo ao 48","sequencia":"2","latitude":"-22.9317","longitude":"-43.1805","pontos_turisticos":[{"nome":"Aterro do Flamengo","distancia":939},{"nome":"Igreja e Convento de Santa Teresa","distancia":1784},{"nome":"Igreja Nossa Senhora da Glória do Outeiro","distancia":1269},{"nome":"Monumento aos Pracinhas","distancia":1815},{"nome":"Museu Carmem Miranda","distancia":1359},{"nome":"Museu da Chácara do Céu","distancia":1639},{"nome":"Museu da República","distancia":770},{"nome":"Museu de Folclore Edison Carneiro","distancia":755},{"nome":"Oi Futuro","distancia":461},{"nome":"Parque das Ruínas","distancia":1585},{"nome":"Parque Eduardo Guinle","distancia":206},{"nome":"Praça Paris","distancia":1679},{"nome":"Praia de Botafogo","distancia":1492},{"nome":"Praia do Flamengo","distancia":976},{"nome":"Sala Cecília Meireles","distancia":1943},{"nome":"Santa Teresa","distancia":1798},{"nome":"Teatro Bibi Ferreira","distancia":1673},{"nome":"Teatro Glória","distancia":1257}]},{"linha":"133","descricao_ponto":"Avenida Francisco Bicalho, próximo a Unidos da Tijuca","sequencia":"23","latitude":"-22.9038","longitude":"-43.2096","pontos_turisticos":[{"nome":"Centro Luiz Gonzaga de Tradições Nordestinas","distancia":1265},{"nome":"Cidade do Samba","distancia":1664},{"nome":"Jardim Zoológico (Riozoo)","distancia":1970},{"nome":"Memorial dos Pretos Novos","distancia":1909},{"nome":"Quinta da Boa Vista/Museu Nacional","distancia":1576},{"nome":"Sambódromo","distancia":1561},{"nome":"Teatro Mário Lago","distancia":1263}]},{"linha":"133","descricao_ponto":"Rua Carmo Neto próximo ao 224","sequencia":"9","latitude":"-22.9114","longitude":"-43.1995","pontos_turisticos":[{"nome":"Campo de Santana","distancia":1259},{"nome":"Catedral Metropolitana","distancia":1924},{"nome":"Cidade do Samba","distancia":1914},{"nome":"Memorial dos Pretos Novos","distancia":1831},{"nome":"Museu da Chácara do Céu","distancia":1707},{"nome":"Parque das Ruínas","distancia":1875},{"nome":"Real Gabinete Português de Leitura","distancia":1894},{"nome":"Sambódromo","distancia":273},{"nome":"Teatro Carlos Gomes","distancia":1800},{"nome":"Teatro João Caetano","distancia":1849}]},{"linha":"133","descricao_ponto":"Rua Estrela próximo ao 73","sequencia":"19","latitude":"-22.9249","longitude":"-43.2083","pontos_turisticos":[{"nome":"Cristo Redentor (Corcovado)","distancia":1999},{"nome":"Sambódromo","distancia":1900},{"nome":"Santa Teresa","distancia":1309},{"nome":"Teatro Ziembinski","distancia":1659}]},{"linha":"133","descricao_ponto":"Rua Barao De Petropolis próximo ao 759","sequencia":"11","latitude":"-22.932","longitude":"-43.2014","pontos_turisticos":[{"nome":"Cristo Redentor (Corcovado)","distancia":984},{"nome":"Mirante Dona Marta","distancia":1599},{"nome":"Parque Eduardo Guinle","distancia":1938},{"nome":"Santa Teresa","distancia":343}]},{"linha":"133","descricao_ponto":"BRS 1, 4, 6 - JOAQUIM PALHARES","sequencia":"12","latitude":"-22.915","longitude":"-43.2083","pontos_turisticos":[{"nome":"Sambódromo","distancia":1238},{"nome":"Teatro Ziembinski","distancia":1731}]},{"linha":"133","descricao_ponto":"PONTO FINAL - TRAVESSA GUEDES","sequencia":"11","latitude":"-22.913","longitude":"-43.2072","pontos_turisticos":[{"nome":"Quinta da Boa Vista/Museu Nacional","distancia":1997},{"nome":"Sambódromo","distancia":1075},{"nome":"Teatro Ziembinski","distancia":1927}]},{"linha":"133","descricao_ponto":"Rua Alice próximo ao 118","sequencia":"6","latitude":"-22.9359","longitude":"-43.1908","pontos_turisticos":[{"nome":"Cristo Redentor (Corcovado)","distancia":935},{"nome":"Fundação Casa de Rui Barbosa","distancia":1557},{"nome":"Mirante Dona Marta","distancia":1304},{"nome":"Museu Carmem Miranda","distancia":1980},{"nome":"Museu da República","distancia":1845},{"nome":"Museu de Folclore Edison Carneiro","distancia":1836},{"nome":"Museu do Índio","distancia":1792},{"nome":"Oi Futuro","distancia":1615},{"nome":"Parque Eduardo Guinle","distancia":988},{"nome":"Praia de Botafogo","distancia":1446},{"nome":"Santa Teresa","distancia":863},{"nome":"Teatro Bibi Ferreira","distancia":1262}]},{"linha":"133","descricao_ponto":"Rua Barao De Petropolis próximo ao 44","sequencia":"21","latitude":"-22.9261","longitude":"-43.2048","pontos_turisticos":[{"nome":"Cristo Redentor (Corcovado)","distancia":1720},{"nome":"Sambódromo","distancia":1820},{"nome":"Santa Teresa","distancia":948}]},{"linha":"133","descricao_ponto":"Rua Professor Alcias Athayde próximo ao S/n","sequencia":"25","latitude":"-22.9361","longitude":"-43.1994","pontos_turisticos":[{"nome":"Cristo Redentor (Corcovado)","distancia":491},{"nome":"Fundação Casa de Rui Barbosa","distancia":1959},{"nome":"Mirante Dona Marta","distancia":1109},{"nome":"Museu do Índio","distancia":1953},{"nome":"Parque Eduardo Guinle","distancia":1809},{"nome":"Santa Teresa","distancia":482},{"nome":"Teatro Bibi Ferreira","distancia":1818}]},{"linha":"133","descricao_ponto":"Largo Do Machado próximo ao 1","sequencia":"33","latitude":"-22.931","longitude":"-43.1783","pontos_turisticos":[{"nome":"Aterro do Flamengo","distancia":701},{"nome":"Igreja e Convento de Santa Teresa","distancia":1718},{"nome":"Igreja Nossa Senhora da Glória do Outeiro","distancia":1118},{"nome":"Monumento aos Pracinhas","distancia":1670},{"nome":"Museu Carmem Miranda","distancia":1303},{"nome":"Museu da Chácara do Céu","distancia":1632},{"nome":"Museu da República","distancia":601},{"nome":"Museu de Arte Moderna","distancia":1981},{"nome":"Museu de Folclore Edison Carneiro","distancia":583},{"nome":"Oi Futuro","distancia":225},{"nome":"Parque das Ruínas","distancia":1554},{"nome":"Parque Eduardo Guinle","distancia":431},{"nome":"Praça Paris","distancia":1553},{"nome":"Praia de Botafogo","distancia":1591},{"nome":"Praia do Flamengo","distancia":738},{"nome":"Sala Cecília Meireles","distancia":1852},{"nome":"Teatro Bibi Ferreira","distancia":1824},{"nome":"Teatro Glória","distancia":1061}]},{"linha":"133","descricao_ponto":"Rua Aristides Lobo próximo ao 35","sequencia":"19","latitude":"-22.9179","longitude":"-43.2093","pontos_turisticos":[{"nome":"Sambódromo","distancia":1463},{"nome":"Santa Teresa","distancia":1940},{"nome":"Teatro Ziembinski","distancia":1535}]},{"linha":"133","descricao_ponto":"Rua Alice próximo ao 2040","sequencia":"26","latitude":"-22.9365","longitude":"-43.1988","pontos_turisticos":[{"nome":"Cristo Redentor (Corcovado)","distancia":439},{"nome":"Fundação Casa de Rui Barbosa","distancia":1885},{"nome":"Mirante Dona Marta","distancia":1056},{"nome":"Museu do Índio","distancia":1887},{"nome":"Parque Eduardo Guinle","distancia":1764},{"nome":"Santa Teresa","distancia":512},{"nome":"Teatro Bibi Ferreira","distancia":1742}]},{"linha":"133","descricao_ponto":"BRS 1, 4 - REVERENDO ÁLVARO REIS","sequencia":"10","latitude":"-22.913","longitude":"-43.2026","pontos_turisticos":[{"nome":"Campo de Santana","distancia":1622},{"nome":"Museu da Chácara do Céu","distancia":1952},{"nome":"Sambódromo","distancia":614}]},{"linha":"133","descricao_ponto":"Rua Aristides Lobo próximo ao 113","sequencia":"17","latitude":"-22.9218","longitude":"-43.2089","pontos_turisticos":[{"nome":"Sambódromo","distancia":1687},{"nome":"Santa Teresa","distancia":1583},{"nome":"Teatro Ziembinski","distancia":1541}]},{"linha":"133","descricao_ponto":"Rua Das Laranjeiras próximo ao 275","sequencia":"31","latitude":"-22.9347","longitude":"-43.1879","pontos_turisticos":[{"nome":"Aterro do Flamengo","distancia":1766},{"nome":"Cristo Redentor (Corcovado)","distancia":1258},{"nome":"Fundação Casa de Rui Barbosa","distancia":1642},{"nome":"Igreja Nossa Senhora da Glória do Outeiro","distancia":1966},{"nome":"Mirante Dona Marta","distancia":1584},{"nome":"Museu Carmem Miranda","distancia":1752},{"nome":"Museu da Chácara do Céu","distancia":1968},{"nome":"Museu da República","distancia":1530},{"nome":"Museu de Folclore Edison Carneiro","distancia":1520},{"nome":"Museu do Índio","distancia":1956},{"nome":"Oi Futuro","distancia":1289},{"nome":"Parque das Ruínas","distancia":1986},{"nome":"Parque Eduardo Guinle","distancia":665},{"nome":"Praia de Botafogo","distancia":1365},{"nome":"Praia do Flamengo","distancia":1798},{"nome":"Santa Teresa","distancia":1084},{"nome":"Teatro Bibi Ferreira","distancia":1291}]},{"linha":"133","descricao_ponto":"Largo Do Machado próximo ao 1","sequencia":"1","latitude":"-22.931","longitude":"-43.1783","pontos_turisticos":[{"nome":"Aterro do Flamengo","distancia":701},{"nome":"Igreja e Convento de Santa Teresa","distancia":1718},{"nome":"Igreja Nossa Senhora da Glória do Outeiro","distancia":1118},{"nome":"Monumento aos Pracinhas","distancia":1670},{"nome":"Museu Carmem Miranda","distancia":1303},{"nome":"Museu da Chácara do Céu","distancia":1632},{"nome":"Museu da República","distancia":601},{"nome":"Museu de Arte Moderna","distancia":1981},{"nome":"Museu de Folclore Edison Carneiro","distancia":583},{"nome":"Oi Futuro","distancia":225},{"nome":"Parque das Ruínas","distancia":1554},{"nome":"Parque Eduardo Guinle","distancia":431},{"nome":"Praça Paris","distancia":1553},{"nome":"Praia de Botafogo","distancia":1591},{"nome":"Praia do Flamengo","distancia":738},{"nome":"Sala Cecília Meireles","distancia":1852},{"nome":"Teatro Bibi Ferreira","distancia":1824},{"nome":"Teatro Glória","distancia":1061}]},{"linha":"133","descricao_ponto":"BRS 1, 2, 3, 4, 5, I - CIDADE NOVA","sequencia":"7","latitude":"-22.9101","longitude":"-43.206","pontos_turisticos":[{"nome":"Campo de Santana","distancia":1849},{"nome":"Cidade do Samba","distancia":1980},{"nome":"Sambódromo","distancia":951},{"nome":"Teatro Mário Lago","distancia":1947}]},{"linha":"133","descricao_ponto":"Rua Barao De Petropolis próximo ao 716","sequencia":"23","latitude":"-22.9306","longitude":"-43.2019","pontos_turisticos":[{"nome":"Cristo Redentor (Corcovado)","distancia":1148},{"nome":"Mirante Dona Marta","distancia":1763},{"nome":"Parque Eduardo Guinle","distancia":1990},{"nome":"Santa Teresa","distancia":421}]},{"linha":"133","descricao_ponto":"Rua Figueira De Melo próximo ao 246","sequencia":"2","latitude":"-22.9044","longitude":"-43.2149","pontos_turisticos":[{"nome":"Centro Luiz Gonzaga de Tradições Nordestinas","distancia":959},{"nome":"Estádio do Maracanã","distancia":1947},{"nome":"Jardim Zoológico (Riozoo)","distancia":1426},{"nome":"Quinta da Boa Vista/Museu Nacional","distancia":1029},{"nome":"Teatro Mário Lago","distancia":842}]},{"linha":"133","descricao_ponto":"Rua Alice próximo ao 1658","sequencia":"27","latitude":"-22.9366","longitude":"-43.1958","pontos_turisticos":[{"nome":"Cristo Redentor (Corcovado)","distancia":507},{"nome":"Fundação Casa de Rui Barbosa","distancia":1693},{"nome":"Mirante Dona Marta","distancia":1049},{"nome":"Museu do Índio","distancia":1774},{"nome":"Parque Eduardo Guinle","distancia":1481},{"nome":"Praia de Botafogo","distancia":1801},{"nome":"Santa Teresa","distancia":567},{"nome":"Teatro Bibi Ferreira","distancia":1503}]},{"linha":"133","descricao_ponto":"Rua Mario Portela próximo ao 105","sequencia":"30","latitude":"-22.9363","longitude":"-43.1914","pontos_turisticos":[{"nome":"Cristo Redentor (Corcovado)","distancia":859},{"nome":"Fundação Casa de Rui Barbosa","distancia":1532},{"nome":"Mirante Dona Marta","distancia":1235},{"nome":"Museu da República","distancia":1921},{"nome":"Museu de Folclore Edison Carneiro","distancia":1912},{"nome":"Museu do Índio","distancia":1747},{"nome":"Oi Futuro","distancia":1689},{"nome":"Parque Eduardo Guinle","distancia":1063},{"nome":"Praia de Botafogo","distancia":1459},{"nome":"Santa Teresa","distancia":836},{"nome":"Teatro Bibi Ferreira","distancia":1252}]},{"linha":"133","descricao_ponto":"Rua Alice próximo ao 1084","sequencia":"9","latitude":"-22.9345","longitude":"-43.1924","pontos_turisticos":[{"nome":"Cristo Redentor (Corcovado)","distancia":908},{"nome":"Fundação Casa de Rui Barbosa","distancia":1754},{"nome":"Mirante Dona Marta","distancia":1370},{"nome":"Museu da República","distancia":1895},{"nome":"Museu de Folclore Edison Carneiro","distancia":1888},{"nome":"Museu do Índio","distancia":1950},{"nome":"Oi Futuro","distancia":1714},{"nome":"Parque Eduardo Guinle","distancia":1072},{"nome":"Praia de Botafogo","distancia":1672},{"nome":"Santa Teresa","distancia":645},{"nome":"Teatro Bibi Ferreira","distancia":1476}]},{"linha":"133","descricao_ponto":"Avenida Francisco Bicalho próximo Rodoviária Novo Rio","sequencia":"24","latitude":"-22.9007","longitude":"-43.2098","pontos_turisticos":[{"nome":"Centro Luiz Gonzaga de Tradições Nordestinas","distancia":1069},{"nome":"Cidade do Samba","distancia":1488},{"nome":"Jardim Zoológico (Riozoo)","distancia":1991},{"nome":"Memorial dos Pretos Novos","distancia":1800},{"nome":"Quinta da Boa Vista/Museu Nacional","distancia":1632},{"nome":"Sambódromo","distancia":1788},{"nome":"Teatro Mário Lago","distancia":1145}]},{"linha":"133","descricao_ponto":"Terminal Padre Henrique Otte","sequencia":"1","latitude":"-22.9014","longitude":"-43.2081","pontos_turisticos":[{"nome":"Centro Luiz Gonzaga de Tradições Nordestinas","distancia":1260},{"nome":"Cidade do Samba","distancia":1381},{"nome":"Memorial dos Pretos Novos","distancia":1660},{"nome":"Quinta da Boa Vista/Museu Nacional","distancia":1777},{"nome":"Sambódromo","distancia":1608},{"nome":"Teatro Mário Lago","distancia":1330}]},{"linha":"133","descricao_ponto":"Rua Alice próximo ao 922","sequencia":"8","latitude":"-22.9347","longitude":"-43.1918","pontos_turisticos":[{"nome":"Cristo Redentor (Corcovado)","distancia":936},{"nome":"Fundação Casa de Rui Barbosa","distancia":1714},{"nome":"Mirante Dona Marta","distancia":1374},{"nome":"Museu da República","distancia":1854},{"nome":"Museu de Folclore Edison Carneiro","distancia":1846},{"nome":"Museu do Índio","distancia":1925},{"nome":"Oi Futuro","distancia":1662},{"nome":"Parque Eduardo Guinle","distancia":1022},{"nome":"Praia de Botafogo","distancia":1613},{"nome":"Santa Teresa","distancia":710},{"nome":"Teatro Bibi Ferreira","distancia":1427}]},{"linha":"133","descricao_ponto":"Rua Barao De Itapagipe próximo ao 154","sequencia":"16","latitude":"-22.9206","longitude":"-43.2127","pontos_turisticos":[{"nome":"Sambódromo","distancia":1916},{"nome":"Santa Teresa","distancia":1960},{"nome":"Teatro Ziembinski","distancia":1149}]},{"linha":"133","descricao_ponto":"Rua Alice próximo ao 561","sequencia":"29","latitude":"-22.9345","longitude":"-43.1921","pontos_turisticos":[{"nome":"Cristo Redentor (Corcovado)","distancia":929},{"nome":"Fundação Casa de Rui Barbosa","distancia":1744},{"nome":"Mirante Dona Marta","distancia":1382},{"nome":"Museu da República","distancia":1868},{"nome":"Museu de Folclore Edison Carneiro","distancia":1861},{"nome":"Museu do Índio","distancia":1949},{"nome":"Oi Futuro","distancia":1685},{"nome":"Parque Eduardo Guinle","distancia":1043},{"nome":"Praia de Botafogo","distancia":1650},{"nome":"Santa Teresa","distancia":673},{"nome":"Teatro Bibi Ferreira","distancia":1461}]},{"linha":"133","descricao_ponto":"BRS 1B, 2B, 5, 6 - SAMPAIO FERRAZ","sequencia":"20","latitude":"-22.9154","longitude":"-43.2079","pontos_turisticos":[{"nome":"Sambódromo","distancia":1214},{"nome":"Teatro Ziembinski","distancia":1753}]},{"linha":"133","descricao_ponto":"Rua Do Matoso próximo ao 170","sequencia":"14","latitude":"-22.9168","longitude":"-43.2121","pontos_turisticos":[{"nome":"Estádio do Maracanã","distancia":1975},{"nome":"Quinta da Boa Vista/Museu Nacional","distancia":1819},{"nome":"Sambódromo","distancia":1672},{"nome":"Teatro Ziembinski","distancia":1295}]},{"linha":"133","descricao_ponto":"Rua Das Laranjeiras próximo ao 130","sequencia":"3","latitude":"-22.9326","longitude":"-43.1829","pontos_turisticos":[{"nome":"Aterro do Flamengo","distancia":1204},{"nome":"Cristo Redentor (Corcovado)","distancia":1818},{"nome":"Fundação Casa de Rui Barbosa","distancia":1917},{"nome":"Igreja e Convento de Santa Teresa","distancia":1903},{"nome":"Igreja Nossa Senhora da Glória do Outeiro","distancia":1473},{"nome":"Museu Carmem Miranda","distancia":1452},{"nome":"Museu da Chácara do Céu","distancia":1701},{"nome":"Museu da República","distancia":999},{"nome":"Museu de Folclore Edison Carneiro","distancia":986},{"nome":"Oi Futuro","distancia":727},{"nome":"Parque das Ruínas","distancia":1673},{"nome":"Parque Eduardo Guinle","distancia":140},{"nome":"Praça Paris","distancia":1857},{"nome":"Praia de Botafogo","distancia":1407},{"nome":"Praia do Flamengo","distancia":1239},{"nome":"Santa Teresa","distancia":1554},{"nome":"Teatro Bibi Ferreira","distancia":1518},{"nome":"Teatro Glória","distancia":1496}]},{"linha":"133","descricao_ponto":"Rua Das Laranjeiras próximo ao 336","sequencia":"5","latitude":"-22.9357","longitude":"-43.1895","pontos_turisticos":[{"nome":"Aterro do Flamengo","distancia":1959},{"nome":"Cristo Redentor (Corcovado)","distancia":1060},{"nome":"Fundação Casa de Rui Barbosa","distancia":1551},{"nome":"Mirante Dona Marta","distancia":1397},{"nome":"Museu Carmem Miranda","distancia":1861},{"nome":"Museu da República","distancia":1727},{"nome":"Museu de Folclore Edison Carneiro","distancia":1717},{"nome":"Museu do Índio","distancia":1823},{"nome":"Oi Futuro","distancia":1485},{"nome":"Parque Eduardo Guinle","distancia":863},{"nome":"Praia de Botafogo","distancia":1372},{"nome":"Praia do Flamengo","distancia":1990},{"nome":"Santa Teresa","distancia":971},{"nome":"Teatro Bibi Ferreira","distancia":1230}]},{"linha":"133","descricao_ponto":"Rua Barao De Petropolis próximo ao 461","sequencia":"12","latitude":"-22.93","longitude":"-43.2019","pontos_turisticos":[{"nome":"Cristo Redentor (Corcovado)","distancia":1212},{"nome":"Mirante Dona Marta","distancia":1827},{"nome":"Parque Eduardo Guinle","distancia":1994},{"nome":"Santa Teresa","distancia":449}]},{"linha":"133","descricao_ponto":"Rua Do Bispo próximo ao 212","sequencia":"17","latitude":"-22.9226","longitude":"-43.214","pontos_turisticos":[{"nome":"Santa Teresa","distancia":1935},{"nome":"Teatro Ziembinski","distancia":1032}]},{"linha":"133","descricao_ponto":"Rua Estrela próximo ao 6","sequencia":"20","latitude":"-22.9252","longitude":"-43.206","pontos_turisticos":[{"nome":"Cristo Redentor (Corcovado)","distancia":1861},{"nome":"Sambódromo","distancia":1792},{"nome":"Santa Teresa","distancia":1106},{"nome":"Teatro Ziembinski","distancia":1895}]},{"linha":"133","descricao_ponto":"Rua Conde De Baependi próximo ao 65","sequencia":"32","latitude":"-22.9332","longitude":"-43.1807","pontos_turisticos":[{"nome":"Aterro do Flamengo","distancia":1023},{"nome":"Cristo Redentor (Corcovado)","distancia":1991},{"nome":"Fundação Casa de Rui Barbosa","distancia":1914},{"nome":"Igreja e Convento de Santa Teresa","distancia":1951},{"nome":"Igreja Nossa Senhora da Glória do Outeiro","distancia":1430},{"nome":"Monumento aos Pracinhas","distancia":1978},{"nome":"Museu Carmem Miranda","distancia":1245},{"nome":"Museu da Chácara do Céu","distancia":1798},{"nome":"Museu da República","distancia":924},{"nome":"Museu de Folclore Edison Carneiro","distancia":908},{"nome":"Oi Futuro","distancia":567},{"nome":"Parque das Ruínas","distancia":1748},{"nome":"Parque Eduardo Guinle","distancia":271},{"nome":"Praça Paris","distancia":1845},{"nome":"Praia de Botafogo","distancia":1325},{"nome":"Praia do Flamengo","distancia":1050},{"nome":"Santa Teresa","distancia":1783},{"nome":"Teatro Bibi Ferreira","distancia":1507},{"nome":"Teatro Glória","distancia":1402}]},{"linha":"133","descricao_ponto":"BRS 1, 4, 5, 6, I - BARÃO DE UBÁ","sequencia":"13","latitude":"-22.9159","longitude":"-43.211","pontos_turisticos":[{"nome":"Quinta da Boa Vista/Museu Nacional","distancia":1837},{"nome":"Sambódromo","distancia":1532},{"nome":"Teatro Ziembinski","distancia":1437}]},{"linha":"133","descricao_ponto":"Rua Campos Da Paz próximo ao 67","sequencia":"16","latitude":"-22.9235","longitude":"-43.2079","pontos_turisticos":[{"nome":"Sambódromo","distancia":1753},{"nome":"Santa Teresa","distancia":1378},{"nome":"Teatro Ziembinski","distancia":1665}]},{"linha":"133","descricao_ponto":"Rua Aristides Lobo próximo ao 922","sequencia":"18","latitude":"-22.9199","longitude":"-43.2086","pontos_turisticos":[{"nome":"Sambódromo","distancia":1526},{"nome":"Santa Teresa","distancia":1720},{"nome":"Teatro Ziembinski","distancia":1573}]},{"linha":"133","descricao_ponto":"Avenida Francisco Bicalho próximo ao 10 (Pista Central)","sequencia":"22","latitude":"-22.9073","longitude":"-43.2095","pontos_turisticos":[{"nome":"Centro Luiz Gonzaga de Tradições Nordestinas","distancia":1542},{"nome":"Cidade do Samba","distancia":1927},{"nome":"Quinta da Boa Vista/Museu Nacional","distancia":1589},{"nome":"Sambódromo","distancia":1377},{"nome":"Teatro Mário Lago","distancia":1473}]},{"linha":"133","descricao_ponto":"Avenida Francisco Bicalho próximo ao 234","sequencia":"5","latitude":"-22.9034","longitude":"-43.2104","pontos_turisticos":[{"nome":"Centro Luiz Gonzaga de Tradições Nordestinas","distancia":1173},{"nome":"Cidade do Samba","distancia":1702},{"nome":"Jardim Zoológico (Riozoo)","distancia":1890},{"nome":"Memorial dos Pretos Novos","distancia":1964},{"nome":"Quinta da Boa Vista/Museu Nacional","distancia":1501},{"nome":"Sambódromo","distancia":1654},{"nome":"Teatro Mário Lago","distancia":1170}]},{"linha":"133","descricao_ponto":"Rua Do Bispo próximo ao 72","sequencia":"18","latitude":"-22.9247","longitude":"-43.2117","pontos_turisticos":[{"nome":"Santa Teresa","distancia":1613},{"nome":"Teatro Ziembinski","distancia":1319}]},{"linha":"133","descricao_ponto":"Rua Barao De Petropolis próximo ao 11","sequencia":"14","latitude":"-22.9256","longitude":"-43.2052","pontos_turisticos":[{"nome":"Cristo Redentor (Corcovado)","distancia":1787},{"nome":"Sambódromo","distancia":1789},{"nome":"Santa Teresa","distancia":1016},{"nome":"Teatro Ziembinski","distancia":1985}]},{"linha":"133","descricao_ponto":"Avenida Pedro Ii próximo ao 348","sequencia":"4","latitude":"-22.9024","longitude":"-43.2122","pontos_turisticos":[{"nome":"Centro Luiz Gonzaga de Tradições Nordestinas","distancia":960},{"nome":"Cidade do Samba","distancia":1795},{"nome":"Jardim Zoológico (Riozoo)","distancia":1717},{"nome":"Quinta da Boa Vista/Museu Nacional","distancia":1342},{"nome":"Sambódromo","distancia":1869},{"nome":"Teatro Mário Lago","distancia":957}]},{"linha":"133","descricao_ponto":"Rua Barao De Petropolis próximo ao 759","sequencia":"24","latitude":"-22.9319","longitude":"-43.2014","pontos_turisticos":[{"nome":"Cristo Redentor (Corcovado)","distancia":995},{"nome":"Mirante Dona Marta","distancia":1610},{"nome":"Parque Eduardo Guinle","distancia":1938},{"nome":"Santa Teresa","distancia":342}]},{"linha":"133","descricao_ponto":"Rua Alice próximo ao 550","sequencia":"7","latitude":"-22.9355","longitude":"-43.1935","pontos_turisticos":[{"nome":"Cristo Redentor (Corcovado)","distancia":749},{"nome":"Fundação Casa de Rui Barbosa","distancia":1691},{"nome":"Mirante Dona Marta","distancia":1226},{"nome":"Museu do Índio","distancia":1849},{"nome":"Oi Futuro","distancia":1856},{"nome":"Parque Eduardo Guinle","distancia":1217},{"nome":"Praia de Botafogo","distancia":1680},{"nome":"Santa Teresa","distancia":612},{"nome":"Teatro Bibi Ferreira","distancia":1443}]},{"linha":"133","descricao_ponto":"PONTO FINAL - TRAVESSA GUEDES","sequencia":"21","latitude":"-22.913","longitude":"-43.2072","pontos_turisticos":[{"nome":"Quinta da Boa Vista/Museu Nacional","distancia":1997},{"nome":"Sambódromo","distancia":1075},{"nome":"Teatro Ziembinski","distancia":1927}]},{"linha":"133","descricao_ponto":"Rua Alice próximo ao 1285","sequencia":"28","latitude":"-22.9353","longitude":"-43.1946","pontos_turisticos":[{"nome":"Cristo Redentor (Corcovado)","distancia":696},{"nome":"Fundação Casa de Rui Barbosa","distancia":1759},{"nome":"Mirante Dona Marta","distancia":1215},{"nome":"Museu do Índio","distancia":1888},{"nome":"Oi Futuro","distancia":1956},{"nome":"Parque Eduardo Guinle","distancia":1314},{"nome":"Praia de Botafogo","distancia":1782},{"nome":"Santa Teresa","distancia":514},{"nome":"Teatro Bibi Ferreira","distancia":1528}]},{"linha":"133","descricao_ponto":"Terminal Padre Henrique Otte","sequencia":"25","latitude":"-22.9014","longitude":"-43.2081","pontos_turisticos":[{"nome":"Centro Luiz Gonzaga de Tradições Nordestinas","distancia":1260},{"nome":"Cidade do Samba","distancia":1381},{"nome":"Memorial dos Pretos Novos","distancia":1660},{"nome":"Quinta da Boa Vista/Museu Nacional","distancia":1777},{"nome":"Sambódromo","distancia":1608},{"nome":"Teatro Mário Lago","distancia":1330}]},{"linha":"133","descricao_ponto":"Rua Barao De Petropolis próximo ao 207","sequencia":"13","latitude":"-22.9283","longitude":"-43.2035","pontos_turisticos":[{"nome":"Cristo Redentor (Corcovado)","distancia":1444},{"nome":"Sambódromo","distancia":1992},{"nome":"Santa Teresa","distancia":689}]}]