[{"linha":"136","descricao_ponto":"BRS 1, 2, 3 - PRAÇA DA REPÚBLICA","sequencia":"8","latitude":"-22.9048","longitude":"-43.1893","pontos_turisticos":[{"nome":"Campo de Santana","distancia":230}]},{"linha":"136","descricao_ponto":"Avenida Oswaldo Cruz próximo ao 112","sequencia":"28","latitude":"-22.9396","longitude":"-43.1749","pontos_turisticos":[{"nome":"Museu Carmem Miranda","distancia":324}]},{"linha":"136","descricao_ponto":"BRS 1, 2, 3 - TOMÉ DE SOUSA","sequencia":"36","latitude":"-22.904","longitude":"-43.1883","pontos_turisticos":[{"nome":"Campo de Santana","distancia":297}]},{"linha":"136","descricao_ponto":"Avenida Rui Barbosa próximo ao 266","sequencia":"22","latitude":"-22.9396","longitude":"-43.1711","pontos_turisticos":[{"nome":"Museu Carmem Miranda","distancia":240}]},{"linha":"136","descricao_ponto":"Avenida Rui Barbosa próximo ao 660","sequencia":"20","latitude":"-22.9424","longitude":"-43.1741","pontos_turisticos":[{"nome":"Museu Carmem Miranda","distancia":206}]},{"linha":"136","descricao_ponto":"Praia Do Flamengo próximo ao 54","sequencia":"20","latitude":"-22.9227","longitude":"-43.1724","pontos_turisticos":[{"nome":"Igreja Nossa Senhora da Glória do Outeiro","distancia":338},{"nome":"Teatro Glória","distancia":43}]},{"linha":"136","descricao_ponto":"Avenida Beira Mar próximo ao 191","sequencia":"20","latitude":"-22.9227","longitude":"-43.1724","pontos_turisticos":[{"nome":"Igreja Nossa Senhora da Glória do Outeiro","distancia":338},{"nome":"Teatro Glória","distancia":43}]},{"linha":"136","descricao_ponto":"Praia Do Flamengo próximo ao 86","sequencia":"22","latitude":"-22.9268","longitude":"-43.1734","pontos_turisticos":[{"nome":"Aterro do Flamengo","distancia":293},{"nome":"Museu da República","distancia":329},{"nome":"Museu de Folclore Edison Carneiro","distancia":319},{"nome":"Oi Futuro","distancia":469},{"nome":"Praia do Flamengo","distancia":363},{"nome":"Teatro Glória","distancia":432}]},{"linha":"136","descricao_ponto":"Terminal Padre Henrique Otte","sequencia":"43","latitude":"-22.9014","longitude":"-43.2081","pontos_turisticos":[]},{"linha":"136","descricao_ponto":"Terminal Pe. Henrique Otte - Ponto A6","sequencia":"43","latitude":"-22.9014","longitude":"-43.2081","pontos_turisticos":[]},{"linha":"136","descricao_ponto":"Terminal Pe. Henrique Otte - Ponto A5","sequencia":"43","latitude":"-22.9014","longitude":"-43.2081","pontos_turisticos":[]},{"linha":"136","descricao_ponto":"BRS 1, 3, 5 - CENTRAL","sequencia":"37","latitude":"-22.9055","longitude":"-43.193","pontos_turisticos":[{"nome":"Campo de Santana","distancia":495}]},{"linha":"136","descricao_ponto":"Avenida Francisco Bicalho, próximo a Unidos da Tijuca","sequencia":"41","latitude":"-22.9038","longitude":"-43.2096","pontos_turisticos":[]},{"linha":"136","descricao_ponto":"Praia Do Flamengo próximo ao 312","sequencia":"23","latitude":"-22.9355","longitude":"-43.174","pontos_turisticos":[]},{"linha":"136","descricao_ponto":"Praia Do Flamengo próximo ao 306","sequencia":"23","latitude":"-22.9355","longitude":"-43.174","pontos_turisticos":[]},{"linha":"136","descricao_ponto":"Praia Do Flamengo próximo ao 122","sequencia":"23","latitude":"-22.9293","longitude":"-43.1741","pontos_turisticos":[{"nome":"Aterro do Flamengo","distancia":237},{"nome":"Museu da República","distancia":451},{"nome":"Museu de Folclore Edison Carneiro","distancia":432},{"nome":"Oi Futuro","distancia":247},{"nome":"Praia do Flamengo","distancia":287}]},{"linha":"136","descricao_ponto":"Praia Do Flamengo próximo ao 136","sequencia":"23","latitude":"-22.9293","longitude":"-43.1741","pontos_turisticos":[{"nome":"Aterro do Flamengo","distancia":237},{"nome":"Museu da República","distancia":451},{"nome":"Museu de Folclore Edison Carneiro","distancia":432},{"nome":"Oi Futuro","distancia":247},{"nome":"Praia do Flamengo","distancia":287}]},{"linha":"136","descricao_ponto":"Rua Real Grandeza próximo ao 358","sequencia":"10","latitude":"-22.9586","longitude":"-43.1912","pontos_turisticos":[]},{"linha":"136","descricao_ponto":"Rua Real Grandeza próximo ao 271","sequencia":"10","latitude":"-22.9586","longitude":"-43.1912","pontos_turisticos":[]},{"linha":"136","descricao_ponto":"Avenida Beira Mar próximo ao 693","sequencia":"30","latitude":"-22.9156","longitude":"-43.1751","pontos_turisticos":[{"nome":"Monumento aos Pracinhas","distancia":146},{"nome":"Museu de Arte Moderna","distancia":277},{"nome":"Praça Paris","distancia":195},{"nome":"Sala Cecília Meireles","distancia":350}]},{"linha":"136","descricao_ponto":"BRS 1,3 - CANDELÁRIA","sequencia":"34","latitude":"-22.9005","longitude":"-43.1779","pontos_turisticos":[{"nome":"Casa França Brasil","distancia":196},{"nome":"Centro Cultural Banco do Brasil","distancia":142},{"nome":"Centro Cultural dos Correios","distancia":229},{"nome":"Espaço Cultural da Marinha","distancia":360},{"nome":"Igreja Nossa Senhora da Candelária","distancia":37},{"nome":"Igreja Nossa Senhora do Carmo da Antiga Sé","distancia":407},{"nome":"Mosteiro de São Bento","distancia":417}]},{"linha":"136","descricao_ponto":"BRS 1,2 - VISCONDE DE OURO PRETO","sequencia":"34","latitude":"-22.9472","longitude":"-43.1825","pontos_turisticos":[{"nome":"Praia de Botafogo","distancia":287},{"nome":"Teatro Bibi Ferreira","distancia":316}]},{"linha":"136","descricao_ponto":"Rua Sao Joao Batista próximo ao 108","sequencia":"11","latitude":"-22.957","longitude":"-43.1894","pontos_turisticos":[]},{"linha":"136","descricao_ponto":"Praia Do Flamengo próximo ao 66","sequencia":"21","latitude":"-22.9246","longitude":"-43.1727","pontos_turisticos":[{"nome":"Aterro do Flamengo","distancia":497},{"nome":"Igreja Nossa Senhora da Glória do Outeiro","distancia":453},{"nome":"Museu da República","distancia":409},{"nome":"Museu de Folclore Edison Carneiro","distancia":413},{"nome":"Teatro Glória","distancia":181}]},{"linha":"136","descricao_ponto":"BRS 2, 3 - MUNIZ BARRETO","sequencia":"35","latitude":"-22.9492","longitude":"-43.1839","pontos_turisticos":[{"nome":"Fundação Casa de Rui Barbosa","distancia":309},{"nome":"Teatro Bibi Ferreira","distancia":378}]},{"linha":"136","descricao_ponto":"BRS 1 - FIGUEIREDO MAGALHÃES","sequencia":"48","latitude":"-22.9706","longitude":"-43.1862","pontos_turisticos":[]},{"linha":"136","descricao_ponto":"Avenida Beira Mar próximo ao 321","sequencia":"31","latitude":"-22.9122","longitude":"-43.1731","pontos_turisticos":[{"nome":"Academia Brasileira de Letras","distancia":148},{"nome":"Biblioteca Nacional","distancia":379},{"nome":"Monumento aos Pracinhas","distancia":487},{"nome":"Museu de Arte Moderna","distancia":180},{"nome":"Museu Nacional de Belas Artes","distancia":478},{"nome":"Teatro Dulcina","distancia":438},{"nome":"Teatro Municipal","distancia":459},{"nome":"Teatro Rival Petrobras","distancia":343}]},{"linha":"136","descricao_ponto":"Avenida Oswaldo Cruz próximo ao 112","sequencia":"29","latitude":"-22.9406","longitude":"-43.176","pontos_turisticos":[{"nome":"Museu Carmem Miranda","distancia":378}]},{"linha":"136","descricao_ponto":"BRS 1, 2, 3 - PRAÇA ONZE","sequencia":"38","latitude":"-22.9079","longitude":"-43.2008","pontos_turisticos":[]},{"linha":"136","descricao_ponto":"BRS 1, 2, 3B - PRAÇA ONZE","sequencia":"38","latitude":"-22.9079","longitude":"-43.2008","pontos_turisticos":[]},{"linha":"136","descricao_ponto":"Rua Tonelero próximo ao 380","sequencia":"45","latitude":"-22.9693","longitude":"-43.1899","pontos_turisticos":[]},{"linha":"136","descricao_ponto":"Avenida Augusto Severo próximo ao 1","sequencia":"17","latitude":"-22.9162","longitude":"-43.1763","pontos_turisticos":[{"nome":"Igreja e Convento de Santa Teresa","distancia":415},{"nome":"Monumento aos Pracinhas","distancia":232},{"nome":"Museu de Arte Moderna","distancia":413},{"nome":"Praça Paris","distancia":123},{"nome":"Sala Cecília Meireles","distancia":286}]},{"linha":"136","descricao_ponto":"BRS 1, 2, 3, I - DEZENOVE DE FEVEREIRO","sequencia":"36","latitude":"-22.9495","longitude":"-43.1878","pontos_turisticos":[{"nome":"Fundação Casa de Rui Barbosa","distancia":92},{"nome":"Museu do Índio","distancia":455},{"nome":"Teatro Bibi Ferreira","distancia":458}]},{"linha":"136","descricao_ponto":"Avenida Rui Barbosa próximo ao 460","sequencia":"21","latitude":"-22.9412","longitude":"-43.1724","pontos_turisticos":[{"nome":"Museu Carmem Miranda","distancia":21}]},{"linha":"136","descricao_ponto":"Rua Real Grandeza próximo ao 358","sequencia":"42","latitude":"-22.9587","longitude":"-43.1913","pontos_turisticos":[]},{"linha":"136","descricao_ponto":"Rua Real Grandeza próximo ao 271","sequencia":"42","latitude":"-22.9587","longitude":"-43.1913","pontos_turisticos":[]},{"linha":"136","descricao_ponto":"Terminal Padre Henrique Otte","sequencia":"1","latitude":"-22.9014","longitude":"-43.2081","pontos_turisticos":[]},{"linha":"136","descricao_ponto":"Terminal Pe. Henrique Otte - Ponto A6","sequencia":"1","latitude":"-22.9014","longitude":"-43.2081","pontos_turisticos":[]},{"linha":"136","descricao_ponto":"Terminal Pe. Henrique Otte - Ponto A5","sequencia":"1","latitude":"-22.9014","longitude":"-43.2081","pontos_turisticos":[]},{"linha":"136","descricao_ponto":"BRS 4,5 - ERASMO BRAGA","sequencia":"33","latitude":"-22.9054","longitude":"-43.1737","pontos_turisticos":[{"nome":"Espaço Cultural da Marinha","distancia":486},{"nome":"Igreja Nossa Senhora do Carmo da Antiga Sé","distancia":289},{"nome":"Museu do Clube Naval","distancia":430},{"nome":"Museu Histórico Nacional","distancia":436},{"nome":"Museu Nacional de Belas Artes","distancia":460},{"nome":"Paço Imperial","distancia":214},{"nome":"Palácio Tiradentes","distancia":154},{"nome":"Teatro Glauce Rocha","distancia":373}]},{"linha":"136","descricao_ponto":"BRS 1,2,3,I - VISCONDE DE OURO PRETO","sequencia":"17","latitude":"-22.9472","longitude":"-43.1822","pontos_turisticos":[{"nome":"Praia de Botafogo","distancia":270},{"nome":"Teatro Bibi Ferreira","distancia":344}]},{"linha":"136","descricao_ponto":"BRS 2 - VISCONDE DE OURO PRETO","sequencia":"17","latitude":"-22.9472","longitude":"-43.1822","pontos_turisticos":[{"nome":"Praia de Botafogo","distancia":270},{"nome":"Teatro Bibi Ferreira","distancia":344}]},{"linha":"136","descricao_ponto":"BRS 1,2, 3 - CENTRAL","sequencia":"7","latitude":"-22.9062","longitude":"-43.1936","pontos_turisticos":[]},{"linha":"136","descricao_ponto":"BRS 1 - MARQUÊS DE OLINDA","sequencia":"32","latitude":"-22.9448","longitude":"-43.1823","pontos_turisticos":[{"nome":"Praia de Botafogo","distancia":153},{"nome":"Teatro Bibi Ferreira","distancia":341}]},{"linha":"136","descricao_ponto":"Rua Siqueira Campos próximo ao 33","sequencia":"49","latitude":"-22.9698","longitude":"-43.184","pontos_turisticos":[{"nome":"Sala Baden Powell","distancia":457}]},{"linha":"136","descricao_ponto":"Avenida Atlantica próximo ao 2516","sequencia":"5","latitude":"-22.9716","longitude":"-43.1845","pontos_turisticos":[]},{"linha":"136","descricao_ponto":"Avenida Beira Mar próximo ao 693","sequencia":"29","latitude":"-22.9195","longitude":"-43.1748","pontos_turisticos":[{"nome":"Igreja Nossa Senhora da Glória do Outeiro","distancia":211},{"nome":"Monumento aos Pracinhas","distancia":343},{"nome":"Praça Paris","distancia":275},{"nome":"Teatro Glória","distancia":442}]},{"linha":"136","descricao_ponto":"Praia Do Flamengo próximo ao 312","sequencia":"26","latitude":"-22.9355","longitude":"-43.1742","pontos_turisticos":[]},{"linha":"136","descricao_ponto":"Praia Do Flamengo próximo ao 306","sequencia":"26","latitude":"-22.9355","longitude":"-43.1742","pontos_turisticos":[]},{"linha":"136","descricao_ponto":"Avenida Francisco Bicalho próximo Rodoviária Novo Rio","sequencia":"42","latitude":"-22.9007","longitude":"-43.2098","pontos_turisticos":[]},{"linha":"136","descricao_ponto":"BRS 1,2,3,I - FARANI","sequencia":"18","latitude":"-22.9433","longitude":"-43.1809","pontos_turisticos":[{"nome":"Praia de Botafogo","distancia":202}]},{"linha":"136","descricao_ponto":"BRS 1, 2, 5, I - PASSOS (PTMV PV9)","sequencia":"9","latitude":"-22.9034","longitude":"-43.1851","pontos_turisticos":[{"nome":"Campo de Santana","distancia":492},{"nome":"Real Gabinete Português de Leitura","distancia":378},{"nome":"Teatro João Caetano","distancia":440}]},{"linha":"136","descricao_ponto":"Rua Figueiredo De Magalhaes próximo ao 548","sequencia":"8","latitude":"-22.9673","longitude":"-43.1884","pontos_turisticos":[]},{"linha":"136","descricao_ponto":"BRS 1, 2, 3 - CIDADE NOVA","sequencia":"40","latitude":"-22.9098","longitude":"-43.2064","pontos_turisticos":[]},{"linha":"136","descricao_ponto":"BRS 1, 3, 5 - CIDADE NOVA","sequencia":"40","latitude":"-22.9098","longitude":"-43.2064","pontos_turisticos":[]},{"linha":"136","descricao_ponto":"Praia Do Flamengo próximo ao 122","sequencia":"25","latitude":"-22.9294","longitude":"-43.174","pontos_turisticos":[{"nome":"Aterro do Flamengo","distancia":229},{"nome":"Museu da República","distancia":466},{"nome":"Museu de Folclore Edison Carneiro","distancia":446},{"nome":"Oi Futuro","distancia":254},{"nome":"Praia do Flamengo","distancia":277}]},{"linha":"136","descricao_ponto":"Praia Do Flamengo próximo ao 136","sequencia":"25","latitude":"-22.9294","longitude":"-43.174","pontos_turisticos":[{"nome":"Aterro do Flamengo","distancia":229},{"nome":"Museu da República","distancia":466},{"nome":"Museu de Folclore Edison Carneiro","distancia":446},{"nome":"Oi Futuro","distancia":254},{"nome":"Praia do Flamengo","distancia":277}]},{"linha":"136","descricao_ponto":"BRS 1, 2, 3 - SOROCABA","sequencia":"37","latitude":"-22.95","longitude":"-43.1909","pontos_turisticos":[{"nome":"Fundação Casa de Rui Barbosa","distancia":413},{"nome":"Museu do Índio","distancia":227}]},{"linha":"136","descricao_ponto":"Praia Do Flamengo próximo ao 1651","sequencia":"24","latitude":"-22.9327","longitude":"-43.1744","pontos_turisticos":[{"nome":"Aterro do Flamengo","distancia":490},{"nome":"Oi Futuro","distancia":363},{"nome":"Praia do Flamengo","distancia":483}]},{"linha":"136","descricao_ponto":"BRS 1 - CONSTANTE RAMOS","sequencia":"2","latitude":"-22.9735","longitude":"-43.1886","pontos_turisticos":[]},{"linha":"136","descricao_ponto":"Avenida Das Nacoes Unidas próximo ao 68","sequencia":"19","latitude":"-22.9426","longitude":"-43.1768","pontos_turisticos":[{"nome":"Museu Carmem Miranda","distancia":469},{"nome":"Praia de Botafogo","distancia":500}]},{"linha":"136","descricao_ponto":"Praia Do Flamengo próximo ao 54","sequencia":"28","latitude":"-22.9227","longitude":"-43.1723","pontos_turisticos":[{"nome":"Igreja Nossa Senhora da Glória do Outeiro","distancia":347},{"nome":"Teatro Glória","distancia":51}]},{"linha":"136","descricao_ponto":"Avenida Beira Mar próximo ao 191","sequencia":"28","latitude":"-22.9227","longitude":"-43.1723","pontos_turisticos":[{"nome":"Igreja Nossa Senhora da Glória do Outeiro","distancia":347},{"nome":"Teatro Glória","distancia":51}]},{"linha":"136","descricao_ponto":"Avenida Francisco Bicalho próximo ao 344","sequencia":"4","latitude":"-22.9081","longitude":"-43.2099","pontos_turisticos":[]},{"linha":"136","descricao_ponto":"Rua Real Grandeza próximo ao 278","sequencia":"41","latitude":"-22.9571","longitude":"-43.1918","pontos_turisticos":[]},{"linha":"136","descricao_ponto":"Rua Figueiredo De Magalhaes próximo ao 868","sequencia":"9","latitude":"-22.9659","longitude":"-43.1897","pontos_turisticos":[]},{"linha":"136","descricao_ponto":"Avenida Republica Do Paraguai próximo ao 1","sequencia":"12","latitude":"-22.9088","longitude":"-43.1805","pontos_turisticos":[{"nome":"Arcos da Lapa","distancia":456},{"nome":"Catedral Metropolitana","distancia":233},{"nome":"Confeitaria Colombo","distancia":431},{"nome":"Igreja de São Francisco da Penitência","distancia":246},{"nome":"Museu do Clube Naval","distancia":404},{"nome":"Museu Nacional de Belas Artes","distancia":451},{"nome":"Real Gabinete Português de Leitura","distancia":408},{"nome":"Teatro Carlos Gomes","distancia":271},{"nome":"Teatro Dulcina","distancia":411},{"nome":"Teatro Glauce Rocha","distancia":423},{"nome":"Teatro João Caetano","distancia":325},{"nome":"Teatro Municipal","distancia":426}]},{"linha":"136","descricao_ponto":"BRS 1 - CONSTANTE RAMOS","sequencia":"47","latitude":"-22.9735","longitude":"-43.1886","pontos_turisticos":[]},{"linha":"136","descricao_ponto":"Rua Figueiredo De Magalhaes próximo ao 394","sequencia":"7","latitude":"-22.9689","longitude":"-43.1872","pontos_turisticos":[]},{"linha":"136","descricao_ponto":"BRS 3, I - VISCONDE DE OURO PRETO","sequencia":"33","latitude":"-22.9464","longitude":"-43.1826","pontos_turisticos":[{"nome":"Praia de Botafogo","distancia":230},{"nome":"Teatro Bibi Ferreira","distancia":282}]},{"linha":"136","descricao_ponto":"Rua Real Grandeza próximo ao 80","sequencia":"39","latitude":"-22.9529","longitude":"-43.1935","pontos_turisticos":[{"nome":"Museu do Índio","distancia":245}]},{"linha":"136","descricao_ponto":"Rua Francisco Eugenio próximo ao 1","sequencia":"3","latitude":"-22.9068","longitude":"-43.211","pontos_turisticos":[]},{"linha":"136","descricao_ponto":"Rua Siqueira Campos próximo ao 33","sequencia":"4","latitude":"-22.9698","longitude":"-43.184","pontos_turisticos":[{"nome":"Sala Baden Powell","distancia":457}]},{"linha":"136","descricao_ponto":"Rua Figueiredo De Magalhaes próximo ao 122","sequencia":"6","latitude":"-22.9711","longitude":"-43.1852","pontos_turisticos":[]},{"linha":"136","descricao_ponto":"BRS 2, 3 - PRAÇA ONZE","sequencia":"6","latitude":"-22.9082","longitude":"-43.2001","pontos_turisticos":[{"nome":"Sambódromo","distancia":494}]},{"linha":"136","descricao_ponto":"BRS 2 - URUGUAIANA","sequencia":"35","latitude":"-22.9025","longitude":"-43.1832","pontos_turisticos":[{"nome":"Real Gabinete Português de Leitura","distancia":346},{"nome":"Teatro João Caetano","distancia":442}]},{"linha":"136","descricao_ponto":"Avenida Augusto Severo próximo ao 178","sequencia":"18","latitude":"-22.9181","longitude":"-43.1766","pontos_turisticos":[{"nome":"Igreja e Convento de Santa Teresa","distancia":467},{"nome":"Igreja Nossa Senhora da Glória do Outeiro","distancia":381},{"nome":"Monumento aos Pracinhas","distancia":316},{"nome":"Praça Paris","distancia":125},{"nome":"Sala Cecília Meireles","distancia":449}]},{"linha":"136","descricao_ponto":"Avenida Augusto Severo próximo ao 306","sequencia":"18","latitude":"-22.9181","longitude":"-43.1766","pontos_turisticos":[{"nome":"Igreja e Convento de Santa Teresa","distancia":467},{"nome":"Igreja Nossa Senhora da Glória do Outeiro","distancia":381},{"nome":"Monumento aos Pracinhas","distancia":316},{"nome":"Praça Paris","distancia":125},{"nome":"Sala Cecília Meireles","distancia":449}]},{"linha":"136","descricao_ponto":"Avenida Francisco Bicalho próximo ao 10 (Pista Central)","sequencia":"39","latitude":"-22.9072","longitude":"-43.2094","pontos_turisticos":[]},{"linha":"136","descricao_ponto":"Avenida Francisco Bicalho próximo ao 10 (Pista Lateral)","sequencia":"39","latitude":"-22.9072","longitude":"-43.2094","pontos_turisticos":[]},{"linha":"136","descricao_ponto":"BRS 1, 2, 3, 4, 5, I - CIDADE NOVA","sequencia":"5","latitude":"-22.9101","longitude":"-43.206","pontos_turisticos":[]},{"linha":"136","descricao_ponto":"Rua Real Grandeza próximo ao 217","sequencia":"40","latitude":"-22.9563","longitude":"-43.1921","pontos_turisticos":[{"nome":"Museu do Índio","distancia":484}]},{"linha":"136","descricao_ponto":"Praia Do Flamengo próximo ao 6","sequencia":"27","latitude":"-22.925","longitude":"-43.1726","pontos_turisticos":[{"nome":"Aterro do Flamengo","distancia":451},{"nome":"Igreja Nossa Senhora da Glória do Outeiro","distancia":495},{"nome":"Museu da República","distancia":406},{"nome":"Museu de Folclore Edison Carneiro","distancia":407},{"nome":"Teatro Glória","distancia":226}]},{"linha":"136","descricao_ponto":"Rua Araujo Porto Alegre lado oposto ao número 16","sequencia":"15","latitude":"-22.9097","longitude":"-43.1767","pontos_turisticos":[{"nome":"Academia Brasileira de Letras","distancia":404},{"nome":"Arcos da Lapa","distancia":482},{"nome":"Biblioteca Nacional","distancia":104},{"nome":"Catedral Metropolitana","distancia":433},{"nome":"Igreja de São Francisco da Penitência","distancia":407},{"nome":"Museu do Clube Naval","distancia":169},{"nome":"Museu Nacional de Belas Artes","distancia":108},{"nome":"Teatro Dulcina","distancia":117},{"nome":"Teatro Glauce Rocha","distancia":271},{"nome":"Teatro Municipal","distancia":47},{"nome":"Teatro Rival Petrobras","distancia":172}]},{"linha":"136","descricao_ponto":"Rua Francisco Eugenio próximo ao 194","sequencia":"2","latitude":"-22.907","longitude":"-43.2158","pontos_turisticos":[]},{"linha":"136","descricao_ponto":"BRS 2,3 - PAULINO FERNANDES","sequencia":"15","latitude":"-22.9519","longitude":"-43.1858","pontos_turisticos":[{"nome":"Fundação Casa de Rui Barbosa","distancia":296}]},{"linha":"136","descricao_ponto":"BRS 1, I - REAL GRANDEZA","sequencia":"38","latitude":"-22.9506","longitude":"-43.1932","pontos_turisticos":[{"nome":"Museu do Índio","distancia":249}]},{"linha":"136","descricao_ponto":"Rua Evaristo Da Veiga próximo ao 49","sequencia":"14","latitude":"-22.9109","longitude":"-43.1779","pontos_turisticos":[{"nome":"Arcos da Lapa","distancia":300},{"nome":"Biblioteca Nacional","distancia":259},{"nome":"Catedral Metropolitana","distancia":290},{"nome":"Igreja de São Francisco da Penitência","distancia":465},{"nome":"Museu do Clube Naval","distancia":330},{"nome":"Museu Nacional de Belas Artes","distancia":289},{"nome":"Sala Cecília Meireles","distancia":385},{"nome":"Teatro Dulcina","distancia":89},{"nome":"Teatro Glauce Rocha","distancia":422},{"nome":"Teatro Municipal","distancia":228},{"nome":"Teatro Rival Petrobras","distancia":171}]},{"linha":"136","descricao_ponto":"Avenida Beira Mar próximo ao 36","sequencia":"19","latitude":"-22.9211","longitude":"-43.1737","pontos_turisticos":[{"nome":"Igreja Nossa Senhora da Glória do Outeiro","distancia":170},{"nome":"Praça Paris","distancia":483},{"nome":"Teatro Glória","distancia":232}]},{"linha":"136","descricao_ponto":"Praia Do Flamengo próximo ao 544","sequencia":"27","latitude":"-22.9364","longitude":"-43.174","pontos_turisticos":[]},{"linha":"136","descricao_ponto":"BRS 1 - FIGUEIREDO MAGALHÃES","sequencia":"3","latitude":"-22.9706","longitude":"-43.1862","pontos_turisticos":[]},{"linha":"136","descricao_ponto":"Praia Do Flamengo próximo ao 262","sequencia":"25","latitude":"-22.9338","longitude":"-43.1744","pontos_turisticos":[{"nome":"Oi Futuro","distancia":469}]},{"linha":"136","descricao_ponto":"BRS 1,2 - HENRIQUE DE NOVAES","sequencia":"12","latitude":"-22.9542","longitude":"-43.1907","pontos_turisticos":[{"nome":"Museu do Índio","distancia":251}]},{"linha":"136","descricao_ponto":"Praia Do Flamengo próximo ao 164","sequencia":"24","latitude":"-22.9318","longitude":"-43.1744","pontos_turisticos":[{"nome":"Aterro do Flamengo","distancia":410},{"nome":"Oi Futuro","distancia":286},{"nome":"Praia do Flamengo","distancia":413}]},{"linha":"136","descricao_ponto":"BRS 2,3 - NELSON MANDELA","sequencia":"16","latitude":"-22.951","longitude":"-43.1833","pontos_turisticos":[{"nome":"Fundação Casa de Rui Barbosa","distancia":408}]},{"linha":"136","descricao_ponto":"Praia Do Flamengo próximo ao 60","sequencia":"26","latitude":"-22.9269","longitude":"-43.1732","pontos_turisticos":[{"nome":"Aterro do Flamengo","distancia":272},{"nome":"Museu da República","distancia":352},{"nome":"Museu de Folclore Edison Carneiro","distancia":342},{"nome":"Oi Futuro","distancia":475},{"nome":"Praia do Flamengo","distancia":342},{"nome":"Teatro Glória","distancia":440}]},{"linha":"136","descricao_ponto":"Praia Do Flamengo próximo ao 86","sequencia":"26","latitude":"-22.9269","longitude":"-43.1732","pontos_turisticos":[{"nome":"Aterro do Flamengo","distancia":272},{"nome":"Museu da República","distancia":352},{"nome":"Museu de Folclore Edison Carneiro","distancia":342},{"nome":"Oi Futuro","distancia":475},{"nome":"Praia do Flamengo","distancia":342},{"nome":"Teatro Glória","distancia":440}]}]