[{"linha":"154","descricao_ponto":"BRS 1 - FIGUEIREDO MAGALHÃES","sequencia":"12","latitude":"-22.9706","longitude":"-43.1862","pontos_turisticos":[]},{"linha":"154","descricao_ponto":"Avenida General Justo próximo ao 33 ","sequencia":"8","latitude":"-22.9096","longitude":"-43.1684","pontos_turisticos":[{"nome":"Academia Brasileira de Letras","distancia":489},{"nome":"Museu Histórico Nacional","distancia":462}]},{"linha":"154","descricao_ponto":"Praia Do Flamengo próximo ao 164","sequencia":"19","latitude":"-22.9318","longitude":"-43.1744","pontos_turisticos":[{"nome":"Aterro do Flamengo","distancia":410},{"nome":"Oi Futuro","distancia":286},{"nome":"Praia do Flamengo","distancia":413}]},{"linha":"154","descricao_ponto":"BRS 1, 3 - TEIXEIRA DE MELO","sequencia":"45","latitude":"-22.9856","longitude":"-43.1998","pontos_turisticos":[{"nome":"Casa Laura Alvin","distancia":133},{"nome":"Casa Laura Alvin","distancia":133},{"nome":"Praia de Ipanema","distancia":393}]},{"linha":"154","descricao_ponto":"BRS 1 - CANNING","sequencia":"44","latitude":"-22.9858","longitude":"-43.1941","pontos_turisticos":[{"nome":"Parque Peter Pan","distancia":358},{"nome":"Praia do Arpoador","distancia":369},{"nome":"Teatro da Praia","distancia":253}]},{"linha":"154","descricao_ponto":"Avenida Rui Barbosa próximo ao 460","sequencia":"29","latitude":"-22.9412","longitude":"-43.1724","pontos_turisticos":[{"nome":"Museu Carmem Miranda","distancia":21}]},{"linha":"154","descricao_ponto":"BRS 1,4 - PRAÇA TIRADENTES","sequencia":"44","latitude":"-22.9072","longitude":"-43.1826","pontos_turisticos":[{"nome":"Catedral Metropolitana","distancia":453},{"nome":"Confeitaria Colombo","distancia":445},{"nome":"Igreja de São Francisco da Penitência","distancia":344},{"nome":"Real Gabinete Português de Leitura","distancia":198},{"nome":"Teatro Carlos Gomes","distancia":9},{"nome":"Teatro João Caetano","distancia":96}]},{"linha":"154","descricao_ponto":"Avenida Das Nacoes Unidas próximo ao 68","sequencia":"27","latitude":"-22.9426","longitude":"-43.1768","pontos_turisticos":[{"nome":"Museu Carmem Miranda","distancia":469},{"nome":"Praia de Botafogo","distancia":500}]},{"linha":"154","descricao_ponto":"Praia Do Flamengo próximo ao 312","sequencia":"21","latitude":"-22.9355","longitude":"-43.1742","pontos_turisticos":[]},{"linha":"154","descricao_ponto":"Praia Do Flamengo próximo ao 306","sequencia":"21","latitude":"-22.9355","longitude":"-43.1742","pontos_turisticos":[]},{"linha":"154","descricao_ponto":"Praia Do Flamengo próximo ao 544","sequencia":"22","latitude":"-22.9364","longitude":"-43.174","pontos_turisticos":[]},{"linha":"154","descricao_ponto":"Terminal Procópio Ferreira - Plataforma B","sequencia":"1","latitude":"-22.905","longitude":"-43.1924","pontos_turisticos":[{"nome":"Campo de Santana","distancia":456}]},{"linha":"154","descricao_ponto":"Terminal Procópio Ferreira - Plataforma A","sequencia":"1","latitude":"-22.905","longitude":"-43.1924","pontos_turisticos":[{"nome":"Campo de Santana","distancia":456}]},{"linha":"154","descricao_ponto":"BRS 1 - MARQUÊS DE OLINDA","sequencia":"27","latitude":"-22.9448","longitude":"-43.1823","pontos_turisticos":[{"nome":"Praia de Botafogo","distancia":153},{"nome":"Teatro Bibi Ferreira","distancia":341}]},{"linha":"154","descricao_ponto":"Avenida Marechal Floriano, próximo ao 185","sequencia":"2","latitude":"-22.9027","longitude":"-43.1868","pontos_turisticos":[{"nome":"Campo de Santana","distancia":468}]},{"linha":"154","descricao_ponto":"Avenida Franklin Roosevelt próximo ao 126","sequencia":"9","latitude":"-22.9095","longitude":"-43.1703","pontos_turisticos":[{"nome":"Academia Brasileira de Letras","distancia":314},{"nome":"Museu Histórico Nacional","distancia":447}]},{"linha":"154","descricao_ponto":"Avenida Franklin Roosevelt próximo ao 115","sequencia":"9","latitude":"-22.9095","longitude":"-43.1703","pontos_turisticos":[{"nome":"Academia Brasileira de Letras","distancia":314},{"nome":"Museu Histórico Nacional","distancia":447}]},{"linha":"154","descricao_ponto":"Rua Tonelero próximo ao 380","sequencia":"40","latitude":"-22.9693","longitude":"-43.1899","pontos_turisticos":[]},{"linha":"154","descricao_ponto":"Praia Do Flamengo próximo ao 54","sequencia":"36","latitude":"-22.9227","longitude":"-43.1723","pontos_turisticos":[{"nome":"Igreja Nossa Senhora da Glória do Outeiro","distancia":347},{"nome":"Teatro Glória","distancia":51}]},{"linha":"154","descricao_ponto":"Avenida Beira Mar próximo ao 191","sequencia":"36","latitude":"-22.9227","longitude":"-43.1723","pontos_turisticos":[{"nome":"Igreja Nossa Senhora da Glória do Outeiro","distancia":347},{"nome":"Teatro Glória","distancia":51}]},{"linha":"154","descricao_ponto":"Avenida Augusto Severo próximo ao 178","sequencia":"13","latitude":"-22.9181","longitude":"-43.1766","pontos_turisticos":[{"nome":"Igreja e Convento de Santa Teresa","distancia":467},{"nome":"Igreja Nossa Senhora da Glória do Outeiro","distancia":381},{"nome":"Monumento aos Pracinhas","distancia":316},{"nome":"Praça Paris","distancia":125},{"nome":"Sala Cecília Meireles","distancia":449}]},{"linha":"154","descricao_ponto":"Avenida Augusto Severo próximo ao 306","sequencia":"13","latitude":"-22.9181","longitude":"-43.1766","pontos_turisticos":[{"nome":"Igreja e Convento de Santa Teresa","distancia":467},{"nome":"Igreja Nossa Senhora da Glória do Outeiro","distancia":381},{"nome":"Monumento aos Pracinhas","distancia":316},{"nome":"Praça Paris","distancia":125},{"nome":"Sala Cecília Meireles","distancia":449}]},{"linha":"154","descricao_ponto":"Praia Do Flamengo próximo ao 86","sequencia":"17","latitude":"-22.9268","longitude":"-43.1734","pontos_turisticos":[{"nome":"Aterro do Flamengo","distancia":293},{"nome":"Museu da República","distancia":329},{"nome":"Museu de Folclore Edison Carneiro","distancia":319},{"nome":"Oi Futuro","distancia":469},{"nome":"Praia do Flamengo","distancia":363},{"nome":"Teatro Glória","distancia":432}]},{"linha":"154","descricao_ponto":"BRS 1,2,3,I - VISCONDE DE OURO PRETO","sequencia":"25","latitude":"-22.9472","longitude":"-43.1822","pontos_turisticos":[{"nome":"Praia de Botafogo","distancia":270},{"nome":"Teatro Bibi Ferreira","distancia":344}]},{"linha":"154","descricao_ponto":"BRS 2 - VISCONDE DE OURO PRETO","sequencia":"25","latitude":"-22.9472","longitude":"-43.1822","pontos_turisticos":[{"nome":"Praia de Botafogo","distancia":270},{"nome":"Teatro Bibi Ferreira","distancia":344}]},{"linha":"154","descricao_ponto":"Avenida Augusto Severo próximo ao 1","sequencia":"12","latitude":"-22.9162","longitude":"-43.1763","pontos_turisticos":[{"nome":"Igreja e Convento de Santa Teresa","distancia":415},{"nome":"Monumento aos Pracinhas","distancia":232},{"nome":"Museu de Arte Moderna","distancia":413},{"nome":"Praça Paris","distancia":123},{"nome":"Sala Cecília Meireles","distancia":286}]},{"linha":"154","descricao_ponto":"BRS 3, I - VISCONDE DE OURO PRETO","sequencia":"28","latitude":"-22.9464","longitude":"-43.1826","pontos_turisticos":[{"nome":"Praia de Botafogo","distancia":230},{"nome":"Teatro Bibi Ferreira","distancia":282}]},{"linha":"154","descricao_ponto":"BRS 1,2,3,4 - FRANKLIN ROOSEVELT","sequencia":"40","latitude":"-22.9105","longitude":"-43.1718","pontos_turisticos":[{"nome":"Academia Brasileira de Letras","distancia":127},{"nome":"Biblioteca Nacional","distancia":407},{"nome":"Museu de Arte Moderna","distancia":396},{"nome":"Museu Nacional de Belas Artes","distancia":475},{"nome":"Teatro Municipal","distancia":486},{"nome":"Teatro Rival Petrobras","distancia":464}]},{"linha":"154","descricao_ponto":"Avenida Beira Mar próximo ao 36","sequencia":"14","latitude":"-22.9211","longitude":"-43.1737","pontos_turisticos":[{"nome":"Igreja Nossa Senhora da Glória do Outeiro","distancia":170},{"nome":"Praça Paris","distancia":483},{"nome":"Teatro Glória","distancia":232}]},{"linha":"154","descricao_ponto":"BRS 1, 2, 3, I - DEZENOVE DE FEVEREIRO","sequencia":"31","latitude":"-22.9495","longitude":"-43.1878","pontos_turisticos":[{"nome":"Fundação Casa de Rui Barbosa","distancia":92},{"nome":"Museu do Índio","distancia":455},{"nome":"Teatro Bibi Ferreira","distancia":458}]},{"linha":"154","descricao_ponto":"PONTO FINAL PRES. VARGAS I (ZONA OESTE)","sequencia":"4","latitude":"-22.9014","longitude":"-43.1793","pontos_turisticos":[{"nome":"Casa França Brasil","distancia":357},{"nome":"Centro Cultural Banco do Brasil","distancia":298},{"nome":"Centro Cultural dos Correios","distancia":355},{"nome":"Confeitaria Colombo","distancia":431},{"nome":"Espaço Cultural da Marinha","distancia":498},{"nome":"Igreja Nossa Senhora da Candelária","distancia":185},{"nome":"Igreja Nossa Senhora do Carmo da Antiga Sé","distancia":461}]},{"linha":"154","descricao_ponto":"Rua Real Grandeza próximo ao 358","sequencia":"37","latitude":"-22.9587","longitude":"-43.1913","pontos_turisticos":[]},{"linha":"154","descricao_ponto":"Rua Real Grandeza próximo ao 271","sequencia":"37","latitude":"-22.9587","longitude":"-43.1913","pontos_turisticos":[]},{"linha":"154","descricao_ponto":"BRS 1 - MIGUEL LEMOS","sequencia":"10","latitude":"-22.9784","longitude":"-43.1908","pontos_turisticos":[{"nome":"Teatro Brigitte Blair","distancia":73}]},{"linha":"154","descricao_ponto":"BRS 1 - FRANCISCO SÁ","sequencia":"43","latitude":"-22.9827","longitude":"-43.1921","pontos_turisticos":[{"nome":"Parque Peter Pan","distancia":54},{"nome":"Teatro da Praia","distancia":164}]},{"linha":"154","descricao_ponto":"BRS 1, 3 - VINÍCIUS DE MORAES","sequencia":"6","latitude":"-22.9844","longitude":"-43.2016","pontos_turisticos":[{"nome":"Casa Laura Alvin","distancia":350},{"nome":"Casa Laura Alvin","distancia":350},{"nome":"Centro Cultural Candido Mendes","distancia":358},{"nome":"Praia de Ipanema","distancia":353},{"nome":"Teatro Ipanema","distancia":342}]},{"linha":"154","descricao_ponto":"BRS 1, 3, I - JANGADEIROS","sequencia":"7","latitude":"-22.9847","longitude":"-43.1958","pontos_turisticos":[{"nome":"Casa Laura Alvin","distancia":416},{"nome":"Casa Laura Alvin","distancia":416},{"nome":"Parque Peter Pan","distancia":418},{"nome":"Teatro da Praia","distancia":278}]},{"linha":"154","descricao_ponto":"Rua Real Grandeza próximo ao 358","sequencia":"19","latitude":"-22.9586","longitude":"-43.1912","pontos_turisticos":[]},{"linha":"154","descricao_ponto":"Rua Real Grandeza próximo ao 271","sequencia":"19","latitude":"-22.9586","longitude":"-43.1912","pontos_turisticos":[]},{"linha":"154","descricao_ponto":"BRS 1,2 - HENRIQUE DE NOVAES","sequencia":"21","latitude":"-22.9542","longitude":"-43.1907","pontos_turisticos":[{"nome":"Museu do Índio","distancia":251}]},{"linha":"154","descricao_ponto":"Praia Do Flamengo próximo ao 66","sequencia":"16","latitude":"-22.9246","longitude":"-43.1727","pontos_turisticos":[{"nome":"Aterro do Flamengo","distancia":497},{"nome":"Igreja Nossa Senhora da Glória do Outeiro","distancia":453},{"nome":"Museu da República","distancia":409},{"nome":"Museu de Folclore Edison Carneiro","distancia":413},{"nome":"Teatro Glória","distancia":181}]},{"linha":"154","descricao_ponto":"BRS 1, 2, 3 - SOROCABA","sequencia":"32","latitude":"-22.95","longitude":"-43.1909","pontos_turisticos":[{"nome":"Fundação Casa de Rui Barbosa","distancia":413},{"nome":"Museu do Índio","distancia":227}]},{"linha":"154","descricao_ponto":"BRS 1, 3 - ANÍBAL DE MENDONÇA","sequencia":"47","latitude":"-22.985","longitude":"-43.2109","pontos_turisticos":[]},{"linha":"154","descricao_ponto":"Praia Do Flamengo próximo ao 262","sequencia":"20","latitude":"-22.9338","longitude":"-43.1744","pontos_turisticos":[{"nome":"Oi Futuro","distancia":469}]},{"linha":"154","descricao_ponto":"Avenida Beira Mar próximo ao 693","sequencia":"38","latitude":"-22.9156","longitude":"-43.1751","pontos_turisticos":[{"nome":"Monumento aos Pracinhas","distancia":146},{"nome":"Museu de Arte Moderna","distancia":277},{"nome":"Praça Paris","distancia":195},{"nome":"Sala Cecília Meireles","distancia":350}]},{"linha":"154","descricao_ponto":"BRS 1, 2 , 3 - PRAÇA DA REPÚBLICA","sequencia":"45","latitude":"-22.9084","longitude":"-43.1867","pontos_turisticos":[{"nome":"Campo de Santana","distancia":255},{"nome":"Teatro Carlos Gomes","distancia":448}]},{"linha":"154","descricao_ponto":"Rua Real Grandeza próximo ao 217","sequencia":"35","latitude":"-22.9563","longitude":"-43.1921","pontos_turisticos":[{"nome":"Museu do Índio","distancia":484}]},{"linha":"154","descricao_ponto":"BRS 1, 3 - AFRÂNIO DE MELO FRANCO","sequencia":"48","latitude":"-22.9847","longitude":"-43.2175","pontos_turisticos":[{"nome":"Teatro Café Pequeno","distancia":107}]},{"linha":"154","descricao_ponto":"Praia Do Flamengo próximo ao 122","sequencia":"18","latitude":"-22.9293","longitude":"-43.1741","pontos_turisticos":[{"nome":"Aterro do Flamengo","distancia":237},{"nome":"Museu da República","distancia":451},{"nome":"Museu de Folclore Edison Carneiro","distancia":432},{"nome":"Oi Futuro","distancia":247},{"nome":"Praia do Flamengo","distancia":287}]},{"linha":"154","descricao_ponto":"Praia Do Flamengo próximo ao 136","sequencia":"18","latitude":"-22.9293","longitude":"-43.1741","pontos_turisticos":[{"nome":"Aterro do Flamengo","distancia":237},{"nome":"Museu da República","distancia":451},{"nome":"Museu de Folclore Edison Carneiro","distancia":432},{"nome":"Oi Futuro","distancia":247},{"nome":"Praia do Flamengo","distancia":287}]},{"linha":"154","descricao_ponto":"BRS 1,2,3,I - FARANI","sequencia":"26","latitude":"-22.9433","longitude":"-43.1809","pontos_turisticos":[{"nome":"Praia de Botafogo","distancia":202}]},{"linha":"154","descricao_ponto":"Avenida Rui Barbosa próximo ao 660","sequencia":"28","latitude":"-22.9424","longitude":"-43.1741","pontos_turisticos":[{"nome":"Museu Carmem Miranda","distancia":206}]},{"linha":"154","descricao_ponto":"Praia Do Flamengo próximo ao 6","sequencia":"35","latitude":"-22.925","longitude":"-43.1726","pontos_turisticos":[{"nome":"Aterro do Flamengo","distancia":451},{"nome":"Igreja Nossa Senhora da Glória do Outeiro","distancia":495},{"nome":"Museu da República","distancia":406},{"nome":"Museu de Folclore Edison Carneiro","distancia":407},{"nome":"Teatro Glória","distancia":226}]},{"linha":"154","descricao_ponto":"BRS 1, I - REAL GRANDEZA","sequencia":"33","latitude":"-22.9506","longitude":"-43.1932","pontos_turisticos":[{"nome":"Museu do Índio","distancia":249}]},{"linha":"154","descricao_ponto":"Rua Sao Joao Batista próximo ao 108","sequencia":"20","latitude":"-22.957","longitude":"-43.1894","pontos_turisticos":[]},{"linha":"154","descricao_ponto":"Avenida Beira Mar próximo ao 693","sequencia":"37","latitude":"-22.9195","longitude":"-43.1748","pontos_turisticos":[{"nome":"Igreja Nossa Senhora da Glória do Outeiro","distancia":211},{"nome":"Monumento aos Pracinhas","distancia":343},{"nome":"Praça Paris","distancia":275},{"nome":"Teatro Glória","distancia":442}]},{"linha":"154","descricao_ponto":"Avenida Presidente Wilson próximo ao 210","sequencia":"10","latitude":"-22.9105","longitude":"-43.1725","pontos_turisticos":[{"nome":"Academia Brasileira de Letras","distancia":64},{"nome":"Biblioteca Nacional","distancia":337},{"nome":"Museu de Arte Moderna","distancia":376},{"nome":"Museu do Clube Naval","distancia":494},{"nome":"Museu Nacional de Belas Artes","distancia":409},{"nome":"Teatro Dulcina","distancia":467},{"nome":"Teatro Municipal","distancia":417},{"nome":"Teatro Rival Petrobras","distancia":393}]},{"linha":"154","descricao_ponto":"BRS 1 - CONSTANTE RAMOS","sequencia":"11","latitude":"-22.9735","longitude":"-43.1886","pontos_turisticos":[]},{"linha":"154","descricao_ponto":"Avenida Beira Mar próximo ao 321","sequencia":"39","latitude":"-22.9122","longitude":"-43.1731","pontos_turisticos":[{"nome":"Academia Brasileira de Letras","distancia":148},{"nome":"Biblioteca Nacional","distancia":379},{"nome":"Monumento aos Pracinhas","distancia":487},{"nome":"Museu de Arte Moderna","distancia":180},{"nome":"Museu Nacional de Belas Artes","distancia":478},{"nome":"Teatro Dulcina","distancia":438},{"nome":"Teatro Municipal","distancia":459},{"nome":"Teatro Rival Petrobras","distancia":343}]},{"linha":"154","descricao_ponto":"JARDIM DE ALAH/IPANEMA","sequencia":"3","latitude":"-22.9825","longitude":"-43.214","pontos_turisticos":[{"nome":"Teatro Café Pequeno","distancia":428}]},{"linha":"154","descricao_ponto":"BRS 1 - XAVIER DA SILVEIRA","sequencia":"42","latitude":"-22.9763","longitude":"-43.1925","pontos_turisticos":[{"nome":"Teatro Brigitte Blair","distancia":218}]},{"linha":"154","descricao_ponto":"BRS 2,3 - PAULINO FERNANDES","sequencia":"23","latitude":"-22.9519","longitude":"-43.1858","pontos_turisticos":[{"nome":"Fundação Casa de Rui Barbosa","distancia":296}]},{"linha":"154","descricao_ponto":"Avenida Oswaldo Cruz próximo ao 112","sequencia":"23","latitude":"-22.9396","longitude":"-43.1749","pontos_turisticos":[{"nome":"Museu Carmem Miranda","distancia":324}]},{"linha":"154","descricao_ponto":"Avenida Atlantica próximo ao 2516","sequencia":"14","latitude":"-22.9716","longitude":"-43.1845","pontos_turisticos":[]},{"linha":"154","descricao_ponto":"BRS 1, 3 - VINÍCIUS DE MORAES","sequencia":"46","latitude":"-22.9854","longitude":"-43.2039","pontos_turisticos":[{"nome":"Casa Laura Alvin","distancia":498},{"nome":"Casa Laura Alvin","distancia":498},{"nome":"Centro Cultural Candido Mendes","distancia":133},{"nome":"Praia de Ipanema","distancia":211},{"nome":"Teatro Ipanema","distancia":92}]},{"linha":"154","descricao_ponto":"Avenida Nilo Pecanha próximo ao 26 (PLATAFORMA A)","sequencia":"41","latitude":"-22.9062","longitude":"-43.1738","pontos_turisticos":[{"nome":"Biblioteca Nacional","distancia":442},{"nome":"Igreja Nossa Senhora do Carmo da Antiga Sé","distancia":362},{"nome":"Museu do Clube Naval","distancia":363},{"nome":"Museu Histórico Nacional","distancia":452},{"nome":"Museu Nacional de Belas Artes","distancia":381},{"nome":"Paço Imperial","distancia":299},{"nome":"Palácio Tiradentes","distancia":237},{"nome":"Teatro Glauce Rocha","distancia":322},{"nome":"Teatro Municipal","distancia":443}]},{"linha":"154","descricao_ponto":"BRS 1, 3 - AFRÂNIO DE MELO FRANCO","sequencia":"1","latitude":"-22.9847","longitude":"-43.2175","pontos_turisticos":[{"nome":"Teatro Café Pequeno","distancia":107}]},{"linha":"154","descricao_ponto":"Praia Do Flamengo próximo ao 1651","sequencia":"32","latitude":"-22.9327","longitude":"-43.1744","pontos_turisticos":[{"nome":"Aterro do Flamengo","distancia":490},{"nome":"Oi Futuro","distancia":363},{"nome":"Praia do Flamengo","distancia":483}]},{"linha":"154","descricao_ponto":"Praia Do Flamengo próximo ao 122","sequencia":"33","latitude":"-22.9294","longitude":"-43.174","pontos_turisticos":[{"nome":"Aterro do Flamengo","distancia":229},{"nome":"Museu da República","distancia":466},{"nome":"Museu de Folclore Edison Carneiro","distancia":446},{"nome":"Oi Futuro","distancia":254},{"nome":"Praia do Flamengo","distancia":277}]},{"linha":"154","descricao_ponto":"Praia Do Flamengo próximo ao 136","sequencia":"33","latitude":"-22.9294","longitude":"-43.174","pontos_turisticos":[{"nome":"Aterro do Flamengo","distancia":229},{"nome":"Museu da República","distancia":466},{"nome":"Museu de Folclore Edison Carneiro","distancia":446},{"nome":"Oi Futuro","distancia":254},{"nome":"Praia do Flamengo","distancia":277}]},{"linha":"154","descricao_ponto":"Avenida Presidente Wilson próximo ao 113","sequencia":"11","latitude":"-22.9125","longitude":"-43.1743","pontos_turisticos":[{"nome":"Academia Brasileira de Letras","distancia":226},{"nome":"Biblioteca Nacional","distancia":335},{"nome":"Monumento aos Pracinhas","distancia":445},{"nome":"Museu de Arte Moderna","distancia":184},{"nome":"Museu Nacional de Belas Artes","distancia":441},{"nome":"Sala Cecília Meireles","distancia":452},{"nome":"Teatro Dulcina","distancia":346},{"nome":"Teatro Municipal","distancia":406},{"nome":"Teatro Rival Petrobras","distancia":248}]},{"linha":"154","descricao_ponto":"Praia Do Flamengo próximo ao 54","sequencia":"15","latitude":"-22.9227","longitude":"-43.1724","pontos_turisticos":[{"nome":"Igreja Nossa Senhora da Glória do Outeiro","distancia":338},{"nome":"Teatro Glória","distancia":43}]},{"linha":"154","descricao_ponto":"Avenida Beira Mar próximo ao 191","sequencia":"15","latitude":"-22.9227","longitude":"-43.1724","pontos_turisticos":[{"nome":"Igreja Nossa Senhora da Glória do Outeiro","distancia":338},{"nome":"Teatro Glória","distancia":43}]},{"linha":"154","descricao_ponto":"Rua Figueiredo De Magalhaes próximo ao 548","sequencia":"17","latitude":"-22.9673","longitude":"-43.1884","pontos_turisticos":[]},{"linha":"154","descricao_ponto":"Rua Figueiredo De Magalhaes próximo ao 868","sequencia":"18","latitude":"-22.9659","longitude":"-43.1897","pontos_turisticos":[]},{"linha":"154","descricao_ponto":"BRS 2, 3 - MUNIZ BARRETO","sequencia":"30","latitude":"-22.9492","longitude":"-43.1839","pontos_turisticos":[{"nome":"Fundação Casa de Rui Barbosa","distancia":309},{"nome":"Teatro Bibi Ferreira","distancia":378}]},{"linha":"154","descricao_ponto":"BRS 1, 3, I - CONSELHEIRO LAFAIETE","sequencia":"8","latitude":"-22.9836","longitude":"-43.1935","pontos_turisticos":[{"nome":"Parque Peter Pan","distancia":154},{"nome":"Teatro da Praia","distancia":17}]},{"linha":"154","descricao_ponto":"Rua Figueiredo De Magalhaes próximo ao 122","sequencia":"15","latitude":"-22.9711","longitude":"-43.1852","pontos_turisticos":[]},{"linha":"154","descricao_ponto":"Rua Figueiredo De Magalhaes próximo ao 394","sequencia":"16","latitude":"-22.9689","longitude":"-43.1872","pontos_turisticos":[]},{"linha":"154","descricao_ponto":"Avenida Rui Barbosa próximo ao 266","sequencia":"30","latitude":"-22.9396","longitude":"-43.1711","pontos_turisticos":[{"nome":"Museu Carmem Miranda","distancia":240}]},{"linha":"154","descricao_ponto":"BRS 1 - SÁ FERREIRA","sequencia":"9","latitude":"-22.9804","longitude":"-43.1911","pontos_turisticos":[{"nome":"Parque Peter Pan","distancia":325},{"nome":"Teatro Brigitte Blair","distancia":276},{"nome":"Teatro da Praia","distancia":426}]},{"linha":"154","descricao_ponto":"Rua Real Grandeza próximo ao 80","sequencia":"34","latitude":"-22.9529","longitude":"-43.1935","pontos_turisticos":[{"nome":"Museu do Índio","distancia":245}]},{"linha":"154","descricao_ponto":"BRS 2,3 - NELSON MANDELA","sequencia":"24","latitude":"-22.951","longitude":"-43.1833","pontos_turisticos":[{"nome":"Fundação Casa de Rui Barbosa","distancia":408}]},{"linha":"154","descricao_ponto":"Praia Do Flamengo próximo ao 312","sequencia":"31","latitude":"-22.9355","longitude":"-43.174","pontos_turisticos":[]},{"linha":"154","descricao_ponto":"Praia Do Flamengo próximo ao 306","sequencia":"31","latitude":"-22.9355","longitude":"-43.174","pontos_turisticos":[]},{"linha":"154","descricao_ponto":"Praia Do Flamengo próximo ao 60","sequencia":"34","latitude":"-22.9269","longitude":"-43.1732","pontos_turisticos":[{"nome":"Aterro do Flamengo","distancia":272},{"nome":"Museu da República","distancia":352},{"nome":"Museu de Folclore Edison Carneiro","distancia":342},{"nome":"Oi Futuro","distancia":475},{"nome":"Praia do Flamengo","distancia":342},{"nome":"Teatro Glória","distancia":440}]},{"linha":"154","descricao_ponto":"Praia Do Flamengo próximo ao 86","sequencia":"34","latitude":"-22.9269","longitude":"-43.1732","pontos_turisticos":[{"nome":"Aterro do Flamengo","distancia":272},{"nome":"Museu da República","distancia":352},{"nome":"Museu de Folclore Edison Carneiro","distancia":342},{"nome":"Oi Futuro","distancia":475},{"nome":"Praia do Flamengo","distancia":342},{"nome":"Teatro Glória","distancia":440}]},{"linha":"154","descricao_ponto":"Rua Real Grandeza próximo ao 278","sequencia":"36","latitude":"-22.9571","longitude":"-43.1918","pontos_turisticos":[]},{"linha":"154","descricao_ponto":"Terminal Procópio Ferreira - Plataforma B","sequencia":"47","latitude":"-22.9051","longitude":"-43.1924","pontos_turisticos":[{"nome":"Campo de Santana","distancia":452}]},{"linha":"154","descricao_ponto":"Terminal Procópio Ferreira - Plataforma A","sequencia":"47","latitude":"-22.9051","longitude":"-43.1924","pontos_turisticos":[{"nome":"Campo de Santana","distancia":452}]},{"linha":"154","descricao_ponto":"Rua Siqueira Campos próximo ao 33","sequencia":"13","latitude":"-22.9698","longitude":"-43.184","pontos_turisticos":[{"nome":"Sala Baden Powell","distancia":457}]},{"linha":"154","descricao_ponto":"Praca Da Republica próximo ao111","sequencia":"46","latitude":"-22.9079","longitude":"-43.1898","pontos_turisticos":[{"nome":"Campo de Santana","distancia":203}]},{"linha":"154","descricao_ponto":"Avenida Oswaldo Cruz próximo ao 112","sequencia":"24","latitude":"-22.9406","longitude":"-43.176","pontos_turisticos":[{"nome":"Museu Carmem Miranda","distancia":378}]}]