[{"linha":"155","descricao_ponto":"BRS 1, 3, 5 - CENTRAL","sequencia":"1","latitude":"-22.9055","longitude":"-43.193","pontos_turisticos":[{"nome":"Campo de Santana","distancia":495}]},{"linha":"155","descricao_ponto":"Rua Muniz Barreto próximo ao 424","sequencia":"6","latitude":"-22.9475","longitude":"-43.1842","pontos_turisticos":[{"nome":"Fundação Casa de Rui Barbosa","distancia":351},{"nome":"Praia de Botafogo","distancia":434},{"nome":"Teatro Bibi Ferreira","distancia":197}]},{"linha":"155","descricao_ponto":"Rua Muniz Barreto próximo ao 100","sequencia":"4","latitude":"-22.9435","longitude":"-43.1836","pontos_turisticos":[{"nome":"Praia de Botafogo","distancia":335},{"nome":"Teatro Bibi Ferreira","distancia":336}]},{"linha":"155","descricao_ponto":"BRS 1, 3 - TEIXEIRA DE MELO","sequencia":"22","latitude":"-22.9856","longitude":"-43.1998","pontos_turisticos":[{"nome":"Casa Laura Alvin","distancia":133},{"nome":"Casa Laura Alvin","distancia":133},{"nome":"Praia de Ipanema","distancia":393}]},{"linha":"155","descricao_ponto":"Rua Real Grandeza próximo ao 217","sequencia":"12","latitude":"-22.9563","longitude":"-43.1921","pontos_turisticos":[{"nome":"Museu do Índio","distancia":484}]},{"linha":"155","descricao_ponto":"BRS 1, 3 - VINÍCIUS DE MORAES","sequencia":"23","latitude":"-22.9854","longitude":"-43.2039","pontos_turisticos":[{"nome":"Casa Laura Alvin","distancia":498},{"nome":"Casa Laura Alvin","distancia":498},{"nome":"Centro Cultural Candido Mendes","distancia":133},{"nome":"Praia de Ipanema","distancia":211},{"nome":"Teatro Ipanema","distancia":92}]},{"linha":"155","descricao_ponto":"Rua Tonelero próximo ao 380","sequencia":"17","latitude":"-22.9693","longitude":"-43.1899","pontos_turisticos":[]},{"linha":"155","descricao_ponto":"BRS 1, I - REAL GRANDEZA","sequencia":"10","latitude":"-22.9506","longitude":"-43.1932","pontos_turisticos":[{"nome":"Museu do Índio","distancia":249}]},{"linha":"155","descricao_ponto":"Rua Pinheiro Machado próximo ao 75","sequencia":"3","latitude":"-22.9406","longitude":"-43.1828","pontos_turisticos":[]},{"linha":"155","descricao_ponto":"BRS 1, 3 - AFRÂNIO DE MELO FRANCO","sequencia":"25","latitude":"-22.9847","longitude":"-43.2175","pontos_turisticos":[{"nome":"Teatro Café Pequeno","distancia":107}]},{"linha":"155","descricao_ponto":"BRS 1, 2, 3 - ALFREDO GOMES","sequencia":"7","latitude":"-22.9488","longitude":"-43.1842","pontos_turisticos":[{"nome":"Fundação Casa de Rui Barbosa","distancia":286},{"nome":"Teatro Bibi Ferreira","distancia":325}]},{"linha":"155","descricao_ponto":"Rua Real Grandeza próximo ao 80","sequencia":"11","latitude":"-22.9529","longitude":"-43.1935","pontos_turisticos":[{"nome":"Museu do Índio","distancia":245}]},{"linha":"155","descricao_ponto":"Rua Muniz Barreto próximo ao 396","sequencia":"5","latitude":"-22.9453","longitude":"-43.1841","pontos_turisticos":[{"nome":"Praia de Botafogo","distancia":334},{"nome":"Teatro Bibi Ferreira","distancia":152}]},{"linha":"155","descricao_ponto":"Rua Real Grandeza próximo ao 358","sequencia":"14","latitude":"-22.9587","longitude":"-43.1913","pontos_turisticos":[]},{"linha":"155","descricao_ponto":"Rua Real Grandeza próximo ao 271","sequencia":"14","latitude":"-22.9587","longitude":"-43.1913","pontos_turisticos":[]},{"linha":"155","descricao_ponto":"BRS 1, 2, 3 - SOROCABA","sequencia":"9","latitude":"-22.95","longitude":"-43.1909","pontos_turisticos":[{"nome":"Fundação Casa de Rui Barbosa","distancia":413},{"nome":"Museu do Índio","distancia":227}]},{"linha":"155","descricao_ponto":"Praca Del Prete próximo ao 82","sequencia":"2","latitude":"-22.9363","longitude":"-43.1839","pontos_turisticos":[]},{"linha":"155","descricao_ponto":"BRS 1, 3 - ANÍBAL DE MENDONÇA","sequencia":"24","latitude":"-22.985","longitude":"-43.2109","pontos_turisticos":[]},{"linha":"155","descricao_ponto":"Rua Real Grandeza próximo ao 278","sequencia":"13","latitude":"-22.9571","longitude":"-43.1918","pontos_turisticos":[]},{"linha":"155","descricao_ponto":"BRS 1 - XAVIER DA SILVEIRA","sequencia":"19","latitude":"-22.9763","longitude":"-43.1925","pontos_turisticos":[{"nome":"Teatro Brigitte Blair","distancia":218}]},{"linha":"155","descricao_ponto":"BRS 1 - CANNING","sequencia":"21","latitude":"-22.9858","longitude":"-43.1941","pontos_turisticos":[{"nome":"Parque Peter Pan","distancia":358},{"nome":"Praia do Arpoador","distancia":369},{"nome":"Teatro da Praia","distancia":253}]},{"linha":"155","descricao_ponto":"BRS 1, 2, 3, I - DEZENOVE DE FEVEREIRO","sequencia":"8","latitude":"-22.9495","longitude":"-43.1878","pontos_turisticos":[{"nome":"Fundação Casa de Rui Barbosa","distancia":92},{"nome":"Museu do Índio","distancia":455},{"nome":"Teatro Bibi Ferreira","distancia":458}]}]