[{"linha":"158","descricao_ponto":"Praia Do Flamengo próximo ao 312","sequencia":"35","latitude":"-22.9355","longitude":"-43.174","pontos_turisticos":[]},{"linha":"158","descricao_ponto":"Praia Do Flamengo próximo ao 306","sequencia":"35","latitude":"-22.9355","longitude":"-43.174","pontos_turisticos":[]},{"linha":"158","descricao_ponto":"Rua Jardim Botanico próximo ao 518","sequencia":"41","latitude":"-22.9618","longitude":"-43.2151","pontos_turisticos":[{"nome":"Parque Lage","distancia":211},{"nome":"Teatro Amador O Tablado","distancia":395}]},{"linha":"158","descricao_ponto":"Rua Marq De Sao Vicente próximo ao 124","sequencia":"47","latitude":"-22.9766","longitude":"-43.2296","pontos_turisticos":[{"nome":"Planetário","distancia":258},{"nome":"Teatro Casa da Gávea","distancia":390},{"nome":"Teatro Clara Nunes","distancia":191},{"nome":"Teatro das Artes","distancia":166},{"nome":"Teatro do Jockey","distancia":480},{"nome":"Teatro dos Quatro","distancia":192},{"nome":"Teatro Maria Clara Machado","distancia":258},{"nome":"Teatro Vanucci","distancia":171}]},{"linha":"158","descricao_ponto":"Rua Marq De Sao Vicente próximo ao 124","sequencia":"47","latitude":"-22.9766","longitude":"-43.2296","pontos_turisticos":[{"nome":"Planetário","distancia":258},{"nome":"Teatro Casa da Gávea","distancia":390},{"nome":"Teatro Clara Nunes","distancia":191},{"nome":"Teatro das Artes","distancia":166},{"nome":"Teatro do Jockey","distancia":480},{"nome":"Teatro dos Quatro","distancia":192},{"nome":"Teatro Maria Clara Machado","distancia":258},{"nome":"Teatro Vanucci","distancia":171}]},{"linha":"158","descricao_ponto":"Rua Marq De Sao Vicente próximo ao 261","sequencia":"49","latitude":"-22.9798","longitude":"-43.2346","pontos_turisticos":[{"nome":"Planetário","distancia":458},{"nome":"Teatro Maria Clara Machado","distancia":458}]},{"linha":"158","descricao_ponto":"Rua Marq De Sao Vicente próximo ao 367","sequencia":"3","latitude":"-22.9816","longitude":"-43.2367","pontos_turisticos":[]},{"linha":"158","descricao_ponto":"Rua Marq De Sao Vicente próximo ao 380","sequencia":"3","latitude":"-22.9816","longitude":"-43.2367","pontos_turisticos":[]},{"linha":"158","descricao_ponto":"Praca Da Republica próximo ao111","sequencia":"46","latitude":"-22.9079","longitude":"-43.1898","pontos_turisticos":[{"nome":"Campo de Santana","distancia":203}]},{"linha":"158","descricao_ponto":"BRS 1, 2, 3 - SOROCABA","sequencia":"31","latitude":"-22.95","longitude":"-43.1909","pontos_turisticos":[{"nome":"Fundação Casa de Rui Barbosa","distancia":413},{"nome":"Museu do Índio","distancia":227}]},{"linha":"158","descricao_ponto":"BRS 1, I - LARGO DOS LEÕES","sequencia":"34","latitude":"-22.9529","longitude":"-43.1966","pontos_turisticos":[]},{"linha":"158","descricao_ponto":"BRS 1,2,3,I - VISCONDE DE OURO PRETO","sequencia":"29","latitude":"-22.9472","longitude":"-43.1822","pontos_turisticos":[{"nome":"Praia de Botafogo","distancia":270},{"nome":"Teatro Bibi Ferreira","distancia":344}]},{"linha":"158","descricao_ponto":"BRS 2 - VISCONDE DE OURO PRETO","sequencia":"29","latitude":"-22.9472","longitude":"-43.1822","pontos_turisticos":[{"nome":"Praia de Botafogo","distancia":270},{"nome":"Teatro Bibi Ferreira","distancia":344}]},{"linha":"158","descricao_ponto":"Avenida Rui Barbosa próximo ao 660","sequencia":"32","latitude":"-22.9424","longitude":"-43.1741","pontos_turisticos":[{"nome":"Museu Carmem Miranda","distancia":206}]},{"linha":"158","descricao_ponto":"Praia Do Flamengo próximo ao 54","sequencia":"14","latitude":"-22.9227","longitude":"-43.1724","pontos_turisticos":[{"nome":"Igreja Nossa Senhora da Glória do Outeiro","distancia":338},{"nome":"Teatro Glória","distancia":43}]},{"linha":"158","descricao_ponto":"Avenida Beira Mar próximo ao 191","sequencia":"14","latitude":"-22.9227","longitude":"-43.1724","pontos_turisticos":[{"nome":"Igreja Nossa Senhora da Glória do Outeiro","distancia":338},{"nome":"Teatro Glória","distancia":43}]},{"linha":"158","descricao_ponto":"Praia Do Flamengo próximo ao 86","sequencia":"16","latitude":"-22.9268","longitude":"-43.1734","pontos_turisticos":[{"nome":"Aterro do Flamengo","distancia":293},{"nome":"Museu da República","distancia":329},{"nome":"Museu de Folclore Edison Carneiro","distancia":319},{"nome":"Oi Futuro","distancia":469},{"nome":"Praia do Flamengo","distancia":363},{"nome":"Teatro Glória","distancia":432}]},{"linha":"158","descricao_ponto":"BRS 2,3 - PAULINO FERNANDES","sequencia":"27","latitude":"-22.9519","longitude":"-43.1858","pontos_turisticos":[{"nome":"Fundação Casa de Rui Barbosa","distancia":296}]},{"linha":"158","descricao_ponto":"Praia Do Flamengo próximo ao 6","sequencia":"39","latitude":"-22.925","longitude":"-43.1726","pontos_turisticos":[{"nome":"Aterro do Flamengo","distancia":451},{"nome":"Igreja Nossa Senhora da Glória do Outeiro","distancia":495},{"nome":"Museu da República","distancia":406},{"nome":"Museu de Folclore Edison Carneiro","distancia":407},{"nome":"Teatro Glória","distancia":226}]},{"linha":"158","descricao_ponto":"Rua Marq De Sao Vicente próximo ao 367","sequencia":"50","latitude":"-22.9816","longitude":"-43.2367","pontos_turisticos":[]},{"linha":"158","descricao_ponto":"Rua Marq De Sao Vicente próximo ao 380","sequencia":"50","latitude":"-22.9816","longitude":"-43.2367","pontos_turisticos":[]},{"linha":"158","descricao_ponto":"Rua Jardim Botanico próximo ao 683","sequencia":"44","latitude":"-22.9658","longitude":"-43.2189","pontos_turisticos":[{"nome":"Teatro Amador O Tablado","distancia":251}]},{"linha":"158","descricao_ponto":"Rua Jardim Botanico próximo ao 266","sequencia":"38","latitude":"-22.9605","longitude":"-43.2067","pontos_turisticos":[]},{"linha":"158","descricao_ponto":"Estrada Da Gavea próximo ao 12","sequencia":"52","latitude":"-22.9821","longitude":"-43.2411","pontos_turisticos":[]},{"linha":"158","descricao_ponto":"Praia Do Flamengo próximo ao 262","sequencia":"19","latitude":"-22.9338","longitude":"-43.1744","pontos_turisticos":[{"nome":"Oi Futuro","distancia":469}]},{"linha":"158","descricao_ponto":"Rua Marq De Sao Vicente próximo ao 298","sequencia":"4","latitude":"-22.9794","longitude":"-43.2346","pontos_turisticos":[{"nome":"Planetário","distancia":450},{"nome":"Teatro Maria Clara Machado","distancia":450}]},{"linha":"158","descricao_ponto":"Praia Do Flamengo próximo ao 54","sequencia":"40","latitude":"-22.9227","longitude":"-43.1723","pontos_turisticos":[{"nome":"Igreja Nossa Senhora da Glória do Outeiro","distancia":347},{"nome":"Teatro Glória","distancia":51}]},{"linha":"158","descricao_ponto":"Avenida Beira Mar próximo ao 191","sequencia":"40","latitude":"-22.9227","longitude":"-43.1723","pontos_turisticos":[{"nome":"Igreja Nossa Senhora da Glória do Outeiro","distancia":347},{"nome":"Teatro Glória","distancia":51}]},{"linha":"158","descricao_ponto":"Praia Do Flamengo próximo ao 164","sequencia":"18","latitude":"-22.9318","longitude":"-43.1744","pontos_turisticos":[{"nome":"Aterro do Flamengo","distancia":410},{"nome":"Oi Futuro","distancia":286},{"nome":"Praia do Flamengo","distancia":413}]},{"linha":"158","descricao_ponto":"Praia Do Flamengo próximo ao 312","sequencia":"20","latitude":"-22.9355","longitude":"-43.1742","pontos_turisticos":[]},{"linha":"158","descricao_ponto":"Praia Do Flamengo próximo ao 306","sequencia":"20","latitude":"-22.9355","longitude":"-43.1742","pontos_turisticos":[]},{"linha":"158","descricao_ponto":"Rua Marq De Sao Vicente próximo ao 175","sequencia":"6","latitude":"-22.9772","longitude":"-43.2308","pontos_turisticos":[{"nome":"Planetário","distancia":191},{"nome":"Teatro Clara Nunes","distancia":330},{"nome":"Teatro das Artes","distancia":305},{"nome":"Teatro dos Quatro","distancia":331},{"nome":"Teatro Maria Clara Machado","distancia":191},{"nome":"Teatro Vanucci","distancia":310}]},{"linha":"158","descricao_ponto":"Rua Marq De Sao Vicente próximo ao 124","sequencia":"7","latitude":"-22.9766","longitude":"-43.2296","pontos_turisticos":[{"nome":"Planetário","distancia":258},{"nome":"Teatro Casa da Gávea","distancia":390},{"nome":"Teatro Clara Nunes","distancia":191},{"nome":"Teatro das Artes","distancia":166},{"nome":"Teatro do Jockey","distancia":480},{"nome":"Teatro dos Quatro","distancia":192},{"nome":"Teatro Maria Clara Machado","distancia":258},{"nome":"Teatro Vanucci","distancia":171}]},{"linha":"158","descricao_ponto":"Rua Marq De Sao Vicente próximo ao 124","sequencia":"7","latitude":"-22.9766","longitude":"-43.2296","pontos_turisticos":[{"nome":"Planetário","distancia":258},{"nome":"Teatro Casa da Gávea","distancia":390},{"nome":"Teatro Clara Nunes","distancia":191},{"nome":"Teatro das Artes","distancia":166},{"nome":"Teatro do Jockey","distancia":480},{"nome":"Teatro dos Quatro","distancia":192},{"nome":"Teatro Maria Clara Machado","distancia":258},{"nome":"Teatro Vanucci","distancia":171}]},{"linha":"158","descricao_ponto":"Rua Jardim Botanico próximo ao 584 (PONTO DESATIVADO EM 10/04/2014)","sequencia":"42","latitude":"-22.9632","longitude":"-43.2166","pontos_turisticos":[{"nome":"Parque Lage","distancia":416},{"nome":"Teatro Amador O Tablado","distancia":210}]},{"linha":"158","descricao_ponto":"Avenida Rodrigo Otavio próximo ao 1702","sequencia":"46","latitude":"-22.9738","longitude":"-43.226","pontos_turisticos":[{"nome":"Jardim Botânico","distancia":427},{"nome":"Jockey Club Brasileiro","distancia":30},{"nome":"Teatro Casa da Gávea","distancia":104},{"nome":"Teatro Clara Nunes","distancia":293},{"nome":"Teatro das Artes","distancia":317},{"nome":"Teatro do Jockey","distancia":372},{"nome":"Teatro dos Quatro","distancia":294},{"nome":"Teatro Vanucci","distancia":312}]},{"linha":"158","descricao_ponto":"Rua Humaita próximo ao 231","sequencia":"37","latitude":"-22.9602","longitude":"-43.2043","pontos_turisticos":[]},{"linha":"158","descricao_ponto":"BRS 2, 3 - MUNIZ BARRETO","sequencia":"29","latitude":"-22.9492","longitude":"-43.1839","pontos_turisticos":[{"nome":"Fundação Casa de Rui Barbosa","distancia":309},{"nome":"Teatro Bibi Ferreira","distancia":378}]},{"linha":"158","descricao_ponto":"Rua Jardim Botanico próximo ao 291","sequencia":"19","latitude":"-22.9609","longitude":"-43.2103","pontos_turisticos":[{"nome":"Parque Lage","distancia":291}]},{"linha":"158","descricao_ponto":"Rua Jardim Botanico próximo ao 67","sequencia":"20","latitude":"-22.9606","longitude":"-43.2072","pontos_turisticos":[]},{"linha":"158","descricao_ponto":"Praia Do Flamengo próximo ao 60","sequencia":"38","latitude":"-22.9269","longitude":"-43.1732","pontos_turisticos":[{"nome":"Aterro do Flamengo","distancia":272},{"nome":"Museu da República","distancia":352},{"nome":"Museu de Folclore Edison Carneiro","distancia":342},{"nome":"Oi Futuro","distancia":475},{"nome":"Praia do Flamengo","distancia":342},{"nome":"Teatro Glória","distancia":440}]},{"linha":"158","descricao_ponto":"Praia Do Flamengo próximo ao 86","sequencia":"38","latitude":"-22.9269","longitude":"-43.1732","pontos_turisticos":[{"nome":"Aterro do Flamengo","distancia":272},{"nome":"Museu da República","distancia":352},{"nome":"Museu de Folclore Edison Carneiro","distancia":342},{"nome":"Oi Futuro","distancia":475},{"nome":"Praia do Flamengo","distancia":342},{"nome":"Teatro Glória","distancia":440}]},{"linha":"158","descricao_ponto":"Avenida Augusto Severo próximo ao 1","sequencia":"11","latitude":"-22.9162","longitude":"-43.1763","pontos_turisticos":[{"nome":"Igreja e Convento de Santa Teresa","distancia":415},{"nome":"Monumento aos Pracinhas","distancia":232},{"nome":"Museu de Arte Moderna","distancia":413},{"nome":"Praça Paris","distancia":123},{"nome":"Sala Cecília Meireles","distancia":286}]},{"linha":"158","descricao_ponto":"Rua Jardim Botanico próximo ao 633","sequencia":"16","latitude":"-22.9649","longitude":"-43.2182","pontos_turisticos":[{"nome":"Teatro Amador O Tablado","distancia":168}]},{"linha":"158","descricao_ponto":"Avenida Augusto Severo próximo ao 178","sequencia":"12","latitude":"-22.9181","longitude":"-43.1766","pontos_turisticos":[{"nome":"Igreja e Convento de Santa Teresa","distancia":467},{"nome":"Igreja Nossa Senhora da Glória do Outeiro","distancia":381},{"nome":"Monumento aos Pracinhas","distancia":316},{"nome":"Praça Paris","distancia":125},{"nome":"Sala Cecília Meireles","distancia":449}]},{"linha":"158","descricao_ponto":"Avenida Augusto Severo próximo ao 306","sequencia":"12","latitude":"-22.9181","longitude":"-43.1766","pontos_turisticos":[{"nome":"Igreja e Convento de Santa Teresa","distancia":467},{"nome":"Igreja Nossa Senhora da Glória do Outeiro","distancia":381},{"nome":"Monumento aos Pracinhas","distancia":316},{"nome":"Praça Paris","distancia":125},{"nome":"Sala Cecília Meireles","distancia":449}]},{"linha":"158","descricao_ponto":"BRS 2, 3 - PALACIO DA CIDADE","sequencia":"33","latitude":"-22.9516","longitude":"-43.1951","pontos_turisticos":[{"nome":"Museu do Índio","distancia":391}]},{"linha":"158","descricao_ponto":"Rua Jardim Botanico próximo ao 138","sequencia":"43","latitude":"-22.9648","longitude":"-43.218","pontos_turisticos":[{"nome":"Teatro Amador O Tablado","distancia":149}]},{"linha":"158","descricao_ponto":"BRS 1,2,3,I - FARANI","sequencia":"30","latitude":"-22.9433","longitude":"-43.1809","pontos_turisticos":[{"nome":"Praia de Botafogo","distancia":202}]},{"linha":"158","descricao_ponto":"BRS 1, 2 , 3 - PRAÇA DA REPÚBLICA","sequencia":"45","latitude":"-22.9084","longitude":"-43.1867","pontos_turisticos":[{"nome":"Campo de Santana","distancia":255},{"nome":"Teatro Carlos Gomes","distancia":448}]},{"linha":"158","descricao_ponto":"Rua Jardim Botanico próximo ao 391","sequencia":"40","latitude":"-22.9611","longitude":"-43.2123","pontos_turisticos":[{"nome":"Parque Lage","distancia":86}]},{"linha":"158","descricao_ponto":"Rua Jardim Botanico próximo ao 943","sequencia":"13","latitude":"-22.9701","longitude":"-43.2225","pontos_turisticos":[{"nome":"Jardim Botânico","distancia":118}]},{"linha":"158","descricao_ponto":"Rua Jardim Botanico próximo ao 200","sequencia":"13","latitude":"-22.9701","longitude":"-43.2225","pontos_turisticos":[{"nome":"Jardim Botânico","distancia":118}]},{"linha":"158","descricao_ponto":"BRS 1,I - REAL GRANDEZA","sequencia":"25","latitude":"-22.954","longitude":"-43.1919","pontos_turisticos":[{"nome":"Museu do Índio","distancia":229}]},{"linha":"158","descricao_ponto":"Rua Mary Pessoa próximo ao 85","sequencia":"2","latitude":"-22.9823","longitude":"-43.2381","pontos_turisticos":[]},{"linha":"158","descricao_ponto":"Rua Marq De Sao Vicente próximo ao 63","sequencia":"5","latitude":"-22.9777","longitude":"-43.233","pontos_turisticos":[{"nome":"Planetário","distancia":309},{"nome":"Teatro Maria Clara Machado","distancia":309}]},{"linha":"158","descricao_ponto":"Rua Jardim Botanico próximo ao 728","sequencia":"15","latitude":"-22.966","longitude":"-43.2191","pontos_turisticos":[{"nome":"Teatro Amador O Tablado","distancia":278}]},{"linha":"158","descricao_ponto":"Avenida Rui Barbosa próximo ao 266","sequencia":"34","latitude":"-22.9396","longitude":"-43.1711","pontos_turisticos":[{"nome":"Museu Carmem Miranda","distancia":240}]},{"linha":"158","descricao_ponto":"Avenida Das Nacoes Unidas próximo ao 68","sequencia":"31","latitude":"-22.9426","longitude":"-43.1768","pontos_turisticos":[{"nome":"Museu Carmem Miranda","distancia":469},{"nome":"Praia de Botafogo","distancia":500}]},{"linha":"158","descricao_ponto":"Avenida Republica Do Paraguai próximo ao 1","sequencia":"6","latitude":"-22.9088","longitude":"-43.1805","pontos_turisticos":[{"nome":"Arcos da Lapa","distancia":456},{"nome":"Catedral Metropolitana","distancia":233},{"nome":"Confeitaria Colombo","distancia":431},{"nome":"Igreja de São Francisco da Penitência","distancia":246},{"nome":"Museu do Clube Naval","distancia":404},{"nome":"Museu Nacional de Belas Artes","distancia":451},{"nome":"Real Gabinete Português de Leitura","distancia":408},{"nome":"Teatro Carlos Gomes","distancia":271},{"nome":"Teatro Dulcina","distancia":411},{"nome":"Teatro Glauce Rocha","distancia":423},{"nome":"Teatro João Caetano","distancia":325},{"nome":"Teatro Municipal","distancia":426}]},{"linha":"158","descricao_ponto":"Avenida Beira Mar próximo ao 36","sequencia":"13","latitude":"-22.9211","longitude":"-43.1737","pontos_turisticos":[{"nome":"Igreja Nossa Senhora da Glória do Outeiro","distancia":170},{"nome":"Praça Paris","distancia":483},{"nome":"Teatro Glória","distancia":232}]},{"linha":"158","descricao_ponto":"Rua Mary Pessoa próximo ao 430","sequencia":"1","latitude":"-22.9842","longitude":"-43.2407","pontos_turisticos":[]},{"linha":"158","descricao_ponto":"Rua Jardim Botanico próximo ao 414","sequencia":"18","latitude":"-22.9612","longitude":"-43.2132","pontos_turisticos":[{"nome":"Parque Lage","distancia":13}]},{"linha":"158","descricao_ponto":"BRS 2,3 - COBAL","sequencia":"23","latitude":"-22.9557","longitude":"-43.1966","pontos_turisticos":[{"nome":"Espaço Cultura Sergio Porto","distancia":421}]},{"linha":"158","descricao_ponto":"Rua Jardim Botanico próximo ao 943","sequencia":"45","latitude":"-22.9701","longitude":"-43.2225","pontos_turisticos":[{"nome":"Jardim Botânico","distancia":118}]},{"linha":"158","descricao_ponto":"Rua Jardim Botanico próximo ao 200","sequencia":"45","latitude":"-22.9701","longitude":"-43.2225","pontos_turisticos":[{"nome":"Jardim Botânico","distancia":118}]},{"linha":"158","descricao_ponto":"Avenida Bartolomeu Mitre próximo ao 1281","sequencia":"10","latitude":"-22.9764","longitude":"-43.2251","pontos_turisticos":[{"nome":"Jockey Club Brasileiro","distancia":289},{"nome":"Teatro Casa da Gávea","distancia":324},{"nome":"Teatro Casa do Riso","distancia":457},{"nome":"Teatro Clara Nunes","distancia":316},{"nome":"Teatro das Artes","distancia":334},{"nome":"Teatro do Jockey","distancia":69},{"nome":"Teatro dos Quatro","distancia":309},{"nome":"Teatro Vanucci","distancia":334}]},{"linha":"158","descricao_ponto":"Rua Jardim Botanico próximo ao 308","sequencia":"17","latitude":"-22.9622","longitude":"-43.2155","pontos_turisticos":[{"nome":"Parque Lage","distancia":265},{"nome":"Teatro Amador O Tablado","distancia":339}]},{"linha":"158","descricao_ponto":"Rua Evaristo Da Veiga próximo ao 49","sequencia":"8","latitude":"-22.9109","longitude":"-43.1779","pontos_turisticos":[{"nome":"Arcos da Lapa","distancia":300},{"nome":"Biblioteca Nacional","distancia":259},{"nome":"Catedral Metropolitana","distancia":290},{"nome":"Igreja de São Francisco da Penitência","distancia":465},{"nome":"Museu do Clube Naval","distancia":330},{"nome":"Museu Nacional de Belas Artes","distancia":289},{"nome":"Sala Cecília Meireles","distancia":385},{"nome":"Teatro Dulcina","distancia":89},{"nome":"Teatro Glauce Rocha","distancia":422},{"nome":"Teatro Municipal","distancia":228},{"nome":"Teatro Rival Petrobras","distancia":171}]},{"linha":"158","descricao_ponto":"Praia Do Flamengo próximo ao 122","sequencia":"17","latitude":"-22.9293","longitude":"-43.1741","pontos_turisticos":[{"nome":"Aterro do Flamengo","distancia":237},{"nome":"Museu da República","distancia":451},{"nome":"Museu de Folclore Edison Carneiro","distancia":432},{"nome":"Oi Futuro","distancia":247},{"nome":"Praia do Flamengo","distancia":287}]},{"linha":"158","descricao_ponto":"Praia Do Flamengo próximo ao 136","sequencia":"17","latitude":"-22.9293","longitude":"-43.1741","pontos_turisticos":[{"nome":"Aterro do Flamengo","distancia":237},{"nome":"Museu da República","distancia":451},{"nome":"Museu de Folclore Edison Carneiro","distancia":432},{"nome":"Oi Futuro","distancia":247},{"nome":"Praia do Flamengo","distancia":287}]},{"linha":"158","descricao_ponto":"Rua Artur Araripe próximo ao 63","sequencia":"8","latitude":"-22.9773","longitude":"-43.2272","pontos_turisticos":[{"nome":"Jockey Club Brasileiro","distancia":411},{"nome":"Planetário","distancia":356},{"nome":"Teatro Casa da Gávea","distancia":361},{"nome":"Teatro Clara Nunes","distancia":207},{"nome":"Teatro das Artes","distancia":207},{"nome":"Teatro do Jockey","distancia":235},{"nome":"Teatro dos Quatro","distancia":199},{"nome":"Teatro Maria Clara Machado","distancia":356},{"nome":"Teatro Vanucci","distancia":211}]},{"linha":"158","descricao_ponto":"Terminal Procópio Ferreira - Plataforma B","sequencia":"47","latitude":"-22.9051","longitude":"-43.1924","pontos_turisticos":[{"nome":"Campo de Santana","distancia":452}]},{"linha":"158","descricao_ponto":"Terminal Procópio Ferreira - Plataforma A","sequencia":"47","latitude":"-22.9051","longitude":"-43.1924","pontos_turisticos":[{"nome":"Campo de Santana","distancia":452}]},{"linha":"158","descricao_ponto":"Praia Do Flamengo próximo ao 66","sequencia":"15","latitude":"-22.9246","longitude":"-43.1727","pontos_turisticos":[{"nome":"Aterro do Flamengo","distancia":497},{"nome":"Igreja Nossa Senhora da Glória do Outeiro","distancia":453},{"nome":"Museu da República","distancia":409},{"nome":"Museu de Folclore Edison Carneiro","distancia":413},{"nome":"Teatro Glória","distancia":181}]},{"linha":"158","descricao_ponto":"Avenida Oswaldo Cruz próximo ao 112","sequencia":"23","latitude":"-22.9406","longitude":"-43.176","pontos_turisticos":[{"nome":"Museu Carmem Miranda","distancia":378}]},{"linha":"158","descricao_ponto":"BRS 3, I - VISCONDE DE OURO PRETO","sequencia":"27","latitude":"-22.9464","longitude":"-43.1826","pontos_turisticos":[{"nome":"Praia de Botafogo","distancia":230},{"nome":"Teatro Bibi Ferreira","distancia":282}]},{"linha":"158","descricao_ponto":"Estrada Santa Marinha próximo ao 429","sequencia":"51","latitude":"-22.9821","longitude":"-43.2381","pontos_turisticos":[]},{"linha":"158","descricao_ponto":"Avenida Bartolomeu Mitre próximo ao 95","sequencia":"11","latitude":"-22.9751","longitude":"-43.2258","pontos_turisticos":[{"nome":"Jockey Club Brasileiro","distancia":138},{"nome":"Teatro Casa da Gávea","distancia":167},{"nome":"Teatro Clara Nunes","distancia":240},{"nome":"Teatro das Artes","distancia":264},{"nome":"Teatro do Jockey","distancia":229},{"nome":"Teatro dos Quatro","distancia":236},{"nome":"Teatro Vanucci","distancia":260}]},{"linha":"158","descricao_ponto":"BRS 1,2 - VISCONDE DE OURO PRETO","sequencia":"28","latitude":"-22.9472","longitude":"-43.1825","pontos_turisticos":[{"nome":"Praia de Botafogo","distancia":287},{"nome":"Teatro Bibi Ferreira","distancia":316}]},{"linha":"158","descricao_ponto":"Avenida Marechal Floriano, próximo ao 185","sequencia":"2","latitude":"-22.9027","longitude":"-43.1868","pontos_turisticos":[{"nome":"Campo de Santana","distancia":468}]},{"linha":"158","descricao_ponto":"BRS 2,3 - CONDE DE IRAJÁ","sequencia":"24","latitude":"-22.955","longitude":"-43.1947","pontos_turisticos":[{"nome":"Museu do Índio","distancia":480}]},{"linha":"158","descricao_ponto":"Avenida Rodrigo Otavio próximo ao 1003","sequencia":"12","latitude":"-22.9735","longitude":"-43.2255","pontos_turisticos":[{"nome":"Jardim Botânico","distancia":369},{"nome":"Jockey Club Brasileiro","distancia":46},{"nome":"Teatro Casa da Gávea","distancia":164},{"nome":"Teatro Clara Nunes","distancia":353},{"nome":"Teatro das Artes","distancia":378},{"nome":"Teatro do Jockey","distancia":393},{"nome":"Teatro dos Quatro","distancia":354},{"nome":"Teatro Vanucci","distancia":372}]},{"linha":"158","descricao_ponto":"BRS 2,3 - NELSON MANDELA","sequencia":"28","latitude":"-22.951","longitude":"-43.1833","pontos_turisticos":[{"nome":"Fundação Casa de Rui Barbosa","distancia":408}]},{"linha":"158","descricao_ponto":"BRS 1,4 - PRAÇA TIRADENTES","sequencia":"44","latitude":"-22.9072","longitude":"-43.1826","pontos_turisticos":[{"nome":"Catedral Metropolitana","distancia":453},{"nome":"Confeitaria Colombo","distancia":445},{"nome":"Igreja de São Francisco da Penitência","distancia":344},{"nome":"Real Gabinete Português de Leitura","distancia":198},{"nome":"Teatro Carlos Gomes","distancia":9},{"nome":"Teatro João Caetano","distancia":96}]},{"linha":"158","descricao_ponto":"BRS 1 - MARQUÊS DE OLINDA","sequencia":"26","latitude":"-22.9448","longitude":"-43.1823","pontos_turisticos":[{"nome":"Praia de Botafogo","distancia":153},{"nome":"Teatro Bibi Ferreira","distancia":341}]},{"linha":"158","descricao_ponto":"Avenida Visconde De Albuquerque próximo ao 1271","sequencia":"9","latitude":"-22.9771","longitude":"-43.2255","pontos_turisticos":[{"nome":"Jockey Club Brasileiro","distancia":361},{"nome":"Teatro Casa da Gávea","distancia":371},{"nome":"Teatro Casa do Riso","distancia":420},{"nome":"Teatro Clara Nunes","distancia":310},{"nome":"Teatro das Artes","distancia":323},{"nome":"Teatro do Jockey","distancia":59},{"nome":"Teatro dos Quatro","distancia":302},{"nome":"Teatro Vanucci","distancia":324}]},{"linha":"158","descricao_ponto":"Praia Do Flamengo próximo ao 544","sequencia":"21","latitude":"-22.9364","longitude":"-43.174","pontos_turisticos":[]},{"linha":"158","descricao_ponto":"BRS 1, 2, 3, I - DEZENOVE DE FEVEREIRO","sequencia":"30","latitude":"-22.9495","longitude":"-43.1878","pontos_turisticos":[{"nome":"Fundação Casa de Rui Barbosa","distancia":92},{"nome":"Museu do Índio","distancia":455},{"nome":"Teatro Bibi Ferreira","distancia":458}]},{"linha":"158","descricao_ponto":"Avenida Rui Barbosa próximo ao 460","sequencia":"33","latitude":"-22.9412","longitude":"-43.1724","pontos_turisticos":[{"nome":"Museu Carmem Miranda","distancia":21}]},{"linha":"158","descricao_ponto":"Estrada Da Gavea próximo ao 235","sequencia":"53","latitude":"-22.9835","longitude":"-43.242","pontos_turisticos":[]},{"linha":"158","descricao_ponto":"Rua Marq De Sao Vicente próximo ao 63","sequencia":"48","latitude":"-22.9781","longitude":"-43.2334","pontos_turisticos":[{"nome":"Planetário","distancia":333},{"nome":"Teatro Maria Clara Machado","distancia":333}]},{"linha":"158","descricao_ponto":"Rua Jardim Botanico próximo ao 739","sequencia":"14","latitude":"-22.9671","longitude":"-43.22","pontos_turisticos":[{"nome":"Teatro Amador O Tablado","distancia":416}]},{"linha":"158","descricao_ponto":"Terminal Procópio Ferreira - Plataforma B","sequencia":"1","latitude":"-22.905","longitude":"-43.1924","pontos_turisticos":[{"nome":"Campo de Santana","distancia":456}]},{"linha":"158","descricao_ponto":"Terminal Procópio Ferreira - Plataforma A","sequencia":"1","latitude":"-22.905","longitude":"-43.1924","pontos_turisticos":[{"nome":"Campo de Santana","distancia":456}]},{"linha":"158","descricao_ponto":"BRS 1, I - REAL GRANDEZA","sequencia":"32","latitude":"-22.9506","longitude":"-43.1932","pontos_turisticos":[{"nome":"Museu do Índio","distancia":249}]},{"linha":"158","descricao_ponto":"Rua Jardim Botanico próximo ao 266","sequencia":"39","latitude":"-22.9608","longitude":"-43.2093","pontos_turisticos":[{"nome":"Parque Lage","distancia":394}]},{"linha":"158","descricao_ponto":"Praia Do Flamengo próximo ao 1651","sequencia":"36","latitude":"-22.9327","longitude":"-43.1744","pontos_turisticos":[{"nome":"Aterro do Flamengo","distancia":490},{"nome":"Oi Futuro","distancia":363},{"nome":"Praia do Flamengo","distancia":483}]},{"linha":"158","descricao_ponto":"Praia Do Flamengo próximo ao 122","sequencia":"37","latitude":"-22.9294","longitude":"-43.174","pontos_turisticos":[{"nome":"Aterro do Flamengo","distancia":229},{"nome":"Museu da República","distancia":466},{"nome":"Museu de Folclore Edison Carneiro","distancia":446},{"nome":"Oi Futuro","distancia":254},{"nome":"Praia do Flamengo","distancia":277}]},{"linha":"158","descricao_ponto":"Praia Do Flamengo próximo ao 136","sequencia":"37","latitude":"-22.9294","longitude":"-43.174","pontos_turisticos":[{"nome":"Aterro do Flamengo","distancia":229},{"nome":"Museu da República","distancia":466},{"nome":"Museu de Folclore Edison Carneiro","distancia":446},{"nome":"Oi Futuro","distancia":254},{"nome":"Praia do Flamengo","distancia":277}]},{"linha":"158","descricao_ponto":"Rua Jardim Botanico próximo ao 243","sequencia":"21","latitude":"-22.9603","longitude":"-43.2046","pontos_turisticos":[]},{"linha":"158","descricao_ponto":"Avenida Oswaldo Cruz próximo ao 112","sequencia":"22","latitude":"-22.9396","longitude":"-43.1749","pontos_turisticos":[{"nome":"Museu Carmem Miranda","distancia":324}]},{"linha":"158","descricao_ponto":"BRS 1, I - VISCONDE DE SILVA","sequencia":"36","latitude":"-22.959","longitude":"-43.2006","pontos_turisticos":[{"nome":"Espaço Cultura Sergio Porto","distancia":130}]}]