[{"linha":"180","descricao_ponto":"BRS 1 - BUENOS AIRES","sequencia":"10","latitude":"-22.9023","longitude":"-43.1787","pontos_turisticos":[{"nome":"Casa França Brasil","distancia":350},{"nome":"Centro Cultural Banco do Brasil","distancia":292},{"nome":"Centro Cultural dos Correios","distancia":314},{"nome":"Confeitaria Colombo","distancia":328},{"nome":"Espaço Cultural da Marinha","distancia":456},{"nome":"Igreja Nossa Senhora da Candelária","distancia":205},{"nome":"Igreja Nossa Senhora do Carmo da Antiga Sé","distancia":367},{"nome":"Paço Imperial","distancia":475}]},{"linha":"180","descricao_ponto":"Rua Bento Lisboa próximo ao 80","sequencia":"20","latitude":"-22.9275","longitude":"-43.1794","pontos_turisticos":[{"nome":"Museu da República","distancia":353},{"nome":"Museu de Folclore Edison Carneiro","distancia":346},{"nome":"Oi Futuro","distancia":415}]},{"linha":"180","descricao_ponto":"Rua Bento Lisboa próximo ao 138","sequencia":"21","latitude":"-22.9291","longitude":"-43.1794","pontos_turisticos":[{"nome":"Museu da República","distancia":470},{"nome":"Museu de Folclore Edison Carneiro","distancia":457},{"nome":"Oi Futuro","distancia":324},{"nome":"Parque Eduardo Guinle","distancia":407}]},{"linha":"180","descricao_ponto":"Rua Das Laranjeiras próximo ao 218","sequencia":"25","latitude":"-22.9337","longitude":"-43.1863","pontos_turisticos":[{"nome":"Parque Eduardo Guinle","distancia":467}]},{"linha":"180","descricao_ponto":"Rua Do Russel próximo ao 76","sequencia":"12","latitude":"-22.9212","longitude":"-43.1766","pontos_turisticos":[{"nome":"Igreja Nossa Senhora da Glória do Outeiro","distancia":130},{"nome":"Praça Paris","distancia":449},{"nome":"Teatro Glória","distancia":446}]},{"linha":"180","descricao_ponto":"Rua Cosme Velho próximo ao 174","sequencia":"30","latitude":"-22.9391","longitude":"-43.1961","pontos_turisticos":[{"nome":"Cristo Redentor (Corcovado)","distancia":286}]},{"linha":"180","descricao_ponto":"Rua Das Laranjeiras próximo ao 402","sequencia":"27","latitude":"-22.9378","longitude":"-43.1904","pontos_turisticos":[]},{"linha":"180","descricao_ponto":"Largo Do Machado próximo ao 1","sequencia":"22","latitude":"-22.9311","longitude":"-43.1794","pontos_turisticos":[{"nome":"Oi Futuro","distancia":332},{"nome":"Parque Eduardo Guinle","distancia":318}]},{"linha":"180","descricao_ponto":"Rua Do Catete próximo ao 160","sequencia":"10","latitude":"-22.9267","longitude":"-43.1766","pontos_turisticos":[{"nome":"Museu da República","distancia":94},{"nome":"Museu de Folclore Edison Carneiro","distancia":74},{"nome":"Oi Futuro","distancia":368}]},{"linha":"180","descricao_ponto":"Rua Cosme Velho próximo ao 433","sequencia":"2","latitude":"-22.9405","longitude":"-43.198","pontos_turisticos":[{"nome":"Cristo Redentor (Corcovado)","distancia":50}]},{"linha":"180","descricao_ponto":"Rua Das Laranjeiras próximo ao 48","sequencia":"23","latitude":"-22.9317","longitude":"-43.1805","pontos_turisticos":[{"nome":"Oi Futuro","distancia":461},{"nome":"Parque Eduardo Guinle","distancia":206}]},{"linha":"180","descricao_ponto":"Rua Das Laranjeiras próximo ao 130","sequencia":"24","latitude":"-22.9326","longitude":"-43.1829","pontos_turisticos":[{"nome":"Parque Eduardo Guinle","distancia":140}]},{"linha":"180","descricao_ponto":"Rua Cosme Velho próximo ao 430","sequencia":"31","latitude":"-22.9405","longitude":"-43.1977","pontos_turisticos":[{"nome":"Cristo Redentor (Corcovado)","distancia":81}]},{"linha":"180","descricao_ponto":"Avenida Venezuela próximo ao 189","sequencia":"6","latitude":"-22.8952","longitude":"-43.188","pontos_turisticos":[]},{"linha":"180","descricao_ponto":"Rua Pedro Americo próximo ao 166","sequencia":"18","latitude":"-22.9246","longitude":"-43.1791","pontos_turisticos":[{"nome":"Museu da República","distancia":306},{"nome":"Museu de Folclore Edison Carneiro","distancia":320}]},{"linha":"180","descricao_ponto":"Rua Das Laranjeiras próximo ao 540","sequencia":"4","latitude":"-22.9385","longitude":"-43.1942","pontos_turisticos":[{"nome":"Cristo Redentor (Corcovado)","distancia":489}]},{"linha":"180","descricao_ponto":"RUA DO CATETE próximo ao 38","sequencia":"11","latitude":"-22.9234","longitude":"-43.1771","pontos_turisticos":[{"nome":"Igreja Nossa Senhora da Glória do Outeiro","distancia":293},{"nome":"Museu da República","distancia":282},{"nome":"Museu de Folclore Edison Carneiro","distancia":303},{"nome":"Teatro Glória","distancia":453}]},{"linha":"180","descricao_ponto":"Rua Do Catete próximo ao 40","sequencia":"17","latitude":"-22.9225","longitude":"-43.1772","pontos_turisticos":[{"nome":"Igreja Nossa Senhora da Glória do Outeiro","distancia":231},{"nome":"Museu da República","distancia":382},{"nome":"Museu de Folclore Edison Carneiro","distancia":403},{"nome":"Teatro Glória","distancia":464}]},{"linha":"180","descricao_ponto":"Rua Cosme Velho próximo ao 563","sequencia":"29","latitude":"-22.9383","longitude":"-43.1947","pontos_turisticos":[{"nome":"Cristo Redentor (Corcovado)","distancia":454}]},{"linha":"180","descricao_ponto":"Rua Conde De Baependi próximo ao 65","sequencia":"8","latitude":"-22.9332","longitude":"-43.1807","pontos_turisticos":[{"nome":"Parque Eduardo Guinle","distancia":271}]},{"linha":"180","descricao_ponto":"Rua Das Laranjeiras próximo ao 515","sequencia":"5","latitude":"-22.9385","longitude":"-43.1925","pontos_turisticos":[]},{"linha":"180","descricao_ponto":"Rua Do Catete próximo ao 448","sequencia":"16","latitude":"-22.9211","longitude":"-43.1769","pontos_turisticos":[{"nome":"Igreja Nossa Senhora da Glória do Outeiro","distancia":162},{"nome":"Praça Paris","distancia":445},{"nome":"Teatro Glória","distancia":478}]},{"linha":"180","descricao_ponto":"Rua Das Laranjeiras próximo ao 336","sequencia":"26","latitude":"-22.9357","longitude":"-43.1895","pontos_turisticos":[]},{"linha":"180","descricao_ponto":"Rua Das Laranjeiras próximo ao 478","sequencia":"28","latitude":"-22.9385","longitude":"-43.1928","pontos_turisticos":[]},{"linha":"180","descricao_ponto":"Rua Rivadavia Correia próximo ao 185 ","sequencia":"4","latitude":"-22.898","longitude":"-43.1954","pontos_turisticos":[{"nome":"Cidade do Samba","distancia":440},{"nome":"Memorial dos Pretos Novos","distancia":330}]},{"linha":"180","descricao_ponto":"Av. Augusto Severo próximo ao 202","sequencia":"14","latitude":"-22.9161","longitude":"-43.1766","pontos_turisticos":[{"nome":"Arcos da Lapa","distancia":494},{"nome":"Igreja e Convento de Santa Teresa","distancia":383},{"nome":"Monumento aos Pracinhas","distancia":264},{"nome":"Museu de Arte Moderna","distancia":430},{"nome":"Praça Paris","distancia":147},{"nome":"Sala Cecília Meireles","distancia":257}]},{"linha":"180","descricao_ponto":"Rua Bento Lisboa próximo ao 24","sequencia":"19","latitude":"-22.9258","longitude":"-43.1794","pontos_turisticos":[{"nome":"Museu da República","distancia":303},{"nome":"Museu de Folclore Edison Carneiro","distancia":308}]},{"linha":"180","descricao_ponto":"Avenida Marechal Floriano, próximo ao 185","sequencia":"24","latitude":"-22.9027","longitude":"-43.1868","pontos_turisticos":[{"nome":"Campo de Santana","distancia":468}]},{"linha":"180","descricao_ponto":"Avenida Augusto Severo próximo ao 178","sequencia":"15","latitude":"-22.9181","longitude":"-43.1767","pontos_turisticos":[{"nome":"Igreja e Convento de Santa Teresa","distancia":459},{"nome":"Igreja Nossa Senhora da Glória do Outeiro","distancia":385},{"nome":"Monumento aos Pracinhas","distancia":324},{"nome":"Praça Paris","distancia":132},{"nome":"Sala Cecília Meireles","distancia":446}]},{"linha":"180","descricao_ponto":"Avenida Augusto Severo próximo ao 306","sequencia":"15","latitude":"-22.9181","longitude":"-43.1767","pontos_turisticos":[{"nome":"Igreja e Convento de Santa Teresa","distancia":459},{"nome":"Igreja Nossa Senhora da Glória do Outeiro","distancia":385},{"nome":"Monumento aos Pracinhas","distancia":324},{"nome":"Praça Paris","distancia":132},{"nome":"Sala Cecília Meireles","distancia":446}]},{"linha":"180","descricao_ponto":"Rua Das Laranjeiras próximo ao 275","sequencia":"7","latitude":"-22.9347","longitude":"-43.1879","pontos_turisticos":[]},{"linha":"180","descricao_ponto":"Augusto Severo proximo ao 176","sequencia":"14","latitude":"-22.9159","longitude":"-43.1764","pontos_turisticos":[{"nome":"Arcos da Lapa","distancia":493},{"nome":"Igreja e Convento de Santa Teresa","distancia":401},{"nome":"Monumento aos Pracinhas","distancia":249},{"nome":"Museu de Arte Moderna","distancia":401},{"nome":"Praça Paris","distancia":158},{"nome":"Sala Cecília Meireles","distancia":255}]},{"linha":"180","descricao_ponto":"BRS 4,5 - ERASMO BRAGA","sequencia":"19","latitude":"-22.9054","longitude":"-43.1737","pontos_turisticos":[{"nome":"Espaço Cultural da Marinha","distancia":486},{"nome":"Igreja Nossa Senhora do Carmo da Antiga Sé","distancia":289},{"nome":"Museu do Clube Naval","distancia":430},{"nome":"Museu Histórico Nacional","distancia":436},{"nome":"Museu Nacional de Belas Artes","distancia":460},{"nome":"Paço Imperial","distancia":214},{"nome":"Palácio Tiradentes","distancia":154},{"nome":"Teatro Glauce Rocha","distancia":373}]},{"linha":"180","descricao_ponto":"Praca Cristiano Otoni próximo ao S/n","sequencia":"2","latitude":"-22.9035","longitude":"-43.1907","pontos_turisticos":[{"nome":"Campo de Santana","distancia":428}]},{"linha":"180","descricao_ponto":"Rua Do Catete próximo ao 311","sequencia":"9","latitude":"-22.9309","longitude":"-43.1776","pontos_turisticos":[{"nome":"Oi Futuro","distancia":159}]},{"linha":"180","descricao_ponto":"Rua Cosme Velho próximo ao 155","sequencia":"3","latitude":"-22.9394","longitude":"-43.1961","pontos_turisticos":[{"nome":"Cristo Redentor (Corcovado)","distancia":270}]}]