[{"linha":"201","descricao_ponto":"Rua Itapiru próximo ao 1356","sequencia":"6","latitude":"-22.925","longitude":"-43.203","pontos_turisticos":[]},{"linha":"201","descricao_ponto":"Rua Itapiru próximo ao 1356","sequencia":"6","latitude":"-22.925","longitude":"-43.203","pontos_turisticos":[]},{"linha":"201","descricao_ponto":"Rua Itapiru próximo ao 592","sequencia":"13","latitude":"-22.9223","longitude":"-43.1973","pontos_turisticos":[]},{"linha":"201","descricao_ponto":"Rua Itapiru próximo ao 592","sequencia":"13","latitude":"-22.9223","longitude":"-43.1973","pontos_turisticos":[]},{"linha":"201","descricao_ponto":"Rua Itapiru próximo ao 1150","sequencia":"7","latitude":"-22.9252","longitude":"-43.2013","pontos_turisticos":[]},{"linha":"201","descricao_ponto":"Rua Itapiru próximo ao 1150","sequencia":"7","latitude":"-22.9252","longitude":"-43.2013","pontos_turisticos":[]},{"linha":"201","descricao_ponto":"BRS 1,4 - PRAÇA TIRADENTES","sequencia":"3","latitude":"-22.9072","longitude":"-43.1826","pontos_turisticos":[{"nome":"Catedral Metropolitana","distancia":453},{"nome":"Confeitaria Colombo","distancia":445},{"nome":"Igreja de São Francisco da Penitência","distancia":344},{"nome":"Real Gabinete Português de Leitura","distancia":198},{"nome":"Teatro Carlos Gomes","distancia":9},{"nome":"Teatro João Caetano","distancia":96}]},{"linha":"201","descricao_ponto":"Avenida Paulo De Frontin próximo ao 763","sequencia":"25","latitude":"-22.9316","longitude":"-43.2092","pontos_turisticos":[]},{"linha":"201","descricao_ponto":"Avenida Paulo De Frontin próximo ao 452","sequencia":"22","latitude":"-22.9259","longitude":"-43.2097","pontos_turisticos":[]},{"linha":"201","descricao_ponto":"Rua Doutor Lagden próximo ao S/n","sequencia":"14","latitude":"-22.9162","longitude":"-43.1945","pontos_turisticos":[]},{"linha":"201","descricao_ponto":"Rua Do Catumbi próximo ao 93","sequencia":"15","latitude":"-22.9166","longitude":"-43.1953","pontos_turisticos":[]},{"linha":"201","descricao_ponto":"Rua Santa Alexandrina próximo ao 565","sequencia":"28","latitude":"-22.9297","longitude":"-43.2085","pontos_turisticos":[]},{"linha":"201","descricao_ponto":"Rua Do Catumbi próximo ao 15","sequencia":"16","latitude":"-22.9149","longitude":"-43.1959","pontos_turisticos":[{"nome":"Sambódromo","distancia":393}]},{"linha":"201","descricao_ponto":"Rua Carolina Reydner próximo ao 80","sequencia":"8","latitude":"-22.9159","longitude":"-43.1964","pontos_turisticos":[{"nome":"Sambódromo","distancia":495}]},{"linha":"201","descricao_ponto":"Rua Campos Da Paz próximo ao 67","sequencia":"19","latitude":"-22.9235","longitude":"-43.2079","pontos_turisticos":[]},{"linha":"201","descricao_ponto":"Avenida Paulo De Frontin próximo ao 431","sequencia":"20","latitude":"-22.9228","longitude":"-43.2097","pontos_turisticos":[]},{"linha":"201","descricao_ponto":"Rua Itapiru próximo ao 1356","sequencia":"16","latitude":"-22.925","longitude":"-43.203","pontos_turisticos":[]},{"linha":"201","descricao_ponto":"Rua Itapiru próximo ao 1356","sequencia":"16","latitude":"-22.925","longitude":"-43.203","pontos_turisticos":[]},{"linha":"201","descricao_ponto":"Rua Itapiru próximo ao 592","sequencia":"10","latitude":"-22.9222","longitude":"-43.1973","pontos_turisticos":[]},{"linha":"201","descricao_ponto":"Rua Itapiru próximo ao 592","sequencia":"10","latitude":"-22.9222","longitude":"-43.1973","pontos_turisticos":[]},{"linha":"201","descricao_ponto":"Rua Chichorro próximo ao 8","sequencia":"9","latitude":"-22.917","longitude":"-43.1954","pontos_turisticos":[]},{"linha":"201","descricao_ponto":"Rua Santa Alexandrina próximo ao 101","sequencia":"2","latitude":"-22.926","longitude":"-43.2085","pontos_turisticos":[]},{"linha":"201","descricao_ponto":"Rua Eleone De Almeida próximo ao 89","sequencia":"13","latitude":"-22.9174","longitude":"-43.1941","pontos_turisticos":[]},{"linha":"201","descricao_ponto":"Rua Itapiru próximo ao 245","sequencia":"11","latitude":"-22.9191","longitude":"-43.1957","pontos_turisticos":[]},{"linha":"201","descricao_ponto":"BRS 1, 2 , 3 - PRAÇA DA REPÚBLICA","sequencia":"4","latitude":"-22.9084","longitude":"-43.1867","pontos_turisticos":[{"nome":"Campo de Santana","distancia":255},{"nome":"Teatro Carlos Gomes","distancia":448}]},{"linha":"201","descricao_ponto":"BRS 1, 4, I - ANÍBAL BENÉVOLO","sequencia":"6","latitude":"-22.9122","longitude":"-43.1986","pontos_turisticos":[{"nome":"Sambódromo","distancia":198}]},{"linha":"201","descricao_ponto":"BRS 1, 2 - TREZE DE MAIO","sequencia":"20","latitude":"-22.9083","longitude":"-43.1773","pontos_turisticos":[{"nome":"Biblioteca Nacional","distancia":232},{"nome":"Catedral Metropolitana","distancia":454},{"nome":"Confeitaria Colombo","distancia":373},{"nome":"Igreja de São Francisco da Penitência","distancia":254},{"nome":"Museu do Clube Naval","distancia":71},{"nome":"Museu Nacional de Belas Artes","distancia":140},{"nome":"Teatro Dulcina","distancia":268},{"nome":"Teatro Glauce Rocha","distancia":129},{"nome":"Teatro Municipal","distancia":153},{"nome":"Teatro Rival Petrobras","distancia":339}]},{"linha":"201","descricao_ponto":"Rua Campos Da Paz próximo ao 209","sequencia":"17","latitude":"-22.9239","longitude":"-43.2045","pontos_turisticos":[]},{"linha":"201","descricao_ponto":"Rua Heitor Carrilho próximo ao 65","sequencia":"7","latitude":"-22.9137","longitude":"-43.1995","pontos_turisticos":[{"nome":"Sambódromo","distancia":369}]},{"linha":"201","descricao_ponto":"Rua Estrela próximo ao 73","sequencia":"3","latitude":"-22.9249","longitude":"-43.2083","pontos_turisticos":[]},{"linha":"201","descricao_ponto":"Avenida Paulo De Frontin próximo ao 742","sequencia":"24","latitude":"-22.9297","longitude":"-43.2092","pontos_turisticos":[]},{"linha":"201","descricao_ponto":"Rua Doutor Agra próximo ao 90","sequencia":"11","latitude":"-22.9204","longitude":"-43.196","pontos_turisticos":[]},{"linha":"201","descricao_ponto":"Rua Santa Alexandrina próximo ao 401","sequencia":"1","latitude":"-22.9287","longitude":"-43.2082","pontos_turisticos":[]},{"linha":"201","descricao_ponto":"Rua Itapiru próximo ao 1150","sequencia":"15","latitude":"-22.9252","longitude":"-43.2012","pontos_turisticos":[]},{"linha":"201","descricao_ponto":"Rua Itapiru próximo ao 1150","sequencia":"15","latitude":"-22.9252","longitude":"-43.2012","pontos_turisticos":[]},{"linha":"201","descricao_ponto":"Avenida Paulo De Frontin próximo ao 500","sequencia":"21","latitude":"-22.924","longitude":"-43.2098","pontos_turisticos":[]},{"linha":"201","descricao_ponto":"Rua Estrela próximo ao 6","sequencia":"4","latitude":"-22.9252","longitude":"-43.206","pontos_turisticos":[]},{"linha":"201","descricao_ponto":"BRS 1, 2, 4 - INVÁLIDOS","sequencia":"18","latitude":"-22.911","longitude":"-43.1857","pontos_turisticos":[]},{"linha":"201","descricao_ponto":"Rua Campos Da Paz próximo ao 117","sequencia":"18","latitude":"-22.9237","longitude":"-43.2064","pontos_turisticos":[]},{"linha":"201","descricao_ponto":"BRS 1, 2, 4, 5 - DEBRET","sequencia":"21","latitude":"-22.9072","longitude":"-43.1739","pontos_turisticos":[{"nome":"Academia Brasileira de Letras","distancia":420},{"nome":"Biblioteca Nacional","distancia":339},{"nome":"Igreja Nossa Senhora do Carmo da Antiga Sé","distancia":462},{"nome":"Museu do Clube Naval","distancia":299},{"nome":"Museu Histórico Nacional","distancia":492},{"nome":"Museu Nacional de Belas Artes","distancia":294},{"nome":"Paço Imperial","distancia":408},{"nome":"Palácio Tiradentes","distancia":346},{"nome":"Teatro Glauce Rocha","distancia":290},{"nome":"Teatro Municipal","distancia":353}]},{"linha":"201","descricao_ponto":"BRS 1, 2, 3, 4 - GENERAL CALDWELL","sequencia":"5","latitude":"-22.9098","longitude":"-43.1911","pontos_turisticos":[{"nome":"Campo de Santana","distancia":449}]},{"linha":"201","descricao_ponto":"Rua Santa Alexandrina próximo ao 865","sequencia":"27","latitude":"-22.9316","longitude":"-43.2086","pontos_turisticos":[]},{"linha":"201","descricao_ponto":"Rua Do Catumbi próximo ao 120","sequencia":"10","latitude":"-22.9174","longitude":"-43.1949","pontos_turisticos":[]},{"linha":"201","descricao_ponto":"Avenida Paulo De Frontin próximo ao 628","sequencia":"23","latitude":"-22.9274","longitude":"-43.2096","pontos_turisticos":[]},{"linha":"201","descricao_ponto":"Rua Santa Alexandrina próximo ao 1031","sequencia":"26","latitude":"-22.9336","longitude":"-43.2093","pontos_turisticos":[]},{"linha":"201","descricao_ponto":"Rua Doutor Agra próximo ao 1","sequencia":"12","latitude":"-22.9197","longitude":"-43.1945","pontos_turisticos":[]},{"linha":"201","descricao_ponto":"Rua Itapiru próximo ao 720","sequencia":"9","latitude":"-22.9235","longitude":"-43.198","pontos_turisticos":[]},{"linha":"201","descricao_ponto":"Rua Itapiru próximo ao 1553","sequencia":"5","latitude":"-22.9249","longitude":"-43.2049","pontos_turisticos":[]},{"linha":"201","descricao_ponto":"Terminal Jamil Amiden (AV. Chile) - Ponto A6","sequencia":"19","latitude":"-22.9091","longitude":"-43.18","pontos_turisticos":[{"nome":"Arcos da Lapa","distancia":419},{"nome":"Biblioteca Nacional","distancia":448},{"nome":"Catedral Metropolitana","distancia":212},{"nome":"Confeitaria Colombo","distancia":445},{"nome":"Igreja de São Francisco da Penitência","distancia":255},{"nome":"Museu do Clube Naval","distancia":361},{"nome":"Museu Nacional de Belas Artes","distancia":400},{"nome":"Real Gabinete Português de Leitura","distancia":461},{"nome":"Teatro Carlos Gomes","distancia":332},{"nome":"Teatro Dulcina","distancia":350},{"nome":"Teatro Glauce Rocha","distancia":393},{"nome":"Teatro João Caetano","distancia":382},{"nome":"Teatro Municipal","distancia":371},{"nome":"Teatro Rival Petrobras","distancia":448}]},{"linha":"201","descricao_ponto":"BRS 1, 2 - REPÚBLICA DO PARAGUAI","sequencia":"19","latitude":"-22.9091","longitude":"-43.18","pontos_turisticos":[{"nome":"Arcos da Lapa","distancia":419},{"nome":"Biblioteca Nacional","distancia":448},{"nome":"Catedral Metropolitana","distancia":212},{"nome":"Confeitaria Colombo","distancia":445},{"nome":"Igreja de São Francisco da Penitência","distancia":255},{"nome":"Museu do Clube Naval","distancia":361},{"nome":"Museu Nacional de Belas Artes","distancia":400},{"nome":"Real Gabinete Português de Leitura","distancia":461},{"nome":"Teatro Carlos Gomes","distancia":332},{"nome":"Teatro Dulcina","distancia":350},{"nome":"Teatro Glauce Rocha","distancia":393},{"nome":"Teatro João Caetano","distancia":382},{"nome":"Teatro Municipal","distancia":371},{"nome":"Teatro Rival Petrobras","distancia":448}]},{"linha":"201","descricao_ponto":"Rua Itapiru próximo ao 975","sequencia":"8","latitude":"-22.925","longitude":"-43.1997","pontos_turisticos":[]},{"linha":"201","descricao_ponto":"Rua Itapiru próximo ao 824","sequencia":"14","latitude":"-22.9242","longitude":"-43.1984","pontos_turisticos":[]},{"linha":"201","descricao_ponto":"BRS 1, 2, 3, 4 - CRUZ VERMELHA","sequencia":"17","latitude":"-22.9122","longitude":"-43.1893","pontos_turisticos":[]}]