[{"linha":"2018","descricao_ponto":"Avenida Atlantica próximo ao 3288","sequencia":"61","latitude":"-22.9779","longitude":"-43.1889","pontos_turisticos":[{"nome":"Teatro Brigitte Blair","distancia":245}]},{"linha":"2018","descricao_ponto":"Avenida Das Americas próximo ao 3328","sequencia":"106","latitude":"-22.9998","longitude":"-43.3503","pontos_turisticos":[{"nome":"Teatro dos Grandes Atores","distancia":80}]},{"linha":"2018","descricao_ponto":"Avenida Vieira Souto próximo ao 530","sequencia":"71","latitude":"-22.9862","longitude":"-43.2094","pontos_turisticos":[{"nome":"Centro Cultural Candido Mendes","distancia":469},{"nome":"Teatro Ipanema","distancia":482}]},{"linha":"2018","descricao_ponto":"Avenida Niemeyer próximo ao 705","sequencia":"84","latitude":"-23","longitude":"-43.2435","pontos_turisticos":[]},{"linha":"2018","descricao_ponto":"Avenida Niemeyer próximo ao 845","sequencia":"84","latitude":"-23","longitude":"-43.2435","pontos_turisticos":[]},{"linha":"2018","descricao_ponto":"Praia Do Flamengo próximo ao 1651","sequencia":"61","latitude":"-22.9327","longitude":"-43.1744","pontos_turisticos":[{"nome":"Aterro do Flamengo","distancia":490},{"nome":"Oi Futuro","distancia":363},{"nome":"Praia do Flamengo","distancia":483}]},{"linha":"2018","descricao_ponto":"Av. Niemeyer próximo ao 50","sequencia":"89","latitude":"-22.9922","longitude":"-43.2538","pontos_turisticos":[]},{"linha":"2018","descricao_ponto":"Avenida Atlantica próximo ao 4066","sequencia":"64","latitude":"-22.9839","longitude":"-43.1897","pontos_turisticos":[{"nome":"Forte de Copacabana","distancia":286},{"nome":"Parque Peter Pan","distancia":255},{"nome":"Teatro da Praia","distancia":374}]},{"linha":"2018","descricao_ponto":"Avenida Niemeyer próximo ao 383","sequencia":"82","latitude":"-22.9952","longitude":"-43.2352","pontos_turisticos":[]},{"linha":"2018","descricao_ponto":"Avenida Niemeyer próximo ao 383","sequencia":"82","latitude":"-22.9952","longitude":"-43.2352","pontos_turisticos":[]},{"linha":"2018","descricao_ponto":"Avenida Atlantica próximo ao 1663","sequencia":"48","latitude":"-22.9689","longitude":"-43.1805","pontos_turisticos":[{"nome":"Praia de Copacabana","distancia":147},{"nome":"Sala Baden Powell","distancia":198},{"nome":"Teatro Gláucio Gil","distancia":391}]},{"linha":"2018","descricao_ponto":"BRS 3, I - NOSSA SRA. DE COPACABANA","sequencia":"51","latitude":"-22.9634","longitude":"-43.1741","pontos_turisticos":[{"nome":"Teatro Princesa Isabel","distancia":48},{"nome":"Teatro Villa Lobos","distancia":262}]},{"linha":"2018","descricao_ponto":"Avenida Niemeyer próximo ao 383","sequencia":"29","latitude":"-22.9953","longitude":"-43.2352","pontos_turisticos":[]},{"linha":"2018","descricao_ponto":"Avenida Niemeyer próximo ao 383","sequencia":"29","latitude":"-22.9953","longitude":"-43.2352","pontos_turisticos":[]},{"linha":"2018","descricao_ponto":"Avenida Vieira Souto próximo ao 530","sequencia":"37","latitude":"-22.9863","longitude":"-43.2094","pontos_turisticos":[{"nome":"Centro Cultural Candido Mendes","distancia":473},{"nome":"Teatro Ipanema","distancia":485}]},{"linha":"2018","descricao_ponto":"Avenida Atlantica próximo ao 144","sequencia":"43","latitude":"-22.9826","longitude":"-43.1897","pontos_turisticos":[{"nome":"Forte de Copacabana","distancia":405},{"nome":"Parque Peter Pan","distancia":251},{"nome":"Teatro da Praia","distancia":390}]},{"linha":"2018","descricao_ponto":"Avenida Vinte De Janeiro próximo ao 7311","sequencia":"84","latitude":"-22.8333","longitude":"-43.2388","pontos_turisticos":[]},{"linha":"2018","descricao_ponto":"Avenida Das Americas próximo ao 4002","sequencia":"110","latitude":"-22.9994","longitude":"-43.3623","pontos_turisticos":[{"nome":"Cidade das Artes","distancia":345}]},{"linha":"2018","descricao_ponto":"Estrada Do Galeao próximo ao 54","sequencia":"6","latitude":"-22.8254","longitude":"-43.233","pontos_turisticos":[]},{"linha":"2018","descricao_ponto":"Praca Senador Salgado Filho próximo ao S/n","sequencia":"31","latitude":"-22.9109","longitude":"-43.1672","pontos_turisticos":[]},{"linha":"2018","descricao_ponto":"Avenida Das Americas próximo ao 3973","sequencia":"4","latitude":"-23.0003","longitude":"-43.3549","pontos_turisticos":[]},{"linha":"2018","descricao_ponto":"Auto Estrada Lagoa Barra próximo ao 236","sequencia":"22","latitude":"-22.9981","longitude":"-43.2658","pontos_turisticos":[{"nome":"Praia de São Conrado","distancia":402}]},{"linha":"2018","descricao_ponto":"Avenida Beira Mar próximo ao 693","sequencia":"66","latitude":"-22.9195","longitude":"-43.1748","pontos_turisticos":[{"nome":"Igreja Nossa Senhora da Glória do Outeiro","distancia":211},{"nome":"Monumento aos Pracinhas","distancia":343},{"nome":"Praça Paris","distancia":275},{"nome":"Teatro Glória","distancia":442}]},{"linha":"2018","descricao_ponto":"Praca Marechal Ancora próximo ao 170 (PTMV REMOVER)","sequencia":"70","latitude":"-22.9087","longitude":"-43.1683","pontos_turisticos":[{"nome":"Museu Histórico Nacional","distancia":369}]},{"linha":"2018","descricao_ponto":"Rua Santo Cristo próximo ao 193","sequencia":"16","latitude":"-22.9","longitude":"-43.2023","pontos_turisticos":[]},{"linha":"2018","descricao_ponto":"Avenida Oswaldo Cruz próximo ao 112","sequencia":"46","latitude":"-22.9396","longitude":"-43.1749","pontos_turisticos":[{"nome":"Museu Carmem Miranda","distancia":324}]},{"linha":"2018","descricao_ponto":"Avenida Atlantica próximo ao 1163","sequencia":"50","latitude":"-22.9656","longitude":"-43.1744","pontos_turisticos":[{"nome":"Teatro Princesa Isabel","distancia":288},{"nome":"Teatro Villa Lobos","distancia":486}]},{"linha":"2018","descricao_ponto":"Praia Do Flamengo próximo ao 122","sequencia":"62","latitude":"-22.9294","longitude":"-43.174","pontos_turisticos":[{"nome":"Aterro do Flamengo","distancia":229},{"nome":"Museu da República","distancia":466},{"nome":"Museu de Folclore Edison Carneiro","distancia":446},{"nome":"Oi Futuro","distancia":254},{"nome":"Praia do Flamengo","distancia":277}]},{"linha":"2018","descricao_ponto":"Praia Do Flamengo próximo ao 136","sequencia":"62","latitude":"-22.9294","longitude":"-43.174","pontos_turisticos":[{"nome":"Aterro do Flamengo","distancia":229},{"nome":"Museu da República","distancia":466},{"nome":"Museu de Folclore Edison Carneiro","distancia":446},{"nome":"Oi Futuro","distancia":254},{"nome":"Praia do Flamengo","distancia":277}]},{"linha":"2018","descricao_ponto":"Rua Santo Cristo próximo ao 193","sequencia":"14","latitude":"-22.9","longitude":"-43.2023","pontos_turisticos":[]},{"linha":"2018","descricao_ponto":"Ponto de Frescões Rodoviária Novo Rio","sequencia":"17","latitude":"-22.8988","longitude":"-43.2078","pontos_turisticos":[]},{"linha":"2018","descricao_ponto":"Avenida Atlantica próximo ao 2516","sequencia":"59","latitude":"-22.9716","longitude":"-43.1845","pontos_turisticos":[]},{"linha":"2018","descricao_ponto":"Avenida Rainha Elisabeth próximo ao 378","sequencia":"65","latitude":"-22.9847","longitude":"-43.1902","pontos_turisticos":[{"nome":"Forte de Copacabana","distancia":271},{"nome":"Parque Peter Pan","distancia":255},{"nome":"Teatro da Praia","distancia":343}]},{"linha":"2018","descricao_ponto":"Avenida Niemeyer próximo ao 845","sequencia":"86","latitude":"-22.9964","longitude":"-43.2554","pontos_turisticos":[]},{"linha":"2018","descricao_ponto":"Avenida Armando Lombardi próximo ao 385","sequencia":"17","latitude":"-23.0065","longitude":"-43.3156","pontos_turisticos":[]},{"linha":"2018","descricao_ponto":"Avenida Armando Lombardi próximo ao 165","sequencia":"18","latitude":"-23.0072","longitude":"-43.3085","pontos_turisticos":[]},{"linha":"2018","descricao_ponto":"Rua Engenheiro Amandino Carvalho próximo ao 272","sequencia":"23","latitude":"-22.9975","longitude":"-43.2604","pontos_turisticos":[]},{"linha":"2018","descricao_ponto":"Avenida Prefeito Mendes De Morais próximo ao 550","sequencia":"25","latitude":"-22.9985","longitude":"-43.2566","pontos_turisticos":[]},{"linha":"2018","descricao_ponto":"BRS 3, I - AVENIDA LAURO SODRE","sequencia":"52","latitude":"-22.9564","longitude":"-43.1775","pontos_turisticos":[]},{"linha":"2018","descricao_ponto":"Avenida Armando Lombardi próximo ao 870","sequencia":"96","latitude":"-23.0064","longitude":"-43.3121","pontos_turisticos":[]},{"linha":"2018","descricao_ponto":"Rua General Argolo próximo ao 720","sequencia":"10","latitude":"-22.8993","longitude":"-43.2229","pontos_turisticos":[{"nome":"Centro Luiz Gonzaga de Tradições Nordestinas","distancia":458},{"nome":"Teatro Mário Lago","distancia":210}]},{"linha":"2018","descricao_ponto":"Avenida Das Nacoes Unidas próximo ao 501","sequencia":"50","latitude":"-22.9495","longitude":"-43.1806","pontos_turisticos":[{"nome":"Praia de Botafogo","distancia":488}]},{"linha":"2018","descricao_ponto":"Avenida Das Americas próximo ao 1276","sequencia":"99","latitude":"-23.0015","longitude":"-43.3275","pontos_turisticos":[]},{"linha":"2018","descricao_ponto":"Avenida Vinte De Janeiro próximo ao 123","sequencia":"5","latitude":"-22.822","longitude":"-43.2324","pontos_turisticos":[]},{"linha":"2018","descricao_ponto":"Avenida Atlantica próximo ao 770","sequencia":"57","latitude":"-22.9696","longitude":"-43.1819","pontos_turisticos":[{"nome":"Praia de Copacabana","distancia":307},{"nome":"Sala Baden Powell","distancia":305},{"nome":"Teatro Gláucio Gil","distancia":481}]},{"linha":"2018","descricao_ponto":"Rua Shubert Magalhaes próximo ao 777","sequencia":"15","latitude":"-23.004","longitude":"-43.3231","pontos_turisticos":[]},{"linha":"2018","descricao_ponto":"Avenida Rui Barbosa próximo ao 660","sequencia":"57","latitude":"-22.9424","longitude":"-43.1741","pontos_turisticos":[{"nome":"Museu Carmem Miranda","distancia":206}]},{"linha":"2018","descricao_ponto":"Avenida Ayrton Senna próximo ao 200","sequencia":"111","latitude":"-22.9937","longitude":"-43.3655","pontos_turisticos":[{"nome":"Teatro CEC Antonio Fagundes","distancia":415}]},{"linha":"2018","descricao_ponto":"Avenida Atlantica próximo ao 2334","sequencia":"58","latitude":"-22.9704","longitude":"-43.183","pontos_turisticos":[{"nome":"Praia de Copacabana","distancia":446},{"nome":"Sala Baden Powell","distancia":439}]},{"linha":"2018","descricao_ponto":"Avenida Atlantica próximo ao 262","sequencia":"44","latitude":"-22.9808","longitude":"-43.1895","pontos_turisticos":[{"nome":"Parque Peter Pan","distancia":373},{"nome":"Teatro Brigitte Blair","distancia":369}]},{"linha":"2018","descricao_ponto":"Praia Do Flamengo próximo ao 60","sequencia":"63","latitude":"-22.9269","longitude":"-43.1732","pontos_turisticos":[{"nome":"Aterro do Flamengo","distancia":272},{"nome":"Museu da República","distancia":352},{"nome":"Museu de Folclore Edison Carneiro","distancia":342},{"nome":"Oi Futuro","distancia":475},{"nome":"Praia do Flamengo","distancia":342},{"nome":"Teatro Glória","distancia":440}]},{"linha":"2018","descricao_ponto":"Praia Do Flamengo próximo ao 86","sequencia":"63","latitude":"-22.9269","longitude":"-43.1732","pontos_turisticos":[{"nome":"Aterro do Flamengo","distancia":272},{"nome":"Museu da República","distancia":352},{"nome":"Museu de Folclore Edison Carneiro","distancia":342},{"nome":"Oi Futuro","distancia":475},{"nome":"Praia do Flamengo","distancia":342},{"nome":"Teatro Glória","distancia":440}]},{"linha":"2018","descricao_ponto":"Avenida Armando Lombardi próximo ao 350","sequencia":"95","latitude":"-23.0065","longitude":"-43.3098","pontos_turisticos":[]},{"linha":"2018","descricao_ponto":"Avenida Das Americas próximo ao 1500","sequencia":"100","latitude":"-23.0006","longitude":"-43.3303","pontos_turisticos":[{"nome":"Centro Cultural Anglo Americano (Suassuna)","distancia":420}]},{"linha":"2018","descricao_ponto":"BRS 3, I - APOLLO ONZE","sequencia":"66","latitude":"-22.9862","longitude":"-43.1954","pontos_turisticos":[{"nome":"Casa Laura Alvin","distancia":397},{"nome":"Casa Laura Alvin","distancia":397},{"nome":"Parque Peter Pan","distancia":478},{"nome":"Praia do Arpoador","distancia":402},{"nome":"Teatro da Praia","distancia":355}]},{"linha":"2018","descricao_ponto":"Avenida Das Americas próximo ao 4043","sequencia":"3","latitude":"-23.0002","longitude":"-43.3578","pontos_turisticos":[]},{"linha":"2018","descricao_ponto":"BRS 3 - ASSEMBLÉIA","sequencia":"28","latitude":"-22.9054","longitude":"-43.1776","pontos_turisticos":[{"nome":"Centro Cultural dos Correios","distancia":491},{"nome":"Confeitaria Colombo","distancia":124},{"nome":"Igreja de São Francisco da Penitência","distancia":239},{"nome":"Igreja Nossa Senhora do Carmo da Antiga Sé","distancia":339},{"nome":"Museu do Clube Naval","distancia":325},{"nome":"Museu Nacional de Belas Artes","distancia":419},{"nome":"Paço Imperial","distancia":399},{"nome":"Palácio Tiradentes","distancia":374},{"nome":"Real Gabinete Português de Leitura","distancia":468},{"nome":"Teatro Glauce Rocha","distancia":226},{"nome":"Teatro João Caetano","distancia":493},{"nome":"Teatro Municipal","distancia":461}]},{"linha":"2018","descricao_ponto":"Avenida Lauro Sodre próximo ao 150","sequencia":"51","latitude":"-22.9549","longitude":"-43.1783","pontos_turisticos":[]},{"linha":"2018","descricao_ponto":"Avenida Vieira Souto próximo ao 320","sequencia":"69","latitude":"-22.9865","longitude":"-43.2032","pontos_turisticos":[{"nome":"Casa Laura Alvin","distancia":406},{"nome":"Casa Laura Alvin","distancia":406},{"nome":"Centro Cultural Candido Mendes","distancia":264},{"nome":"Praia de Ipanema","distancia":78},{"nome":"Teatro Ipanema","distancia":210}]},{"linha":"2018","descricao_ponto":"Avenida Delfim Moreira próximo ao 80","sequencia":"74","latitude":"-22.9863","longitude":"-43.217","pontos_turisticos":[{"nome":"Teatro Café Pequeno","distancia":292}]},{"linha":"2018","descricao_ponto":"Auto Estrada Lagoa Barra próximo ao 450","sequencia":"92","latitude":"-22.999","longitude":"-43.2705","pontos_turisticos":[{"nome":"Praia de São Conrado","distancia":223},{"nome":"Praia do Pepino","distancia":225}]},{"linha":"2018","descricao_ponto":"Avenida Das Americas próximo ao 1880","sequencia":"101","latitude":"-23.0003","longitude":"-43.3339","pontos_turisticos":[{"nome":"Centro Cultural Anglo Americano (Suassuna)","distancia":89}]},{"linha":"2018","descricao_ponto":"Avenida Beira Mar próximo ao 36","sequencia":"37","latitude":"-22.9211","longitude":"-43.1737","pontos_turisticos":[{"nome":"Igreja Nossa Senhora da Glória do Outeiro","distancia":170},{"nome":"Praça Paris","distancia":483},{"nome":"Teatro Glória","distancia":232}]},{"linha":"2018","descricao_ponto":"Praia Do Flamengo próximo ao 122","sequencia":"41","latitude":"-22.9293","longitude":"-43.1741","pontos_turisticos":[{"nome":"Aterro do Flamengo","distancia":237},{"nome":"Museu da República","distancia":451},{"nome":"Museu de Folclore Edison Carneiro","distancia":432},{"nome":"Oi Futuro","distancia":247},{"nome":"Praia do Flamengo","distancia":287}]},{"linha":"2018","descricao_ponto":"Praia Do Flamengo próximo ao 136","sequencia":"41","latitude":"-22.9293","longitude":"-43.1741","pontos_turisticos":[{"nome":"Aterro do Flamengo","distancia":237},{"nome":"Museu da República","distancia":451},{"nome":"Museu de Folclore Edison Carneiro","distancia":432},{"nome":"Oi Futuro","distancia":247},{"nome":"Praia do Flamengo","distancia":287}]},{"linha":"2018","descricao_ponto":"Avenida Niemeyer próximo ao 383","sequencia":"28","latitude":"-22.9973","longitude":"-43.2377","pontos_turisticos":[]},{"linha":"2018","descricao_ponto":"Avenida Niemeyer próximo ao 383","sequencia":"28","latitude":"-22.9973","longitude":"-43.2377","pontos_turisticos":[]},{"linha":"2018","descricao_ponto":"Ponto de Frescões Rodoviária Novo Rio","sequencia":"83","latitude":"-22.8988","longitude":"-43.2078","pontos_turisticos":[]},{"linha":"2018","descricao_ponto":"Avenida Das Americas próximo ao 500","sequencia":"97","latitude":"-23.0047","longitude":"-43.3198","pontos_turisticos":[]},{"linha":"2018","descricao_ponto":"Avenida Atlantica próximo ao 1500","sequencia":"54","latitude":"-22.9667","longitude":"-43.1771","pontos_turisticos":[{"nome":"Praia de Copacabana","distancia":294},{"nome":"Sala Baden Powell","distancia":363},{"nome":"Teatro Gláucio Gil","distancia":406},{"nome":"Teatro Princesa Isabel","distancia":500}]},{"linha":"2018","descricao_ponto":"Avenida Das Americas próximo ao 4485","sequencia":"2","latitude":"-23.0002","longitude":"-43.3597","pontos_turisticos":[]},{"linha":"2018","descricao_ponto":"Avenida Armando Lombardi próximo ao 14799","sequencia":"19","latitude":"-23.0073","longitude":"-43.3062","pontos_turisticos":[]},{"linha":"2018","descricao_ponto":"Avenida Das Americas próximo ao 4666","sequencia":"108","latitude":"-22.9997","longitude":"-43.3539","pontos_turisticos":[{"nome":"Teatro dos Grandes Atores","distancia":413}]},{"linha":"2018","descricao_ponto":"Praia Do Flamengo próximo ao 66","sequencia":"39","latitude":"-22.9246","longitude":"-43.1727","pontos_turisticos":[{"nome":"Aterro do Flamengo","distancia":497},{"nome":"Igreja Nossa Senhora da Glória do Outeiro","distancia":453},{"nome":"Museu da República","distancia":409},{"nome":"Museu de Folclore Edison Carneiro","distancia":413},{"nome":"Teatro Glória","distancia":181}]},{"linha":"2018","descricao_ponto":"Avenida Ministro Ivan Lins próximo ao S/n","sequencia":"20","latitude":"-23.0084","longitude":"-43.3036","pontos_turisticos":[]},{"linha":"2018","descricao_ponto":"Praia Do Flamengo próximo ao 6","sequencia":"64","latitude":"-22.925","longitude":"-43.1726","pontos_turisticos":[{"nome":"Aterro do Flamengo","distancia":451},{"nome":"Igreja Nossa Senhora da Glória do Outeiro","distancia":495},{"nome":"Museu da República","distancia":406},{"nome":"Museu de Folclore Edison Carneiro","distancia":407},{"nome":"Teatro Glória","distancia":226}]},{"linha":"2018","descricao_ponto":"Avenida Niemeyer próximo ao 103","sequencia":"78","latitude":"-22.9903","longitude":"-43.2286","pontos_turisticos":[]},{"linha":"2018","descricao_ponto":"Avenida Presidente Wilson próximo ao 113","sequencia":"34","latitude":"-22.9125","longitude":"-43.1743","pontos_turisticos":[{"nome":"Academia Brasileira de Letras","distancia":226},{"nome":"Biblioteca Nacional","distancia":335},{"nome":"Monumento aos Pracinhas","distancia":445},{"nome":"Museu de Arte Moderna","distancia":184},{"nome":"Museu Nacional de Belas Artes","distancia":441},{"nome":"Sala Cecília Meireles","distancia":452},{"nome":"Teatro Dulcina","distancia":346},{"nome":"Teatro Municipal","distancia":406},{"nome":"Teatro Rival Petrobras","distancia":248}]},{"linha":"2018","descricao_ponto":"Avenida Atlantica próximo ao 845","sequencia":"56","latitude":"-22.9688","longitude":"-43.1808","pontos_turisticos":[{"nome":"Praia de Copacabana","distancia":175},{"nome":"Sala Baden Powell","distancia":188},{"nome":"Teatro Gláucio Gil","distancia":379}]},{"linha":"2018","descricao_ponto":"Avenida Vieira Souto próximo ao 180","sequencia":"68","latitude":"-22.9867","longitude":"-43.1997","pontos_turisticos":[{"nome":"Casa Laura Alvin","distancia":47},{"nome":"Casa Laura Alvin","distancia":47},{"nome":"Praia de Ipanema","distancia":365}]},{"linha":"2018","descricao_ponto":"Avenida Vieira Souto próximo ao 594","sequencia":"72","latitude":"-22.9861","longitude":"-43.211","pontos_turisticos":[]},{"linha":"2018","descricao_ponto":"Avenida Niemeyer próximo ao 333","sequencia":"30","latitude":"-22.9948","longitude":"-43.2346","pontos_turisticos":[]},{"linha":"2018","descricao_ponto":"Avenida Niemeyer próximo ao 333","sequencia":"30","latitude":"-22.9948","longitude":"-43.2346","pontos_turisticos":[]},{"linha":"2018","descricao_ponto":"Avenida Atlantica próximo ao 46","sequencia":"45","latitude":"-22.9786","longitude":"-43.1889","pontos_turisticos":[{"nome":"Teatro Brigitte Blair","distancia":256}]},{"linha":"2018","descricao_ponto":"Avenida Beira Mar próximo ao 693","sequencia":"67","latitude":"-22.9156","longitude":"-43.1751","pontos_turisticos":[{"nome":"Monumento aos Pracinhas","distancia":146},{"nome":"Museu de Arte Moderna","distancia":277},{"nome":"Praça Paris","distancia":195},{"nome":"Sala Cecília Meireles","distancia":350}]},{"linha":"2018","descricao_ponto":"Avenida Vinte De Janeiro próximo ao 290","sequencia":"86","latitude":"-22.8161","longitude":"-43.2407","pontos_turisticos":[]},{"linha":"2018","descricao_ponto":"Estrada Do Galeao próximo ao S/n","sequencia":"8","latitude":"-22.8324","longitude":"-43.2427","pontos_turisticos":[]},{"linha":"2018","descricao_ponto":"Rua Santos Lima, próximo a Av. Brasil","sequencia":"12","latitude":"-22.8964","longitude":"-43.2162","pontos_turisticos":[{"nome":"Centro Luiz Gonzaga de Tradições Nordestinas","distancia":325}]},{"linha":"2018","descricao_ponto":"Praia Do Flamengo próximo ao 262","sequencia":"43","latitude":"-22.9338","longitude":"-43.1744","pontos_turisticos":[{"nome":"Oi Futuro","distancia":469}]},{"linha":"2018","descricao_ponto":"Avenida Niemeyer próximo ao 204","sequencia":"31","latitude":"-22.9921","longitude":"-43.2337","pontos_turisticos":[]},{"linha":"2018","descricao_ponto":"Avenida Niemeyer próximo ao 204","sequencia":"31","latitude":"-22.9921","longitude":"-43.2337","pontos_turisticos":[]},{"linha":"2018","descricao_ponto":"Rua Sacadura Cabral, próximo ao Hospital dos Servidores do Estado","sequencia":"77","latitude":"-22.8971","longitude":"-43.1891","pontos_turisticos":[{"nome":"Memorial dos Pretos Novos","distancia":411}]},{"linha":"2018","descricao_ponto":"Avenida Vinte De Janeiro próximo ao 1455","sequencia":"88","latitude":"-22.8146","longitude":"-43.2464","pontos_turisticos":[]},{"linha":"2018","descricao_ponto":"Avenida Das Americas próximo ao 4790","sequencia":"109","latitude":"-22.9995","longitude":"-43.3574","pontos_turisticos":[]},{"linha":"2018","descricao_ponto":"Avenida Augusto Severo próximo ao 1","sequencia":"35","latitude":"-22.9162","longitude":"-43.1763","pontos_turisticos":[{"nome":"Igreja e Convento de Santa Teresa","distancia":415},{"nome":"Monumento aos Pracinhas","distancia":232},{"nome":"Museu de Arte Moderna","distancia":413},{"nome":"Praça Paris","distancia":123},{"nome":"Sala Cecília Meireles","distancia":286}]},{"linha":"2018","descricao_ponto":"Avenida Niemeyer próximo ao 204","sequencia":"80","latitude":"-22.992","longitude":"-43.2336","pontos_turisticos":[]},{"linha":"2018","descricao_ponto":"Avenida Niemeyer próximo ao 204","sequencia":"80","latitude":"-22.992","longitude":"-43.2336","pontos_turisticos":[]},{"linha":"2018","descricao_ponto":"Avenida Venceslau Braz próximo ao 3554","sequencia":"53","latitude":"-22.9528","longitude":"-43.1762","pontos_turisticos":[{"nome":"Teatro do Instituto Benjamin Constant","distancia":434}]},{"linha":"2018","descricao_ponto":"Avenida Das Nacoes Unidas próximo ao 68","sequencia":"56","latitude":"-22.9426","longitude":"-43.1768","pontos_turisticos":[{"nome":"Museu Carmem Miranda","distancia":469},{"nome":"Praia de Botafogo","distancia":500}]},{"linha":"2018","descricao_ponto":"Praia Do Flamengo próximo ao 312","sequencia":"44","latitude":"-22.9355","longitude":"-43.1742","pontos_turisticos":[]},{"linha":"2018","descricao_ponto":"Praia Do Flamengo próximo ao 306","sequencia":"44","latitude":"-22.9355","longitude":"-43.1742","pontos_turisticos":[]},{"linha":"2018","descricao_ponto":"Avenida Niemeyer próximo ao 383","sequencia":"83","latitude":"-22.9973","longitude":"-43.2378","pontos_turisticos":[]},{"linha":"2018","descricao_ponto":"Avenida Niemeyer próximo ao 383","sequencia":"83","latitude":"-22.9973","longitude":"-43.2378","pontos_turisticos":[]},{"linha":"2018","descricao_ponto":"Auto Estrada Lagoa Barra próximo ao 1873","sequencia":"21","latitude":"-22.9991","longitude":"-43.2691","pontos_turisticos":[{"nome":"Praia de São Conrado","distancia":141},{"nome":"Praia do Pepino","distancia":295}]},{"linha":"2018","descricao_ponto":"BRS 1, 3 - JOSÉ LINHARES","sequencia":"35","latitude":"-22.9868","longitude":"-43.2204","pontos_turisticos":[{"nome":"Praia do Leblon","distancia":164},{"nome":"Teatro Café Pequeno","distancia":417}]},{"linha":"2018","descricao_ponto":"Avenida Niemeyer próximo ao 1130","sequencia":"32","latitude":"-22.991","longitude":"-43.2327","pontos_turisticos":[]},{"linha":"2018","descricao_ponto":"Praia Do Flamengo próximo ao 54","sequencia":"65","latitude":"-22.9227","longitude":"-43.1723","pontos_turisticos":[{"nome":"Igreja Nossa Senhora da Glória do Outeiro","distancia":347},{"nome":"Teatro Glória","distancia":51}]},{"linha":"2018","descricao_ponto":"Avenida Beira Mar próximo ao 191","sequencia":"65","latitude":"-22.9227","longitude":"-43.1723","pontos_turisticos":[{"nome":"Igreja Nossa Senhora da Glória do Outeiro","distancia":347},{"nome":"Teatro Glória","distancia":51}]},{"linha":"2018","descricao_ponto":"Avenida Venezuela próximo ao 189","sequencia":"23","latitude":"-22.8952","longitude":"-43.188","pontos_turisticos":[]},{"linha":"2018","descricao_ponto":"Avenida Presidente Wilson próximo ao 210","sequencia":"33","latitude":"-22.9105","longitude":"-43.1725","pontos_turisticos":[{"nome":"Academia Brasileira de Letras","distancia":64},{"nome":"Biblioteca Nacional","distancia":337},{"nome":"Museu de Arte Moderna","distancia":376},{"nome":"Museu do Clube Naval","distancia":494},{"nome":"Museu Nacional de Belas Artes","distancia":409},{"nome":"Teatro Dulcina","distancia":467},{"nome":"Teatro Municipal","distancia":417},{"nome":"Teatro Rival Petrobras","distancia":393}]},{"linha":"2018","descricao_ponto":"Avenida Atlantica próximo ao 1812","sequencia":"53","latitude":"-22.9657","longitude":"-43.175","pontos_turisticos":[{"nome":"Teatro Princesa Isabel","distancia":307},{"nome":"Teatro Villa Lobos","distancia":489}]},{"linha":"2018","descricao_ponto":"Avenida Atlantica próximo ao 827","sequencia":"55","latitude":"-22.9674","longitude":"-43.1785","pontos_turisticos":[{"nome":"Praia de Copacabana","distancia":146},{"nome":"Sala Baden Powell","distancia":219},{"nome":"Teatro Gláucio Gil","distancia":325}]},{"linha":"2018","descricao_ponto":"Avenida Vieira Souto próximo ao 712","sequencia":"73","latitude":"-22.986","longitude":"-43.2146","pontos_turisticos":[{"nome":"Teatro Café Pequeno","distancia":418}]},{"linha":"2018","descricao_ponto":"Terminal Alvorada - Plataforma 3","sequencia":"115","latitude":"-23.0013","longitude":"-43.3657","pontos_turisticos":[{"nome":"Cidade das Artes","distancia":299}]},{"linha":"2018","descricao_ponto":"Terminal Alvorada - Plataforma 1","sequencia":"115","latitude":"-23.0013","longitude":"-43.3657","pontos_turisticos":[{"nome":"Cidade das Artes","distancia":299}]},{"linha":"2018","descricao_ponto":"Terminal Alvorada - Plataforma 2","sequencia":"115","latitude":"-23.0013","longitude":"-43.3657","pontos_turisticos":[{"nome":"Cidade das Artes","distancia":299}]},{"linha":"2018","descricao_ponto":"Avenida Das Americas próximo ao 3120","sequencia":"104","latitude":"-22.9998","longitude":"-43.344","pontos_turisticos":[]},{"linha":"2018","descricao_ponto":"Avenida Das Americas próximo ao 4200","sequencia":"107","latitude":"-22.9997","longitude":"-43.3517","pontos_turisticos":[{"nome":"Teatro dos Grandes Atores","distancia":198}]},{"linha":"2018","descricao_ponto":"Avenida Vinte De Janeiro próximo ao 1455","sequencia":"2","latitude":"-22.8146","longitude":"-43.2464","pontos_turisticos":[]},{"linha":"2018","descricao_ponto":"Avenida Oswaldo Cruz próximo ao 112","sequencia":"47","latitude":"-22.9406","longitude":"-43.176","pontos_turisticos":[{"nome":"Museu Carmem Miranda","distancia":378}]},{"linha":"2018","descricao_ponto":"Avenida Atlantica próximo ao 3772","sequencia":"62","latitude":"-22.9795","longitude":"-43.1894","pontos_turisticos":[{"nome":"Parque Peter Pan","distancia":492},{"nome":"Teatro Brigitte Blair","distancia":262}]},{"linha":"2018","descricao_ponto":"Avenida Atlantica próximo ao 3992","sequencia":"63","latitude":"-22.982","longitude":"-43.1899","pontos_turisticos":[{"nome":"Forte de Copacabana","distancia":474},{"nome":"Parque Peter Pan","distancia":258},{"nome":"Teatro Brigitte Blair","distancia":476},{"nome":"Teatro da Praia","distancia":396}]},{"linha":"2018","descricao_ponto":"Avenida Das Americas próximo ao 1917","sequencia":"10","latitude":"-23.0006","longitude":"-43.3397","pontos_turisticos":[]},{"linha":"2018","descricao_ponto":"Avenida Niemeyer próximo ao 37","sequencia":"33","latitude":"-22.99","longitude":"-43.2277","pontos_turisticos":[]},{"linha":"2018","descricao_ponto":"Praia Do Flamengo próximo ao 312","sequencia":"60","latitude":"-22.9355","longitude":"-43.174","pontos_turisticos":[]},{"linha":"2018","descricao_ponto":"Praia Do Flamengo próximo ao 306","sequencia":"60","latitude":"-22.9355","longitude":"-43.174","pontos_turisticos":[]},{"linha":"2018","descricao_ponto":"Avenida Beira Mar próximo ao 321","sequencia":"68","latitude":"-22.9122","longitude":"-43.1731","pontos_turisticos":[{"nome":"Academia Brasileira de Letras","distancia":148},{"nome":"Biblioteca Nacional","distancia":379},{"nome":"Monumento aos Pracinhas","distancia":487},{"nome":"Museu de Arte Moderna","distancia":180},{"nome":"Museu Nacional de Belas Artes","distancia":478},{"nome":"Teatro Dulcina","distancia":438},{"nome":"Teatro Municipal","distancia":459},{"nome":"Teatro Rival Petrobras","distancia":343}]},{"linha":"2018","descricao_ponto":"Avenida Niemeyer próximo ao 2555","sequencia":"85","latitude":"-22.9989","longitude":"-43.2514","pontos_turisticos":[]},{"linha":"2018","descricao_ponto":"Avenida Niemeyer próximo ao 550","sequencia":"85","latitude":"-22.9989","longitude":"-43.2514","pontos_turisticos":[]},{"linha":"2018","descricao_ponto":"Avenida Niemeyer próximo ao 705","sequencia":"27","latitude":"-23","longitude":"-43.2436","pontos_turisticos":[]},{"linha":"2018","descricao_ponto":"Avenida Niemeyer próximo ao 845","sequencia":"27","latitude":"-23","longitude":"-43.2436","pontos_turisticos":[]},{"linha":"2018","descricao_ponto":"BRS 1,2,3,I - FARANI","sequencia":"55","latitude":"-22.9433","longitude":"-43.1809","pontos_turisticos":[{"nome":"Praia de Botafogo","distancia":202}]},{"linha":"2018","descricao_ponto":"Avenida Armando Lombardi próximo ao 800","sequencia":"94","latitude":"-23.0069","longitude":"-43.3074","pontos_turisticos":[]},{"linha":"2018","descricao_ponto":"Avenida Das Americas próximo ao 3434","sequencia":"105","latitude":"-22.9998","longitude":"-43.3463","pontos_turisticos":[{"nome":"Teatro dos Grandes Atores","distancia":380}]},{"linha":"2018","descricao_ponto":"Avenida Ayrton Senna próximo ao 380","sequencia":"112","latitude":"-22.9916","longitude":"-43.3655","pontos_turisticos":[{"nome":"Teatro CEC Antonio Fagundes","distancia":189}]},{"linha":"2018","descricao_ponto":"Estrada Do Galeao próximo ao S/n","sequencia":"7","latitude":"-22.833","longitude":"-43.2391","pontos_turisticos":[]},{"linha":"2018","descricao_ponto":"Rua Professor Pereira Reis","sequencia":"15","latitude":"-22.8979","longitude":"-43.2022","pontos_turisticos":[]},{"linha":"2018","descricao_ponto":"Praia Do Flamengo próximo ao 544","sequencia":"45","latitude":"-22.9364","longitude":"-43.174","pontos_turisticos":[]},{"linha":"2018","descricao_ponto":"Avenida Das Americas próximo ao 1981","sequencia":"11","latitude":"-23.0008","longitude":"-43.3357","pontos_turisticos":[{"nome":"Centro Cultural Anglo Americano (Suassuna)","distancia":136}]},{"linha":"2018","descricao_ponto":"Avenida Das Americas próximo ao 1976","sequencia":"102","latitude":"-23","longitude":"-43.3386","pontos_turisticos":[{"nome":"Centro Cultural Anglo Americano (Suassuna)","distancia":445}]},{"linha":"2018","descricao_ponto":"Avenida Vinte De Janeiro próximo ao 323","sequencia":"3","latitude":"-22.8162","longitude":"-43.241","pontos_turisticos":[]},{"linha":"2018","descricao_ponto":"Avenida Vinte De Janeiro próximo ao 323","sequencia":"4","latitude":"-22.8188","longitude":"-43.2371","pontos_turisticos":[]},{"linha":"2018","descricao_ponto":"Terminal Alvorada - Plataforma 3","sequencia":"1","latitude":"-23.0013","longitude":"-43.3657","pontos_turisticos":[{"nome":"Cidade das Artes","distancia":299}]},{"linha":"2018","descricao_ponto":"Terminal Alvorada - Plataforma 1","sequencia":"1","latitude":"-23.0013","longitude":"-43.3657","pontos_turisticos":[{"nome":"Cidade das Artes","distancia":299}]},{"linha":"2018","descricao_ponto":"Terminal Alvorada - Plataforma 2","sequencia":"1","latitude":"-23.0013","longitude":"-43.3657","pontos_turisticos":[{"nome":"Cidade das Artes","distancia":299}]},{"linha":"2018","descricao_ponto":"Avenida Das Americas próximo ao 1245","sequencia":"14","latitude":"-23.0021","longitude":"-43.3278","pontos_turisticos":[]},{"linha":"2018","descricao_ponto":"Avenida Atlantica próximo ao 112","sequencia":"46","latitude":"-22.9759","longitude":"-43.1877","pontos_turisticos":[{"nome":"Teatro Brigitte Blair","distancia":431}]},{"linha":"2018","descricao_ponto":"Avenida Rui Barbosa próximo ao 460","sequencia":"58","latitude":"-22.9412","longitude":"-43.1724","pontos_turisticos":[{"nome":"Museu Carmem Miranda","distancia":21}]},{"linha":"2018","descricao_ponto":"Avenida Venezuela próximo ao 153","sequencia":"24","latitude":"-22.8958","longitude":"-43.1863","pontos_turisticos":[{"nome":"Museu de Arte do Rio","distancia":469}]},{"linha":"2018","descricao_ponto":"Av. Niemeyer próximo ao 825","sequencia":"88","latitude":"-22.9931","longitude":"-43.2533","pontos_turisticos":[]},{"linha":"2018","descricao_ponto":"Avenida Ministro Ivan Lins próximo ao 179","sequencia":"93","latitude":"-23.0074","longitude":"-43.3042","pontos_turisticos":[]},{"linha":"2018","descricao_ponto":"Praca Senador Salgado Filho próximo ao S/n","sequencia":"69","latitude":"-22.9109","longitude":"-43.1672","pontos_turisticos":[]},{"linha":"2018","descricao_ponto":"Avenida Vieira Souto próximo ao 208","sequencia":"70","latitude":"-22.9863","longitude":"-43.2065","pontos_turisticos":[{"nome":"Centro Cultural Candido Mendes","distancia":218},{"nome":"Praia de Ipanema","distancia":349},{"nome":"Teatro Ipanema","distancia":207}]},{"linha":"2018","descricao_ponto":"Avenida Niemeyer próximo ao 13030","sequencia":"87","latitude":"-22.9938","longitude":"-43.2531","pontos_turisticos":[]},{"linha":"2018","descricao_ponto":"Avenida Niemeyer próximo ao 2555","sequencia":"26","latitude":"-22.9989","longitude":"-43.2512","pontos_turisticos":[]},{"linha":"2018","descricao_ponto":"Avenida Niemeyer próximo ao 550","sequencia":"26","latitude":"-22.9989","longitude":"-43.2512","pontos_turisticos":[]},{"linha":"2018","descricao_ponto":"Avenida Das Americas próximo ao 3665","sequencia":"5","latitude":"-23.0003","longitude":"-43.3525","pontos_turisticos":[{"nome":"Teatro dos Grandes Atores","distancia":262}]},{"linha":"2018","descricao_ponto":"Avenida Das Americas próximo ao 720","sequencia":"113","latitude":"-22.9914","longitude":"-43.3662","pontos_turisticos":[{"nome":"Teatro CEC Antonio Fagundes","distancia":153}]},{"linha":"2018","descricao_ponto":"Campo Sao De Cristovao próximo ao 290","sequencia":"9","latitude":"-22.8973","longitude":"-43.222","pontos_turisticos":[{"nome":"Centro Luiz Gonzaga de Tradições Nordestinas","distancia":278},{"nome":"Teatro Mário Lago","distancia":239}]},{"linha":"2018","descricao_ponto":"Avenida Franklin Roosevelt próximo ao 126","sequencia":"32","latitude":"-22.9095","longitude":"-43.1703","pontos_turisticos":[{"nome":"Academia Brasileira de Letras","distancia":314},{"nome":"Museu Histórico Nacional","distancia":447}]},{"linha":"2018","descricao_ponto":"Avenida Franklin Roosevelt próximo ao 115","sequencia":"32","latitude":"-22.9095","longitude":"-43.1703","pontos_turisticos":[{"nome":"Academia Brasileira de Letras","distancia":314},{"nome":"Museu Histórico Nacional","distancia":447}]},{"linha":"2018","descricao_ponto":"Praia Do Flamengo próximo ao 54","sequencia":"38","latitude":"-22.9227","longitude":"-43.1724","pontos_turisticos":[{"nome":"Igreja Nossa Senhora da Glória do Outeiro","distancia":338},{"nome":"Teatro Glória","distancia":43}]},{"linha":"2018","descricao_ponto":"Avenida Beira Mar próximo ao 191","sequencia":"38","latitude":"-22.9227","longitude":"-43.1724","pontos_turisticos":[{"nome":"Igreja Nossa Senhora da Glória do Outeiro","distancia":338},{"nome":"Teatro Glória","distancia":43}]},{"linha":"2018","descricao_ponto":"Avenida Delfim Moreira próximo ao 514","sequencia":"75","latitude":"-22.9867","longitude":"-43.2207","pontos_turisticos":[{"nome":"Praia do Leblon","distancia":140},{"nome":"Teatro Café Pequeno","distancia":428}]},{"linha":"2018","descricao_ponto":"Avenida Das Americas próximo ao 2151","sequencia":"12","latitude":"-23.001","longitude":"-43.3319","pontos_turisticos":[{"nome":"Centro Cultural Anglo Americano (Suassuna)","distancia":254}]},{"linha":"2018","descricao_ponto":"BRS 1, 3 - GAL. VENÂNCIO FLORES","sequencia":"34","latitude":"-22.9873","longitude":"-43.2239","pontos_turisticos":[{"nome":"Praia do Leblon","distancia":203}]},{"linha":"2018","descricao_ponto":"Avenida Atlantica próximo ao 7","sequencia":"49","latitude":"-22.9676","longitude":"-43.1783","pontos_turisticos":[{"nome":"Praia de Copacabana","distancia":138},{"nome":"Sala Baden Powell","distancia":243},{"nome":"Teatro Gláucio Gil","distancia":355}]},{"linha":"2018","descricao_ponto":"Avenida Das Americas próximo ao 1114","sequencia":"98","latitude":"-23.0027","longitude":"-43.3246","pontos_turisticos":[]},{"linha":"2018","descricao_ponto":"Praia Do Flamengo próximo ao 164","sequencia":"42","latitude":"-22.9318","longitude":"-43.1744","pontos_turisticos":[{"nome":"Aterro do Flamengo","distancia":410},{"nome":"Oi Futuro","distancia":286},{"nome":"Praia do Flamengo","distancia":413}]},{"linha":"2018","descricao_ponto":"Avenida Ayrton Senna próximo ao 250","sequencia":"114","latitude":"-22.9945","longitude":"-43.3662","pontos_turisticos":[{"nome":"Cidade das Artes","distancia":462},{"nome":"Teatro CEC Antonio Fagundes","distancia":498}]},{"linha":"2018","descricao_ponto":"Avenida Beira Mar próximo ao 321","sequencia":"30","latitude":"-22.9122","longitude":"-43.1731","pontos_turisticos":[{"nome":"Academia Brasileira de Letras","distancia":148},{"nome":"Biblioteca Nacional","distancia":379},{"nome":"Monumento aos Pracinhas","distancia":487},{"nome":"Museu de Arte Moderna","distancia":180},{"nome":"Museu Nacional de Belas Artes","distancia":478},{"nome":"Teatro Dulcina","distancia":438},{"nome":"Teatro Municipal","distancia":459},{"nome":"Teatro Rival Petrobras","distancia":343}]},{"linha":"2018","descricao_ponto":"Avenida Das Americas próximo ao 1501","sequencia":"13","latitude":"-23.0014","longitude":"-43.3294","pontos_turisticos":[]},{"linha":"2018","descricao_ponto":"Avenida Rui Barbosa próximo ao 266","sequencia":"59","latitude":"-22.9396","longitude":"-43.1711","pontos_turisticos":[{"nome":"Museu Carmem Miranda","distancia":240}]},{"linha":"2018","descricao_ponto":"Avenida Vinte De Janeiro próximo ao S/n","sequencia":"87","latitude":"-22.8111","longitude":"-43.2516","pontos_turisticos":[]},{"linha":"2018","descricao_ponto":"Praia Do Flamengo próximo ao 86","sequencia":"40","latitude":"-22.9268","longitude":"-43.1734","pontos_turisticos":[{"nome":"Aterro do Flamengo","distancia":293},{"nome":"Museu da República","distancia":329},{"nome":"Museu de Folclore Edison Carneiro","distancia":319},{"nome":"Oi Futuro","distancia":469},{"nome":"Praia do Flamengo","distancia":363},{"nome":"Teatro Glória","distancia":432}]},{"linha":"2018","descricao_ponto":"Avenida Das Americas próximo ao 3979","sequencia":"7","latitude":"-23.0004","longitude":"-43.3475","pontos_turisticos":[{"nome":"Teatro dos Grandes Atores","distancia":250}]},{"linha":"2018","descricao_ponto":"BRS 1,2,3,I - VISCONDE DE OURO PRETO","sequencia":"54","latitude":"-22.9472","longitude":"-43.1822","pontos_turisticos":[{"nome":"Praia de Botafogo","distancia":270},{"nome":"Teatro Bibi Ferreira","distancia":344}]},{"linha":"2018","descricao_ponto":"BRS 2 - VISCONDE DE OURO PRETO","sequencia":"54","latitude":"-22.9472","longitude":"-43.1822","pontos_turisticos":[{"nome":"Praia de Botafogo","distancia":270},{"nome":"Teatro Bibi Ferreira","distancia":344}]},{"linha":"2018","descricao_ponto":"Rua Professor Pereira Reis","sequencia":"82","latitude":"-22.8979","longitude":"-43.2022","pontos_turisticos":[]},{"linha":"2018","descricao_ponto":"Avenida Augusto Severo próximo ao 178","sequencia":"36","latitude":"-22.9181","longitude":"-43.1766","pontos_turisticos":[{"nome":"Igreja e Convento de Santa Teresa","distancia":467},{"nome":"Igreja Nossa Senhora da Glória do Outeiro","distancia":381},{"nome":"Monumento aos Pracinhas","distancia":316},{"nome":"Praça Paris","distancia":125},{"nome":"Sala Cecília Meireles","distancia":449}]},{"linha":"2018","descricao_ponto":"Avenida Augusto Severo próximo ao 306","sequencia":"36","latitude":"-22.9181","longitude":"-43.1766","pontos_turisticos":[{"nome":"Igreja e Convento de Santa Teresa","distancia":467},{"nome":"Igreja Nossa Senhora da Glória do Outeiro","distancia":381},{"nome":"Monumento aos Pracinhas","distancia":316},{"nome":"Praça Paris","distancia":125},{"nome":"Sala Cecília Meireles","distancia":449}]},{"linha":"2018","descricao_ponto":"Avenida Rainha Elisabeth próximo ao 727","sequencia":"67","latitude":"-22.9868","longitude":"-43.1976","pontos_turisticos":[{"nome":"Casa Laura Alvin","distancia":169},{"nome":"Casa Laura Alvin","distancia":169}]},{"linha":"2018","descricao_ponto":"Avenida Niemeyer próximo ao 333","sequencia":"81","latitude":"-22.9948","longitude":"-43.2346","pontos_turisticos":[]},{"linha":"2018","descricao_ponto":"Avenida Niemeyer próximo ao 333","sequencia":"81","latitude":"-22.9948","longitude":"-43.2346","pontos_turisticos":[]},{"linha":"2018","descricao_ponto":"Estrada Da Gavea próximo ao 710","sequencia":"90","latitude":"-22.9947","longitude":"-43.2576","pontos_turisticos":[]},{"linha":"2018","descricao_ponto":"Avenida Das Americas próximo ao 297","sequencia":"16","latitude":"-23.0055","longitude":"-43.3186","pontos_turisticos":[]},{"linha":"2018","descricao_ponto":"Rua Engenheiro Amandino Carvalho próximo ao 171","sequencia":"24","latitude":"-22.9985","longitude":"-43.2595","pontos_turisticos":[]},{"linha":"2018","descricao_ponto":"Avenida Delfim Moreira próximo ao 992","sequencia":"76","latitude":"-22.9876","longitude":"-43.2255","pontos_turisticos":[{"nome":"Praia do Leblon","distancia":369}]},{"linha":"2018","descricao_ponto":"Avenida Atlantica próximo ao 122","sequencia":"42","latitude":"-22.9854","longitude":"-43.189","pontos_turisticos":[{"nome":"Forte de Copacabana","distancia":127},{"nome":"Parque Peter Pan","distancia":399},{"nome":"Teatro da Praia","distancia":486}]},{"linha":"2018","descricao_ponto":"Avenida Atlantica próximo ao 402","sequencia":"47","latitude":"-22.9719","longitude":"-43.1845","pontos_turisticos":[]},{"linha":"2018","descricao_ponto":"Avenida Das Americas próximo ao 2300","sequencia":"103","latitude":"-22.9999","longitude":"-43.3408","pontos_turisticos":[]},{"linha":"2018","descricao_ponto":"Avenida Das Nacoes Unidas próximo ao 530","sequencia":"48","latitude":"-22.9433","longitude":"-43.1805","pontos_turisticos":[{"nome":"Praia de Botafogo","distancia":205}]},{"linha":"2018","descricao_ponto":"Avenida Delfim Moreira próximo ao 1250","sequencia":"77","latitude":"-22.9883","longitude":"-43.2274","pontos_turisticos":[]},{"linha":"2018","descricao_ponto":"Estrada Da Gavea próximo ao 2364","sequencia":"91","latitude":"-22.9975","longitude":"-43.2646","pontos_turisticos":[]},{"linha":"2018","descricao_ponto":"Avenida Das Americas próximo ao 3255","sequencia":"8","latitude":"-23.0004","longitude":"-43.3465","pontos_turisticos":[{"nome":"Teatro dos Grandes Atores","distancia":352}]},{"linha":"2018","descricao_ponto":"Avenida Das Americas próximo ao 2250","sequencia":"9","latitude":"-23.0005","longitude":"-43.3428","pontos_turisticos":[]},{"linha":"2018","descricao_ponto":"Avenida Vinte De Janeiro próximo ao S/n","sequencia":"1","latitude":"-22.8111","longitude":"-43.2516","pontos_turisticos":[]},{"linha":"2018","descricao_ponto":"Avenida Das Nacoes Unidas próximo ao 402","sequencia":"49","latitude":"-22.9457","longitude":"-43.1818","pontos_turisticos":[{"nome":"Praia de Botafogo","distancia":118},{"nome":"Teatro Bibi Ferreira","distancia":364}]},{"linha":"2018","descricao_ponto":"Avenida Niemeyer próximo ao 103","sequencia":"79","latitude":"-22.9909","longitude":"-43.2324","pontos_turisticos":[]},{"linha":"2018","descricao_ponto":"Avenida Das Americas próximo ao 3307","sequencia":"6","latitude":"-23.0004","longitude":"-43.3502","pontos_turisticos":[{"nome":"Teatro dos Grandes Atores","distancia":27}]},{"linha":"2018","descricao_ponto":"Avenida Vinte De Janeiro próximo ao 290","sequencia":"85","latitude":"-22.8186","longitude":"-43.237","pontos_turisticos":[]}]