[{"linha":"209","descricao_ponto":"Rua Ricardo Machado próximo ao 912","sequencia":"13","latitude":"-22.8893","longitude":"-43.2319","pontos_turisticos":[{"nome":"Centro Luiz Gonzaga de Tradições Nordestinas","distancia":1534},{"nome":"Jardim Zoológico (Riozoo)","distancia":1708},{"nome":"Quinta da Boa Vista/Museu Nacional","distancia":1933},{"nome":"Teatro Mário Lago","distancia":1577}]},{"linha":"209","descricao_ponto":"Rua Carlos Seidl próximo ao 935","sequencia":"24","latitude":"-22.8795","longitude":"-43.2247","pontos_turisticos":[]},{"linha":"209","descricao_ponto":"Rua Ricardo Machado próximo ao 643","sequencia":"12","latitude":"-22.8898","longitude":"-43.2294","pontos_turisticos":[{"nome":"Centro Luiz Gonzaga de Tradições Nordestinas","distancia":1292},{"nome":"Jardim Zoológico (Riozoo)","distancia":1624},{"nome":"Quinta da Boa Vista/Museu Nacional","distancia":1800},{"nome":"Teatro Mário Lago","distancia":1361}]},{"linha":"209","descricao_ponto":"Avenida Brasil próximo ao 1940","sequencia":"16","latitude":"-22.8853","longitude":"-43.2265","pontos_turisticos":[{"nome":"Centro Luiz Gonzaga de Tradições Nordestinas","distancia":1475},{"nome":"Teatro Mário Lago","distancia":1648}]},{"linha":"209","descricao_ponto":"Avenida Francisco Bicalho próximo ao 344","sequencia":"17","latitude":"-22.9081","longitude":"-43.2099","pontos_turisticos":[{"nome":"Centro Luiz Gonzaga de Tradições Nordestinas","distancia":1585},{"nome":"Jardim Zoológico (Riozoo)","distancia":1981},{"nome":"Quinta da Boa Vista/Museu Nacional","distancia":1563},{"nome":"Sambódromo","distancia":1389},{"nome":"Teatro Mário Lago","distancia":1498}]},{"linha":"209","descricao_ponto":"Campo Sao De Cristovao próximo ao 310","sequencia":"7","latitude":"-22.896","longitude":"-43.219","pontos_turisticos":[{"nome":"Centro Luiz Gonzaga de Tradições Nordestinas","distancia":97},{"nome":"Jardim Zoológico (Riozoo)","distancia":1372},{"nome":"Quinta da Boa Vista/Museu Nacional","distancia":1211},{"nome":"Teatro Mário Lago","distancia":401}]},{"linha":"209","descricao_ponto":"Avenida Brasil próximo ao 2482","sequencia":"1","latitude":"-22.8854","longitude":"-43.2289","pontos_turisticos":[{"nome":"Centro Luiz Gonzaga de Tradições Nordestinas","distancia":1603},{"nome":"Teatro Mário Lago","distancia":1739}]},{"linha":"209","descricao_ponto":"Rua Ricardo Machado próximo ao 643","sequencia":"11","latitude":"-22.8898","longitude":"-43.2293","pontos_turisticos":[{"nome":"Centro Luiz Gonzaga de Tradições Nordestinas","distancia":1284},{"nome":"Jardim Zoológico (Riozoo)","distancia":1623},{"nome":"Quinta da Boa Vista/Museu Nacional","distancia":1797},{"nome":"Teatro Mário Lago","distancia":1355}]},{"linha":"209","descricao_ponto":"BRS 1, 4 - REVERENDO ÁLVARO REIS","sequencia":"21","latitude":"-22.913","longitude":"-43.2026","pontos_turisticos":[{"nome":"Campo de Santana","distancia":1622},{"nome":"Museu da Chácara do Céu","distancia":1952},{"nome":"Sambódromo","distancia":614}]},{"linha":"209","descricao_ponto":"PONTO FINAL - TRAVESSA GUEDES","sequencia":"1","latitude":"-22.913","longitude":"-43.2072","pontos_turisticos":[{"nome":"Quinta da Boa Vista/Museu Nacional","distancia":1997},{"nome":"Sambódromo","distancia":1075},{"nome":"Teatro Ziembinski","distancia":1927}]},{"linha":"209","descricao_ponto":"Campo Sao De Cristovao próximo ao 290","sequencia":"8","latitude":"-22.8973","longitude":"-43.222","pontos_turisticos":[{"nome":"Centro Luiz Gonzaga de Tradições Nordestinas","distancia":278},{"nome":"Jardim Zoológico (Riozoo)","distancia":1054},{"nome":"Quinta da Boa Vista/Museu Nacional","distancia":952},{"nome":"Teatro Mário Lago","distancia":239},{"nome":"Teatro Odylo Costa Filho","distancia":1986}]},{"linha":"209","descricao_ponto":"Avenida Rio De Janeiro próximo ao","sequencia":"18","latitude":"-22.8944","longitude":"-43.2139","pontos_turisticos":[{"nome":"Centro Luiz Gonzaga de Tradições Nordestinas","distancia":618},{"nome":"Cidade do Samba","distancia":1730},{"nome":"Jardim Zoológico (Riozoo)","distancia":1890},{"nome":"Quinta da Boa Vista/Museu Nacional","distancia":1665},{"nome":"Teatro Mário Lago","distancia":889}]},{"linha":"209","descricao_ponto":"Avenida Francisco Bicalho próximo ao 10 (Pista Central)","sequencia":"2","latitude":"-22.9073","longitude":"-43.2095","pontos_turisticos":[{"nome":"Centro Luiz Gonzaga de Tradições Nordestinas","distancia":1542},{"nome":"Cidade do Samba","distancia":1927},{"nome":"Quinta da Boa Vista/Museu Nacional","distancia":1589},{"nome":"Sambódromo","distancia":1377},{"nome":"Teatro Mário Lago","distancia":1473}]},{"linha":"209","descricao_ponto":"Rua Escobar próximo ao 112","sequencia":"6","latitude":"-22.8985","longitude":"-43.2172","pontos_turisticos":[{"nome":"Centro Luiz Gonzaga de Tradições Nordestinas","distancia":289},{"nome":"Jardim Zoológico (Riozoo)","distancia":1359},{"nome":"Quinta da Boa Vista/Museu Nacional","distancia":1102},{"nome":"Teatro Mário Lago","distancia":382}]},{"linha":"209","descricao_ponto":"Rua General Argolo próximo ao 720","sequencia":"9","latitude":"-22.8993","longitude":"-43.2229","pontos_turisticos":[{"nome":"Centro Luiz Gonzaga de Tradições Nordestinas","distancia":458},{"nome":"Estádio do Maracanã","distancia":1797},{"nome":"Jardim Zoológico (Riozoo)","distancia":830},{"nome":"Quinta da Boa Vista/Museu Nacional","distancia":712},{"nome":"Teatro Mário Lago","distancia":210},{"nome":"Teatro Noel Rosa","distancia":1972},{"nome":"Teatro Odylo Costa Filho","distancia":1761}]},{"linha":"209","descricao_ponto":"Rua Sao Luiz Gonzaga próximo ao 118","sequencia":"10","latitude":"-22.9","longitude":"-43.2237","pontos_turisticos":[{"nome":"Centro Luiz Gonzaga de Tradições Nordestinas","distancia":570},{"nome":"Estádio do Maracanã","distancia":1690},{"nome":"Jardim Zoológico (Riozoo)","distancia":717},{"nome":"Quinta da Boa Vista/Museu Nacional","distancia":617},{"nome":"Teatro Mário Lago","distancia":305},{"nome":"Teatro Noel Rosa","distancia":1859},{"nome":"Teatro Odylo Costa Filho","distancia":1648}]},{"linha":"209","descricao_ponto":"Rua Carmo Neto próximo ao 174","sequencia":"19","latitude":"-22.9095","longitude":"-43.2002","pontos_turisticos":[{"nome":"Campo de Santana","distancia":1256},{"nome":"Cidade do Samba","distancia":1717},{"nome":"Memorial dos Pretos Novos","distancia":1667},{"nome":"Museu da Chácara do Céu","distancia":1862},{"nome":"Real Gabinete Português de Leitura","distancia":1900},{"nome":"Sambódromo","distancia":408},{"nome":"Teatro Carlos Gomes","distancia":1829},{"nome":"Teatro João Caetano","distancia":1867}]},{"linha":"209","descricao_ponto":"Avenida Pedro Ii próximo ao 235","sequencia":"12","latitude":"-22.904","longitude":"-43.2162","pontos_turisticos":[{"nome":"Centro Luiz Gonzaga de Tradições Nordestinas","distancia":862},{"nome":"Estádio do Maracanã","distancia":1860},{"nome":"Jardim Zoológico (Riozoo)","distancia":1293},{"nome":"Quinta da Boa Vista/Museu Nacional","distancia":904},{"nome":"Teatro Mário Lago","distancia":718}]},{"linha":"209","descricao_ponto":"Avenida Brasil próximo ao 2231","sequencia":"2","latitude":"-22.8872","longitude":"-43.2308","pontos_turisticos":[{"nome":"Centro Luiz Gonzaga de Tradições Nordestinas","distancia":1587},{"nome":"Jardim Zoológico (Riozoo)","distancia":1923},{"nome":"Teatro Mário Lago","distancia":1677}]},{"linha":"209","descricao_ponto":"Avenida Francisco Bicalho, próximo a Unidos da Tijuca","sequencia":"3","latitude":"-22.9038","longitude":"-43.2096","pontos_turisticos":[{"nome":"Centro Luiz Gonzaga de Tradições Nordestinas","distancia":1265},{"nome":"Cidade do Samba","distancia":1664},{"nome":"Jardim Zoológico (Riozoo)","distancia":1970},{"nome":"Memorial dos Pretos Novos","distancia":1909},{"nome":"Quinta da Boa Vista/Museu Nacional","distancia":1576},{"nome":"Sambódromo","distancia":1561},{"nome":"Teatro Mário Lago","distancia":1263}]},{"linha":"209","descricao_ponto":"Avenida Brasil próximo ao","sequencia":"3","latitude":"-22.8857","longitude":"-43.2286","pontos_turisticos":[{"nome":"Centro Luiz Gonzaga de Tradições Nordestinas","distancia":1557},{"nome":"Teatro Mário Lago","distancia":1696}]},{"linha":"209","descricao_ponto":"Rua Prefeito Olimpio De Melo proximo ao 825","sequencia":"14","latitude":"-22.8883","longitude":"-43.2319","pontos_turisticos":[{"nome":"Centro Luiz Gonzaga de Tradições Nordestinas","distancia":1597},{"nome":"Jardim Zoológico (Riozoo)","distancia":1817},{"nome":"Teatro Mário Lago","distancia":1656}]},{"linha":"209","descricao_ponto":"Rua Monsenhor Manoel Gomes próximo ao 261","sequencia":"20","latitude":"-22.888","longitude":"-43.2193","pontos_turisticos":[{"nome":"Centro Luiz Gonzaga de Tradições Nordestinas","distancia":980},{"nome":"Teatro Mário Lago","distancia":1253}]},{"linha":"209","descricao_ponto":"Avenida Pedro Ii próximo ao 167","sequencia":"13","latitude":"-22.9034","longitude":"-43.2147","pontos_turisticos":[{"nome":"Centro Luiz Gonzaga de Tradições Nordestinas","distancia":874},{"nome":"Jardim Zoológico (Riozoo)","distancia":1450},{"nome":"Quinta da Boa Vista/Museu Nacional","distancia":1068},{"nome":"Teatro Mário Lago","distancia":786}]},{"linha":"209","descricao_ponto":"Avenida Francisco Bicalho próximo ao","sequencia":"16","latitude":"-22.9062","longitude":"-43.2102","pontos_turisticos":[{"nome":"Centro Luiz Gonzaga de Tradições Nordestinas","distancia":1403},{"nome":"Cidade do Samba","distancia":1888},{"nome":"Jardim Zoológico (Riozoo)","distancia":1918},{"nome":"Quinta da Boa Vista/Museu Nacional","distancia":1506},{"nome":"Sambódromo","distancia":1489},{"nome":"Teatro Mário Lago","distancia":1342}]},{"linha":"209","descricao_ponto":"Campo Sao De Cristovao próximo ao 369","sequencia":"8","latitude":"-22.8984","longitude":"-43.2193","pontos_turisticos":[{"nome":"Centro Luiz Gonzaga de Tradições Nordestinas","distancia":177},{"nome":"Jardim Zoológico (Riozoo)","distancia":1181},{"nome":"Quinta da Boa Vista/Museu Nacional","distancia":970},{"nome":"Teatro Mário Lago","distancia":182}]},{"linha":"209","descricao_ponto":"Avenida Brasil próximo ao 500","sequencia":"17","latitude":"-22.8946","longitude":"-43.2151","pontos_turisticos":[{"nome":"Centro Luiz Gonzaga de Tradições Nordestinas","distancia":499},{"nome":"Cidade do Samba","distancia":1853},{"nome":"Jardim Zoológico (Riozoo)","distancia":1778},{"nome":"Quinta da Boa Vista/Museu Nacional","distancia":1568},{"nome":"Teatro Mário Lago","distancia":779}]},{"linha":"209","descricao_ponto":"Avenida Francisco Bicalho próximo ao 234","sequencia":"15","latitude":"-22.9034","longitude":"-43.2104","pontos_turisticos":[{"nome":"Centro Luiz Gonzaga de Tradições Nordestinas","distancia":1173},{"nome":"Cidade do Samba","distancia":1702},{"nome":"Jardim Zoológico (Riozoo)","distancia":1890},{"nome":"Memorial dos Pretos Novos","distancia":1964},{"nome":"Quinta da Boa Vista/Museu Nacional","distancia":1501},{"nome":"Sambódromo","distancia":1654},{"nome":"Teatro Mário Lago","distancia":1170}]},{"linha":"209","descricao_ponto":"Avenida Rio De Janeiro próximo ao","sequencia":"19","latitude":"-22.8909","longitude":"-43.2152","pontos_turisticos":[{"nome":"Centro Luiz Gonzaga de Tradições Nordestinas","distancia":782},{"nome":"Cidade do Samba","distancia":1902},{"nome":"Quinta da Boa Vista/Museu Nacional","distancia":1897},{"nome":"Teatro Mário Lago","distancia":1088}]},{"linha":"209","descricao_ponto":"Rua General Sampaio próximo ao 74","sequencia":"22","latitude":"-22.8781","longitude":"-43.216","pontos_turisticos":[]},{"linha":"209","descricao_ponto":"Rua Sao Cristovao próximo ao 894","sequencia":"5","latitude":"-22.9007","longitude":"-43.2164","pontos_turisticos":[{"nome":"Centro Luiz Gonzaga de Tradições Nordestinas","distancia":527},{"nome":"Jardim Zoológico (Riozoo)","distancia":1337},{"nome":"Quinta da Boa Vista/Museu Nacional","distancia":1016},{"nome":"Teatro Mário Lago","distancia":487}]},{"linha":"209","descricao_ponto":"Campo Sao De Cristovao próximo ao 75","sequencia":"7","latitude":"-22.899","longitude":"-43.2209","pontos_turisticos":[{"nome":"Centro Luiz Gonzaga de Tradições Nordestinas","distancia":291},{"nome":"Estádio do Maracanã","distancia":1929},{"nome":"Jardim Zoológico (Riozoo)","distancia":1009},{"nome":"Quinta da Boa Vista/Museu Nacional","distancia":824},{"nome":"Teatro Mário Lago","distancia":20},{"nome":"Teatro Odylo Costa Filho","distancia":1933}]},{"linha":"209","descricao_ponto":"Rua Carmo Neto próximo ao 224","sequencia":"20","latitude":"-22.9114","longitude":"-43.1995","pontos_turisticos":[{"nome":"Campo de Santana","distancia":1259},{"nome":"Catedral Metropolitana","distancia":1924},{"nome":"Cidade do Samba","distancia":1914},{"nome":"Memorial dos Pretos Novos","distancia":1831},{"nome":"Museu da Chácara do Céu","distancia":1707},{"nome":"Parque das Ruínas","distancia":1875},{"nome":"Real Gabinete Português de Leitura","distancia":1894},{"nome":"Sambódromo","distancia":273},{"nome":"Teatro Carlos Gomes","distancia":1800},{"nome":"Teatro João Caetano","distancia":1849}]},{"linha":"209","descricao_ponto":"Rua Carlos Seidl próximo ao 321","sequencia":"23","latitude":"-22.8768","longitude":"-43.2188","pontos_turisticos":[]},{"linha":"209","descricao_ponto":"Rua Monsenhor Manoel Gomes próximo ao 332","sequencia":"21","latitude":"-22.8835","longitude":"-43.2187","pontos_turisticos":[{"nome":"Centro Luiz Gonzaga de Tradições Nordestinas","distancia":1481},{"nome":"Teatro Mário Lago","distancia":1757}]},{"linha":"209","descricao_ponto":"Rua Peter Lund próximo ao 39","sequencia":"25","latitude":"-22.8835","longitude":"-43.2259","pontos_turisticos":[{"nome":"Centro Luiz Gonzaga de Tradições Nordestinas","distancia":1625},{"nome":"Teatro Mário Lago","distancia":1818}]},{"linha":"209","descricao_ponto":"Avenida Brasil próximo ao","sequencia":"15","latitude":"-22.8857","longitude":"-43.2286","pontos_turisticos":[{"nome":"Centro Luiz Gonzaga de Tradições Nordestinas","distancia":1557},{"nome":"Teatro Mário Lago","distancia":1696}]},{"linha":"209","descricao_ponto":"Avenida Do Exercito próximo ao 53","sequencia":"6","latitude":"-22.9009","longitude":"-43.2239","pontos_turisticos":[{"nome":"Centro Luiz Gonzaga de Tradições Nordestinas","distancia":652},{"nome":"Estádio do Maracanã","distancia":1592},{"nome":"Jardim Zoológico (Riozoo)","distancia":636},{"nome":"Quinta da Boa Vista/Museu Nacional","distancia":515},{"nome":"Teatro Mário Lago","distancia":366},{"nome":"Teatro Noel Rosa","distancia":1780},{"nome":"Teatro Odylo Costa Filho","distancia":1564}]},{"linha":"209","descricao_ponto":"Avenida Pedro Ii próximo ao 348","sequencia":"14","latitude":"-22.9024","longitude":"-43.2122","pontos_turisticos":[{"nome":"Centro Luiz Gonzaga de Tradições Nordestinas","distancia":960},{"nome":"Cidade do Samba","distancia":1795},{"nome":"Jardim Zoológico (Riozoo)","distancia":1717},{"nome":"Quinta da Boa Vista/Museu Nacional","distancia":1342},{"nome":"Sambódromo","distancia":1869},{"nome":"Teatro Mário Lago","distancia":957}]},{"linha":"209","descricao_ponto":"Rua Ricardo Machado próximo ao 643","sequencia":"4","latitude":"-22.8898","longitude":"-43.2293","pontos_turisticos":[{"nome":"Centro Luiz Gonzaga de Tradições Nordestinas","distancia":1284},{"nome":"Jardim Zoológico (Riozoo)","distancia":1623},{"nome":"Quinta da Boa Vista/Museu Nacional","distancia":1797},{"nome":"Teatro Mário Lago","distancia":1355}]}]