[{"linha":"210","descricao_ponto":"Rua Carlos Seidl próximo ao 321","sequencia":"21","latitude":"-22.8768","longitude":"-43.2187","pontos_turisticos":[]},{"linha":"210","descricao_ponto":"Avenida Brasil próximo ao 2482","sequencia":"5","latitude":"-22.8854","longitude":"-43.2289","pontos_turisticos":[]},{"linha":"210","descricao_ponto":"Avenida Brasil próximo ao 49","sequencia":"17","latitude":"-22.8886","longitude":"-43.2201","pontos_turisticos":[]},{"linha":"210","descricao_ponto":"Avenida Rio De Janeiro próximo ao S/n","sequencia":"15","latitude":"-22.8944","longitude":"-43.2135","pontos_turisticos":[]},{"linha":"210","descricao_ponto":"Rua Carlos Seidl próximo ao 321","sequencia":"2","latitude":"-22.8768","longitude":"-43.2188","pontos_turisticos":[]},{"linha":"210","descricao_ponto":"Rua Carlos Seidl próximo ao 321","sequencia":"2","latitude":"-22.8768","longitude":"-43.2188","pontos_turisticos":[]},{"linha":"210","descricao_ponto":"Rua Carlos Seidl próximo ao 935","sequencia":"20","latitude":"-22.8795","longitude":"-43.2247","pontos_turisticos":[]},{"linha":"210","descricao_ponto":"Rua Carlos Seidl próximo ao 935","sequencia":"20","latitude":"-22.8795","longitude":"-43.2247","pontos_turisticos":[]},{"linha":"210","descricao_ponto":"Rua Peter Lund próximo ao 39","sequencia":"4","latitude":"-22.8835","longitude":"-43.2259","pontos_turisticos":[]},{"linha":"210","descricao_ponto":"Avenida Marechal Floriano, próximo ao 185","sequencia":"7","latitude":"-22.9027","longitude":"-43.1868","pontos_turisticos":[{"nome":"Campo de Santana","distancia":468}]},{"linha":"210","descricao_ponto":"Rua Santo Cristo próximo ao Terminal Padre Henrique Otte","sequencia":"12","latitude":"-22.9003","longitude":"-43.2069","pontos_turisticos":[]},{"linha":"210","descricao_ponto":"Rua Araujo Porto Alegre lado oposto ao número 16","sequencia":"22","latitude":"-22.9097","longitude":"-43.1767","pontos_turisticos":[{"nome":"Academia Brasileira de Letras","distancia":404},{"nome":"Arcos da Lapa","distancia":482},{"nome":"Biblioteca Nacional","distancia":104},{"nome":"Catedral Metropolitana","distancia":433},{"nome":"Igreja de São Francisco da Penitência","distancia":407},{"nome":"Museu do Clube Naval","distancia":169},{"nome":"Museu Nacional de Belas Artes","distancia":108},{"nome":"Teatro Dulcina","distancia":117},{"nome":"Teatro Glauce Rocha","distancia":271},{"nome":"Teatro Municipal","distancia":47},{"nome":"Teatro Rival Petrobras","distancia":172}]},{"linha":"210","descricao_ponto":"Rua General Sampaio próximo ao 74","sequencia":"1","latitude":"-22.8781","longitude":"-43.216","pontos_turisticos":[]},{"linha":"210","descricao_ponto":"Rua General Sampaio próximo ao 74","sequencia":"1","latitude":"-22.8781","longitude":"-43.216","pontos_turisticos":[]},{"linha":"210","descricao_ponto":"Avenida Rio De Janeiro próximo ao","sequencia":"16","latitude":"-22.8909","longitude":"-43.2152","pontos_turisticos":[]},{"linha":"210","descricao_ponto":"Rua General Sampaio próximo ao 74","sequencia":"22","latitude":"-22.8781","longitude":"-43.2159","pontos_turisticos":[]},{"linha":"210","descricao_ponto":"Rua General Sampaio próximo ao 74","sequencia":"22","latitude":"-22.8781","longitude":"-43.2159","pontos_turisticos":[]},{"linha":"210","descricao_ponto":"Rua Monsenhor Manoel Gomes próximo ao 143","sequencia":"9","latitude":"-22.8918","longitude":"-43.219","pontos_turisticos":[]},{"linha":"210","descricao_ponto":"Rua Peter Lund próximo ao 39","sequencia":"19","latitude":"-22.8838","longitude":"-43.2256","pontos_turisticos":[]},{"linha":"210","descricao_ponto":"Avenida Republica Do Paraguai próximo ao 1","sequencia":"19","latitude":"-22.9088","longitude":"-43.1805","pontos_turisticos":[{"nome":"Arcos da Lapa","distancia":456},{"nome":"Catedral Metropolitana","distancia":233},{"nome":"Confeitaria Colombo","distancia":431},{"nome":"Igreja de São Francisco da Penitência","distancia":246},{"nome":"Museu do Clube Naval","distancia":404},{"nome":"Museu Nacional de Belas Artes","distancia":451},{"nome":"Real Gabinete Português de Leitura","distancia":408},{"nome":"Teatro Carlos Gomes","distancia":271},{"nome":"Teatro Dulcina","distancia":411},{"nome":"Teatro Glauce Rocha","distancia":423},{"nome":"Teatro João Caetano","distancia":325},{"nome":"Teatro Municipal","distancia":426}]},{"linha":"210","descricao_ponto":"Praca Cristiano Otoni próximo ao S/n","sequencia":"9","latitude":"-22.9035","longitude":"-43.1907","pontos_turisticos":[{"nome":"Campo de Santana","distancia":428}]},{"linha":"210","descricao_ponto":"Rua Araujo Porto Alegre próximo ao 71","sequencia":"23","latitude":"-22.9089","longitude":"-43.1748","pontos_turisticos":[{"nome":"Academia Brasileira de Letras","distancia":289},{"nome":"Biblioteca Nacional","distancia":133},{"nome":"Museu do Clube Naval","distancia":203},{"nome":"Museu Nacional de Belas Artes","distancia":133},{"nome":"Teatro Dulcina","distancia":306},{"nome":"Teatro Glauce Rocha","distancia":268},{"nome":"Teatro Municipal","distancia":172},{"nome":"Teatro Rival Petrobras","distancia":296}]},{"linha":"210","descricao_ponto":"Avenida Brasil próximo ao 2000","sequencia":"18","latitude":"-22.887","longitude":"-43.224","pontos_turisticos":[]},{"linha":"210","descricao_ponto":"AV. BRASIL (PISTA CENTRAL), PRÓXIMO A RUA SANTOS LIMA","sequencia":"11","latitude":"-22.8948","longitude":"-43.2153","pontos_turisticos":[{"nome":"Centro Luiz Gonzaga de Tradições Nordestinas","distancia":470}]},{"linha":"210","descricao_ponto":"Avenida Brasil próximo ao 2231","sequencia":"6","latitude":"-22.8872","longitude":"-43.2308","pontos_turisticos":[]},{"linha":"210","descricao_ponto":"Rua Rivadavia Correia próximo ao 185 ","sequencia":"11","latitude":"-22.898","longitude":"-43.1954","pontos_turisticos":[{"nome":"Cidade do Samba","distancia":440},{"nome":"Memorial dos Pretos Novos","distancia":330}]},{"linha":"210","descricao_ponto":"Rua Evaristo Da Veiga próximo ao 49","sequencia":"21","latitude":"-22.9109","longitude":"-43.1779","pontos_turisticos":[{"nome":"Arcos da Lapa","distancia":300},{"nome":"Biblioteca Nacional","distancia":259},{"nome":"Catedral Metropolitana","distancia":290},{"nome":"Igreja de São Francisco da Penitência","distancia":465},{"nome":"Museu do Clube Naval","distancia":330},{"nome":"Museu Nacional de Belas Artes","distancia":289},{"nome":"Sala Cecília Meireles","distancia":385},{"nome":"Teatro Dulcina","distancia":89},{"nome":"Teatro Glauce Rocha","distancia":422},{"nome":"Teatro Municipal","distancia":228},{"nome":"Teatro Rival Petrobras","distancia":171}]},{"linha":"210","descricao_ponto":"Rua Carlos Seidl próximo ao 935","sequencia":"3","latitude":"-22.8795","longitude":"-43.2247","pontos_turisticos":[]},{"linha":"210","descricao_ponto":"Rua Carlos Seidl próximo ao 935","sequencia":"3","latitude":"-22.8795","longitude":"-43.2247","pontos_turisticos":[]},{"linha":"210","descricao_ponto":"Rua Araujo Porto Alegre próximo ao 27","sequencia":"25","latitude":"-22.9083","longitude":"-43.1731","pontos_turisticos":[{"nome":"Academia Brasileira de Letras","distancia":287},{"nome":"Biblioteca Nacional","distancia":312},{"nome":"Museu do Clube Naval","distancia":360},{"nome":"Museu Histórico Nacional","distancia":483},{"nome":"Museu Nacional de Belas Artes","distancia":314},{"nome":"Palácio Tiradentes","distancia":480},{"nome":"Teatro Dulcina","distancia":485},{"nome":"Teatro Glauce Rocha","distancia":389},{"nome":"Teatro Municipal","distancia":358},{"nome":"Teatro Rival Petrobras","distancia":457}]},{"linha":"210","descricao_ponto":"Avenida Brasil próximo ao","sequencia":"7","latitude":"-22.8857","longitude":"-43.2286","pontos_turisticos":[]},{"linha":"210","descricao_ponto":"Avenida Marechal Floriano, próximo ao 185","sequencia":"15","latitude":"-22.9027","longitude":"-43.1868","pontos_turisticos":[{"nome":"Campo de Santana","distancia":468}]}]