[{"linha":"229","descricao_ponto":"Rua Conde De Bonfim próximo ao 929","sequencia":"29","latitude":"-22.9383","longitude":"-43.247","pontos_turisticos":[]},{"linha":"229","descricao_ponto":"Rua Conde De Bonfim próximo ao 1033","sequencia":"7","latitude":"-22.9396","longitude":"-43.2487","pontos_turisticos":[]},{"linha":"229","descricao_ponto":"Rua Conde De Bonfim próximo ao 155","sequencia":"23","latitude":"-22.925","longitude":"-43.226","pontos_turisticos":[{"nome":"Estádio do Maracanã","distancia":1369},{"nome":"Teatro Noel Rosa","distancia":1983},{"nome":"Teatro Odylo Costa Filho","distancia":1852},{"nome":"Teatro Ziembinski","distancia":499}]},{"linha":"229","descricao_ponto":"Rua Conde De Bonfim próximo ao 822","sequencia":"12","latitude":"-22.9355","longitude":"-43.244","pontos_turisticos":[]},{"linha":"229","descricao_ponto":"Rua Conde De Bonfim próximo ao 579","sequencia":"16","latitude":"-22.9306","longitude":"-43.2379","pontos_turisticos":[{"nome":"Teatro Ziembinski","distancia":1790}]},{"linha":"229","descricao_ponto":"BRS 2 - RUA DO MATOSO","sequencia":"10","latitude":"-22.9161","longitude":"-43.212","pontos_turisticos":[{"nome":"Estádio do Maracanã","distancia":1973},{"nome":"Quinta da Boa Vista/Museu Nacional","distancia":1774},{"nome":"Sambódromo","distancia":1636},{"nome":"Teatro Ziembinski","distancia":1334}]},{"linha":"229","descricao_ponto":"Rua Conde De Bonfim próximo ao 1103","sequencia":"6","latitude":"-22.9407","longitude":"-43.2505","pontos_turisticos":[]},{"linha":"229","descricao_ponto":"BRS 2, 5, 6, I - PROFESSOR GABIZO","sequencia":"13","latitude":"-22.9195","longitude":"-43.2202","pontos_turisticos":[{"nome":"Estádio do Maracanã","distancia":1292},{"nome":"Jardim Zoológico (Riozoo)","distancia":1898},{"nome":"Quinta da Boa Vista/Museu Nacional","distancia":1635},{"nome":"Teatro Odylo Costa Filho","distancia":1813},{"nome":"Teatro Ziembinski","distancia":413}]},{"linha":"229","descricao_ponto":"Rua Conde De Bonfim próximo ao 796","sequencia":"26","latitude":"-22.9349","longitude":"-43.2434","pontos_turisticos":[]},{"linha":"229","descricao_ponto":"Rua Conde De Bonfim próximo ao 862","sequencia":"28","latitude":"-22.9365","longitude":"-43.2451","pontos_turisticos":[]},{"linha":"229","descricao_ponto":"BRS 2 - PAULO DE FRONTIN","sequencia":"9","latitude":"-22.9155","longitude":"-43.2094","pontos_turisticos":[{"nome":"Quinta da Boa Vista/Museu Nacional","distancia":1941},{"nome":"Sambódromo","distancia":1362},{"nome":"Teatro Ziembinski","distancia":1605}]},{"linha":"229","descricao_ponto":"Rua Conde De Bonfim próximo ao 1139","sequencia":"4","latitude":"-22.9423","longitude":"-43.2532","pontos_turisticos":[]},{"linha":"229","descricao_ponto":"Rua Haddock Lobo próximo ao 269","sequencia":"27","latitude":"-22.9207","longitude":"-43.2176","pontos_turisticos":[{"nome":"Estádio do Maracanã","distancia":1589},{"nome":"Quinta da Boa Vista/Museu Nacional","distancia":1853},{"nome":"Teatro Ziembinski","distancia":648}]},{"linha":"229","descricao_ponto":"BRS 1, 2, 4 - LARGO DO ESTÁCIO","sequencia":"32","latitude":"-22.9143","longitude":"-43.2056","pontos_turisticos":[{"nome":"Campo de Santana","distancia":1962},{"nome":"Sambódromo","distancia":951}]},{"linha":"229","descricao_ponto":"BRS 2 - DOMÍCIO DA GAMA","sequencia":"11","latitude":"-22.917","longitude":"-43.2143","pontos_turisticos":[{"nome":"Estádio do Maracanã","distancia":1758},{"nome":"Quinta da Boa Vista/Museu Nacional","distancia":1681},{"nome":"Sambódromo","distancia":1891},{"nome":"Teatro Ziembinski","distancia":1078}]},{"linha":"229","descricao_ponto":"BRS 2, 7 - PARETO","sequencia":"16","latitude":"-22.9233","longitude":"-43.2317","pontos_turisticos":[{"nome":"Estádio do Maracanã","distancia":1080},{"nome":"Teatro Noel Rosa","distancia":1523},{"nome":"Teatro Odylo Costa Filho","distancia":1457},{"nome":"Teatro Ziembinski","distancia":839}]},{"linha":"229","descricao_ponto":"Rua Conde De Bonfim próximo ao 822","sequencia":"27","latitude":"-22.9358","longitude":"-43.2444","pontos_turisticos":[]},{"linha":"229","descricao_ponto":"Rua Conde De Bonfim próximo ao 1139","sequencia":"35","latitude":"-22.9439","longitude":"-43.2541","pontos_turisticos":[]},{"linha":"229","descricao_ponto":"Rua Conde De Bonfim próximo ao 1287","sequencia":"36","latitude":"-22.9463","longitude":"-43.2555","pontos_turisticos":[]},{"linha":"229","descricao_ponto":"Rua Haddock Lobo próximo ao 347","sequencia":"26","latitude":"-22.9213","longitude":"-43.2198","pontos_turisticos":[{"nome":"Estádio do Maracanã","distancia":1437},{"nome":"Quinta da Boa Vista/Museu Nacional","distancia":1839},{"nome":"Teatro Odylo Costa Filho","distancia":1962},{"nome":"Teatro Ziembinski","distancia":423}]},{"linha":"229","descricao_ponto":"BRS 2, 5 - PRAÇA TIRADENTES","sequencia":"3","latitude":"-22.9073","longitude":"-43.183","pontos_turisticos":[{"nome":"Academia Brasileira de Letras","distancia":1102},{"nome":"Arcos da Lapa","distancia":695},{"nome":"Biblioteca Nacional","distancia":798},{"nome":"Campo de Santana","distancia":551},{"nome":"Casa França Brasil","distancia":1052},{"nome":"Catedral Metropolitana","distancia":462},{"nome":"Centro Cultural Banco do Brasil","distancia":997},{"nome":"Centro Cultural dos Correios","distancia":992},{"nome":"Confeitaria Colombo","distancia":487},{"nome":"Espaço Cultural da Marinha","distancia":1116},{"nome":"Igreja de São Francisco da Penitência","distancia":385},{"nome":"Igreja e Convento de Santa Teresa","distancia":969},{"nome":"Igreja Nossa Senhora da Candelária","distancia":913},{"nome":"Igreja Nossa Senhora da Glória do Outeiro","distancia":1746},{"nome":"Igreja Nossa Senhora do Carmo da Antiga Sé","distancia":912},{"nome":"Memorial dos Pretos Novos","distancia":1612},{"nome":"Monumento aos Pracinhas","distancia":1373},{"nome":"Mosteiro de São Bento","distancia":1285},{"nome":"Museu de Arte do Rio","distancia":1244},{"nome":"Museu da Chácara do Céu","distancia":1123},{"nome":"Museu de Arte Moderna","distancia":1237},{"nome":"Museu do Clube Naval","distancia":661},{"nome":"Museu Histórico Nacional","distancia":1402},{"nome":"Museu Nacional de Belas Artes","distancia":729},{"nome":"Paço Imperial","distancia":987},{"nome":"Palácio Tiradentes","distancia":966},{"nome":"Parque das Ruínas","distancia":1142},{"nome":"Praça Paris","distancia":1325},{"nome":"Real Gabinete Português de Leitura","distancia":221},{"nome":"Sala Cecília Meireles","distancia":923},{"nome":"Sambódromo","distancia":1491},{"nome":"Teatro Carlos Gomes","distancia":50},{"nome":"Teatro Dulcina","distancia":716},{"nome":"Teatro Glauce Rocha","distancia":643},{"nome":"Teatro João Caetano","distancia":125},{"nome":"Teatro Municipal","distancia":716},{"nome":"Teatro Rival Petrobras","distancia":815}]},{"linha":"229","descricao_ponto":"Rua Conde De Bonfim próximo ao 496","sequencia":"18","latitude":"-22.9259","longitude":"-43.235","pontos_turisticos":[{"nome":"Estádio do Maracanã","distancia":1425},{"nome":"Teatro Noel Rosa","distancia":1708},{"nome":"Teatro Odylo Costa Filho","distancia":1706},{"nome":"Teatro Ziembinski","distancia":1262}]},{"linha":"229","descricao_ponto":"Rua Conde De Bonfim próximo ao 1235","sequencia":"3","latitude":"-22.9434","longitude":"-43.254","pontos_turisticos":[]},{"linha":"229","descricao_ponto":"Rua Conde De Bonfim próximo ao 597","sequencia":"15","latitude":"-22.9311","longitude":"-43.2384","pontos_turisticos":[{"nome":"Teatro Ziembinski","distancia":1864}]},{"linha":"229","descricao_ponto":"BRS 1, 2, 4 - REVERENDO ÁLVARO REIS","sequencia":"33","latitude":"-22.9131","longitude":"-43.2029","pontos_turisticos":[{"nome":"Campo de Santana","distancia":1655},{"nome":"Museu da Chácara do Céu","distancia":1979},{"nome":"Sambódromo","distancia":647}]},{"linha":"229","descricao_ponto":"Avenida Nilo Pecanha próximo ao 26 (PLATAFORMA A)","sequencia":"41","latitude":"-22.9062","longitude":"-43.1738","pontos_turisticos":[{"nome":"Academia Brasileira de Letras","distancia":527},{"nome":"Arcos da Lapa","distancia":970},{"nome":"Biblioteca Nacional","distancia":442},{"nome":"Campo de Santana","distancia":1489},{"nome":"Casa França Brasil","distancia":683},{"nome":"Catedral Metropolitana","distancia":880},{"nome":"Centro Cultural Banco do Brasil","distancia":681},{"nome":"Centro Cultural dos Correios","distancia":584},{"nome":"Confeitaria Colombo","distancia":523},{"nome":"Espaço Cultural da Marinha","distancia":573},{"nome":"Igreja de São Francisco da Penitência","distancia":565},{"nome":"Igreja e Convento de Santa Teresa","distancia":1245},{"nome":"Igreja Nossa Senhora da Candelária","distancia":724},{"nome":"Igreja Nossa Senhora da Glória do Outeiro","distancia":1689},{"nome":"Igreja Nossa Senhora do Carmo da Antiga Sé","distancia":362},{"nome":"Ilha Fiscal","distancia":1296},{"nome":"Monumento aos Pracinhas","distancia":1145},{"nome":"Mosteiro de São Bento","distancia":1131},{"nome":"Museu de Arte do Rio","distancia":1380},{"nome":"Museu da Chácara do Céu","distancia":1630},{"nome":"Museu de Arte Moderna","distancia":849},{"nome":"Museu do Clube Naval","distancia":363},{"nome":"Museu Histórico Nacional","distancia":452},{"nome":"Museu Nacional de Belas Artes","distancia":381},{"nome":"Paço Imperial","distancia":299},{"nome":"Palácio Tiradentes","distancia":237},{"nome":"Parque das Ruínas","distancia":1544},{"nome":"Praça Paris","distancia":1243},{"nome":"Real Gabinete Português de Leitura","distancia":861},{"nome":"Sala Cecília Meireles","distancia":1013},{"nome":"Teatro Carlos Gomes","distancia":900},{"nome":"Teatro Dulcina","distancia":601},{"nome":"Teatro Glauce Rocha","distancia":322},{"nome":"Teatro Glória","distancia":1868},{"nome":"Teatro João Caetano","distancia":870},{"nome":"Teatro Municipal","distancia":443},{"nome":"Teatro Rival Petrobras","distancia":610}]},{"linha":"229","descricao_ponto":"BRS 1, 2, 3, 4 - GENERAL CALDWELL","sequencia":"5","latitude":"-22.9098","longitude":"-43.1911","pontos_turisticos":[{"nome":"Academia Brasileira de Letras","distancia":1861},{"nome":"Arcos da Lapa","distancia":1196},{"nome":"Biblioteca Nacional","distancia":1578},{"nome":"Campo de Santana","distancia":449},{"nome":"Casa França Brasil","distancia":1868},{"nome":"Catedral Metropolitana","distancia":1069},{"nome":"Centro Cultural Banco do Brasil","distancia":1810},{"nome":"Centro Cultural dos Correios","distancia":1827},{"nome":"Cidade do Samba","distancia":1823},{"nome":"Confeitaria Colombo","distancia":1357},{"nome":"Espaço Cultural da Marinha","distancia":1962},{"nome":"Igreja de São Francisco da Penitência","distancia":1255},{"nome":"Igreja e Convento de Santa Teresa","distancia":1283},{"nome":"Igreja Nossa Senhora da Candelária","distancia":1708},{"nome":"Igreja Nossa Senhora do Carmo da Antiga Sé","distancia":1778},{"nome":"Memorial dos Pretos Novos","distancia":1538},{"nome":"Monumento aos Pracinhas","distancia":1898},{"nome":"Mosteiro de São Bento","distancia":1985},{"nome":"Museu de Arte do Rio","distancia":1793},{"nome":"Museu da Chácara do Céu","distancia":1101},{"nome":"Museu de Arte Moderna","distancia":1886},{"nome":"Museu do Clube Naval","distancia":1494},{"nome":"Museu Nacional de Belas Artes","distancia":1540},{"nome":"Paço Imperial","distancia":1859},{"nome":"Palácio Tiradentes","distancia":1841},{"nome":"Parque das Ruínas","distancia":1236},{"nome":"Praça Paris","distancia":1768},{"nome":"Real Gabinete Português de Leitura","distancia":1034},{"nome":"Sala Cecília Meireles","distancia":1412},{"nome":"Sambódromo","distancia":616},{"nome":"Teatro Carlos Gomes","distancia":924},{"nome":"Teatro Dulcina","distancia":1442},{"nome":"Teatro Glauce Rocha","distancia":1499},{"nome":"Teatro João Caetano","distancia":979},{"nome":"Teatro Municipal","distancia":1508},{"nome":"Teatro Rival Petrobras","distancia":1528}]},{"linha":"229","descricao_ponto":"Rua Conde De Bonfim próximo ao 481","sequencia":"20","latitude":"-22.9282","longitude":"-43.2365","pontos_turisticos":[{"nome":"Estádio do Maracanã","distancia":1716},{"nome":"Teatro Noel Rosa","distancia":1946},{"nome":"Teatro Odylo Costa Filho","distancia":1968},{"nome":"Teatro Ziembinski","distancia":1520}]},{"linha":"229","descricao_ponto":"Rua Haddock Lobo próximo ao 135","sequencia":"29","latitude":"-22.9182","longitude":"-43.2123","pontos_turisticos":[{"nome":"Estádio do Maracanã","distancia":1989},{"nome":"Quinta da Boa Vista/Museu Nacional","distancia":1917},{"nome":"Sambódromo","distancia":1752},{"nome":"Teatro Ziembinski","distancia":1228}]},{"linha":"229","descricao_ponto":"BRS 2, 4, 5 - BARÃO DE UBÁ","sequencia":"30","latitude":"-22.9174","longitude":"-43.2111","pontos_turisticos":[{"nome":"Quinta da Boa Vista/Museu Nacional","distancia":1939},{"nome":"Sambódromo","distancia":1603},{"nome":"Teatro Ziembinski","distancia":1371}]},{"linha":"229","descricao_ponto":"BRS 2 - CORREIA VASQUES","sequencia":"7","latitude":"-22.9128","longitude":"-43.2016","pontos_turisticos":[{"nome":"Campo de Santana","distancia":1520},{"nome":"Museu da Chácara do Céu","distancia":1859},{"nome":"Sambódromo","distancia":510}]},{"linha":"229","descricao_ponto":"Rua Conde De Bonfim próximo ao 447","sequencia":"18","latitude":"-22.927","longitude":"-43.2356","pontos_turisticos":[{"nome":"Estádio do Maracanã","distancia":1560},{"nome":"Teatro Noel Rosa","distancia":1821},{"nome":"Teatro Odylo Costa Filho","distancia":1830},{"nome":"Teatro Ziembinski","distancia":1373}]},{"linha":"229","descricao_ponto":"Rua Conde De Bonfim próximo ao 25","sequencia":"25","latitude":"-22.9228","longitude":"-43.2223","pontos_turisticos":[{"nome":"Estádio do Maracanã","distancia":1361},{"nome":"Quinta da Boa Vista/Museu Nacional","distancia":1948},{"nome":"Teatro Odylo Costa Filho","distancia":1883},{"nome":"Teatro Ziembinski","distancia":264}]},{"linha":"229","descricao_ponto":"Rua Conde De Bonfim próximo ao 412","sequencia":"17","latitude":"-22.9252","longitude":"-43.2343","pontos_turisticos":[{"nome":"Estádio do Maracanã","distancia":1331},{"nome":"Teatro Noel Rosa","distancia":1644},{"nome":"Teatro Odylo Costa Filho","distancia":1630},{"nome":"Teatro Ziembinski","distancia":1164}]},{"linha":"229","descricao_ponto":"Rua Conde De Bonfim próximo ao 1139","sequencia":"5","latitude":"-22.9414","longitude":"-43.2523","pontos_turisticos":[]},{"linha":"229","descricao_ponto":"BRS 2 - CONSELHEIRO ZENHA","sequencia":"15","latitude":"-22.9216","longitude":"-43.2282","pontos_turisticos":[{"nome":"Estádio do Maracanã","distancia":936},{"nome":"Jardim Zoológico (Riozoo)","distancia":1914},{"nome":"Quinta da Boa Vista/Museu Nacional","distancia":1829},{"nome":"Teatro Noel Rosa","distancia":1546},{"nome":"Teatro Odylo Costa Filho","distancia":1412},{"nome":"Teatro Ziembinski","distancia":445}]},{"linha":"229","descricao_ponto":"Rua Haddock Lobo próximo ao 153","sequencia":"28","latitude":"-22.9197","longitude":"-43.2152","pontos_turisticos":[{"nome":"Estádio do Maracanã","distancia":1761},{"nome":"Quinta da Boa Vista/Museu Nacional","distancia":1870},{"nome":"Teatro Ziembinski","distancia":903}]},{"linha":"229","descricao_ponto":"Rua Conde De Bonfim próximo ao 927","sequencia":"9","latitude":"-22.9384","longitude":"-43.2471","pontos_turisticos":[]},{"linha":"229","descricao_ponto":"BRS 1, 2, 3, 4 - MARQUÊS DE SAPUCAÍ","sequencia":"35","latitude":"-22.9141","longitude":"-43.1963","pontos_turisticos":[{"nome":"Arcos da Lapa","distancia":1684},{"nome":"Campo de Santana","distancia":1161},{"nome":"Catedral Metropolitana","distancia":1634},{"nome":"Igreja de São Francisco da Penitência","distancia":1920},{"nome":"Igreja e Convento de Santa Teresa","distancia":1647},{"nome":"Museu da Chácara do Céu","distancia":1297},{"nome":"Parque das Ruínas","distancia":1469},{"nome":"Real Gabinete Português de Leitura","distancia":1737},{"nome":"Sala Cecília Meireles","distancia":1851},{"nome":"Sambódromo","distancia":298},{"nome":"Santa Teresa","distancia":1992},{"nome":"Teatro Carlos Gomes","distancia":1605},{"nome":"Teatro João Caetano","distancia":1672}]},{"linha":"229","descricao_ponto":"BRS 1, 2, 4 - VISCONDESSA PIRASSUNUNGA","sequencia":"34","latitude":"-22.9139","longitude":"-43.2006","pontos_turisticos":[{"nome":"Campo de Santana","distancia":1492},{"nome":"Museu da Chácara do Céu","distancia":1729},{"nome":"Parque das Ruínas","distancia":1902},{"nome":"Sambódromo","distancia":471},{"nome":"Teatro Carlos Gomes","distancia":1995}]},{"linha":"229","descricao_ponto":"BRS 2 - LARGO DO ESTÁCIO","sequencia":"8","latitude":"-22.9143","longitude":"-43.2062","pontos_turisticos":[{"nome":"Sambódromo","distancia":1009},{"nome":"Teatro Ziembinski","distancia":1959}]},{"linha":"229","descricao_ponto":"Rua Conde De Bonfim próximo ao 685","sequencia":"24","latitude":"-22.9323","longitude":"-43.2409","pontos_turisticos":[]},{"linha":"229","descricao_ponto":"BRS 1, 2 - TREZE DE MAIO","sequencia":"39","latitude":"-22.9083","longitude":"-43.1773","pontos_turisticos":[{"nome":"Academia Brasileira de Letras","distancia":528},{"nome":"Arcos da Lapa","distancia":574},{"nome":"Biblioteca Nacional","distancia":232},{"nome":"Campo de Santana","distancia":1145},{"nome":"Casa França Brasil","distancia":889},{"nome":"Catedral Metropolitana","distancia":454},{"nome":"Centro Cultural Banco do Brasil","distancia":859},{"nome":"Centro Cultural dos Correios","distancia":794},{"nome":"Confeitaria Colombo","distancia":373},{"nome":"Espaço Cultural da Marinha","distancia":854},{"nome":"Igreja de São Francisco da Penitência","distancia":254},{"nome":"Igreja e Convento de Santa Teresa","distancia":874},{"nome":"Igreja Nossa Senhora da Candelária","distancia":842},{"nome":"Igreja Nossa Senhora da Glória do Outeiro","distancia":1462},{"nome":"Igreja Nossa Senhora do Carmo da Antiga Sé","distancia":600},{"nome":"Ilha Fiscal","distancia":1705},{"nome":"Monumento aos Pracinhas","distancia":970},{"nome":"Mosteiro de São Bento","distancia":1286},{"nome":"Museu de Arte do Rio","distancia":1423},{"nome":"Museu da Chácara do Céu","distancia":1225},{"nome":"Museu da República","distancia":1955},{"nome":"Museu de Arte Moderna","distancia":743},{"nome":"Museu de Folclore Edison Carneiro","distancia":1976},{"nome":"Museu do Clube Naval","distancia":71},{"nome":"Museu Histórico Nacional","distancia":861},{"nome":"Museu Nacional de Belas Artes","distancia":140},{"nome":"Paço Imperial","distancia":613},{"nome":"Palácio Tiradentes","distancia":563},{"nome":"Parque das Ruínas","distancia":1157},{"nome":"Praça Paris","distancia":1003},{"nome":"Real Gabinete Português de Leitura","distancia":590},{"nome":"Sala Cecília Meireles","distancia":679},{"nome":"Teatro Carlos Gomes","distancia":548},{"nome":"Teatro Dulcina","distancia":268},{"nome":"Teatro Glauce Rocha","distancia":129},{"nome":"Teatro Glória","distancia":1698},{"nome":"Teatro João Caetano","distancia":553},{"nome":"Teatro Municipal","distancia":153},{"nome":"Teatro Rival Petrobras","distancia":339}]},{"linha":"229","descricao_ponto":"Rua Conde De Bonfim próximo ao 560","sequencia":"21","latitude":"-22.9293","longitude":"-43.2371","pontos_turisticos":[{"nome":"Estádio do Maracanã","distancia":1851},{"nome":"Teatro Ziembinski","distancia":1639}]},{"linha":"229","descricao_ponto":"Rua Conde De Bonfim próximo ao 1103","sequencia":"33","latitude":"-22.9411","longitude":"-43.2516","pontos_turisticos":[]},{"linha":"229","descricao_ponto":"Rua Conde De Bonfim próximo ao 481","sequencia":"17","latitude":"-22.9283","longitude":"-43.2364","pontos_turisticos":[{"nome":"Estádio do Maracanã","distancia":1723},{"nome":"Teatro Noel Rosa","distancia":1958},{"nome":"Teatro Odylo Costa Filho","distancia":1978},{"nome":"Teatro Ziembinski","distancia":1518}]},{"linha":"229","descricao_ponto":"BRS 1, 2, 4, 5 - DEBRET","sequencia":"40","latitude":"-22.9072","longitude":"-43.1739","pontos_turisticos":[{"nome":"Academia Brasileira de Letras","distancia":420},{"nome":"Arcos da Lapa","distancia":881},{"nome":"Biblioteca Nacional","distancia":339},{"nome":"Campo de Santana","distancia":1480},{"nome":"Casa França Brasil","distancia":786},{"nome":"Catedral Metropolitana","distancia":811},{"nome":"Centro Cultural Banco do Brasil","distancia":781},{"nome":"Centro Cultural dos Correios","distancia":686},{"nome":"Confeitaria Colombo","distancia":547},{"nome":"Espaço Cultural da Marinha","distancia":682},{"nome":"Igreja de São Francisco da Penitência","distancia":550},{"nome":"Igreja e Convento de Santa Teresa","distancia":1147},{"nome":"Igreja Nossa Senhora da Candelária","distancia":815},{"nome":"Igreja Nossa Senhora da Glória do Outeiro","distancia":1578},{"nome":"Igreja Nossa Senhora do Carmo da Antiga Sé","distancia":462},{"nome":"Ilha Fiscal","distancia":1392},{"nome":"Monumento aos Pracinhas","distancia":1034},{"nome":"Mosteiro de São Bento","distancia":1232},{"nome":"Museu de Arte do Rio","distancia":1465},{"nome":"Museu da Chácara do Céu","distancia":1540},{"nome":"Museu de Arte Moderna","distancia":739},{"nome":"Museu do Clube Naval","distancia":299},{"nome":"Museu Histórico Nacional","distancia":492},{"nome":"Museu Nacional de Belas Artes","distancia":294},{"nome":"Paço Imperial","distancia":408},{"nome":"Palácio Tiradentes","distancia":346},{"nome":"Parque das Ruínas","distancia":1448},{"nome":"Praça Paris","distancia":1132},{"nome":"Real Gabinete Português de Leitura","distancia":869},{"nome":"Sala Cecília Meireles","distancia":910},{"nome":"Teatro Carlos Gomes","distancia":883},{"nome":"Teatro Dulcina","distancia":506},{"nome":"Teatro Glauce Rocha","distancia":290},{"nome":"Teatro Glória","distancia":1758},{"nome":"Teatro João Caetano","distancia":864},{"nome":"Teatro Municipal","distancia":353},{"nome":"Teatro Rival Petrobras","distancia":506}]},{"linha":"229","descricao_ponto":"BRS 1, 2, 4 - INVÁLIDOS","sequencia":"37","latitude":"-22.911","longitude":"-43.1857","pontos_turisticos":[{"nome":"Academia Brasileira de Letras","distancia":1304},{"nome":"Arcos da Lapa","distancia":629},{"nome":"Biblioteca Nacional","distancia":1034},{"nome":"Campo de Santana","distancia":552},{"nome":"Casa França Brasil","distancia":1543},{"nome":"Catedral Metropolitana","distancia":509},{"nome":"Centro Cultural Banco do Brasil","distancia":1490},{"nome":"Centro Cultural dos Correios","distancia":1478},{"nome":"Confeitaria Colombo","distancia":953},{"nome":"Espaço Cultural da Marinha","distancia":1595},{"nome":"Igreja de São Francisco da Penitência","distancia":801},{"nome":"Igreja e Convento de Santa Teresa","distancia":757},{"nome":"Igreja Nossa Senhora da Candelária","distancia":1408},{"nome":"Igreja Nossa Senhora da Glória do Outeiro","distancia":1564},{"nome":"Igreja Nossa Senhora do Carmo da Antiga Sé","distancia":1374},{"nome":"Memorial dos Pretos Novos","distancia":1819},{"nome":"Monumento aos Pracinhas","distancia":1340},{"nome":"Mosteiro de São Bento","distancia":1776},{"nome":"Museu de Arte do Rio","distancia":1698},{"nome":"Museu da Chácara do Céu","distancia":724},{"nome":"Museu da República","distancia":1906},{"nome":"Museu de Arte Moderna","distancia":1317},{"nome":"Museu de Folclore Edison Carneiro","distancia":1925},{"nome":"Museu do Clube Naval","distancia":982},{"nome":"Museu Histórico Nacional","distancia":1772},{"nome":"Museu Nacional de Belas Artes","distancia":1011},{"nome":"Paço Imperial","distancia":1435},{"nome":"Palácio Tiradentes","distancia":1403},{"nome":"Parque das Ruínas","distancia":801},{"nome":"Praça Paris","distancia":1225},{"nome":"Real Gabinete Português de Leitura","distancia":714},{"nome":"Sala Cecília Meireles","distancia":851},{"nome":"Sambódromo","distancia":1142},{"nome":"Teatro Carlos Gomes","distancia":532},{"nome":"Teatro Dulcina","distancia":886},{"nome":"Teatro Glauce Rocha","distancia":1009},{"nome":"Teatro Glória","distancia":1883},{"nome":"Teatro João Caetano","distancia":620},{"nome":"Teatro Municipal","distancia":970},{"nome":"Teatro Rival Petrobras","distancia":967}]},{"linha":"229","descricao_ponto":"Rua Conde De Bonfim próximo ao 977","sequencia":"30","latitude":"-22.9393","longitude":"-43.2482","pontos_turisticos":[]},{"linha":"229","descricao_ponto":"BRS 2 - AFONSO PENA","sequencia":"12","latitude":"-22.9186","longitude":"-43.2182","pontos_turisticos":[{"nome":"Estádio do Maracanã","distancia":1430},{"nome":"Jardim Zoológico (Riozoo)","distancia":1918},{"nome":"Quinta da Boa Vista/Museu Nacional","distancia":1615},{"nome":"Teatro Odylo Costa Filho","distancia":1939},{"nome":"Teatro Ziembinski","distancia":641}]},{"linha":"229","descricao_ponto":"Rua Conde De Bonfim próximo ao 644","sequencia":"23","latitude":"-22.9314","longitude":"-43.2391","pontos_turisticos":[{"nome":"Teatro Ziembinski","distancia":1941}]},{"linha":"229","descricao_ponto":"Rua Conde De Bonfim próximo ao 1103","sequencia":"32","latitude":"-22.9407","longitude":"-43.2505","pontos_turisticos":[]},{"linha":"229","descricao_ponto":"BRS 2 - ALZIRA BRANDÃO","sequencia":"14","latitude":"-22.9208","longitude":"-43.2242","pontos_turisticos":[{"nome":"Estádio do Maracanã","distancia":1065},{"nome":"Jardim Zoológico (Riozoo)","distancia":1885},{"nome":"Quinta da Boa Vista/Museu Nacional","distancia":1709},{"nome":"Teatro Noel Rosa","distancia":1773},{"nome":"Teatro Odylo Costa Filho","distancia":1588},{"nome":"Teatro Ziembinski","distancia":33}]},{"linha":"229","descricao_ponto":"Rua Conde De Bonfim próximo ao 370","sequencia":"20","latitude":"-22.9245","longitude":"-43.2331","pontos_turisticos":[{"nome":"Estádio do Maracanã","distancia":1229},{"nome":"Teatro Noel Rosa","distancia":1599},{"nome":"Teatro Odylo Costa Filho","distancia":1563},{"nome":"Teatro Ziembinski","distancia":1020}]},{"linha":"229","descricao_ponto":"Terminal da Usina - Ponto A1","sequencia":"1","latitude":"-22.9462","longitude":"-43.257","pontos_turisticos":[]},{"linha":"229","descricao_ponto":"Rua Santa Carolina próximo ao 11","sequencia":"2","latitude":"-22.9436","longitude":"-43.2549","pontos_turisticos":[]},{"linha":"229","descricao_ponto":"Rua Conde De Bonfim próximo ao 977","sequencia":"8","latitude":"-22.9393","longitude":"-43.2482","pontos_turisticos":[]},{"linha":"229","descricao_ponto":"Rua Conde De Bonfim próximo ao 25","sequencia":"24","latitude":"-22.9245","longitude":"-43.2242","pontos_turisticos":[{"nome":"Estádio do Maracanã","distancia":1401},{"nome":"Teatro Odylo Costa Filho","distancia":1905},{"nome":"Teatro Ziembinski","distancia":396}]},{"linha":"229","descricao_ponto":"Rua Conde De Bonfim próximo ao 1052","sequencia":"31","latitude":"-22.9403","longitude":"-43.2497","pontos_turisticos":[]},{"linha":"229","descricao_ponto":"BRS 2 - PRAÇA CASTELO BRANCO","sequencia":"6","latitude":"-22.9121","longitude":"-43.1981","pontos_turisticos":[{"nome":"Arcos da Lapa","distancia":1865},{"nome":"Campo de Santana","distancia":1169},{"nome":"Catedral Metropolitana","distancia":1784},{"nome":"Cidade do Samba","distancia":1978},{"nome":"Igreja e Convento de Santa Teresa","distancia":1865},{"nome":"Memorial dos Pretos Novos","distancia":1859},{"nome":"Museu da Chácara do Céu","distancia":1545},{"nome":"Parque das Ruínas","distancia":1713},{"nome":"Real Gabinete Português de Leitura","distancia":1791},{"nome":"Sambódromo","distancia":147},{"nome":"Teatro Carlos Gomes","distancia":1685},{"nome":"Teatro João Caetano","distancia":1739}]},{"linha":"229","descricao_ponto":"Rua Conde De Bonfim próximo ao 915","sequencia":"10","latitude":"-22.9379","longitude":"-43.2466","pontos_turisticos":[]},{"linha":"229","descricao_ponto":"Rua Conde De Bonfim próximo ao 377","sequencia":"19","latitude":"-22.9252","longitude":"-43.2341","pontos_turisticos":[{"nome":"Estádio do Maracanã","distancia":1326},{"nome":"Teatro Noel Rosa","distancia":1649},{"nome":"Teatro Odylo Costa Filho","distancia":1631},{"nome":"Teatro Ziembinski","distancia":1145}]},{"linha":"229","descricao_ponto":"Rua Conde De Bonfim próximo ao 189","sequencia":"21","latitude":"-22.9233","longitude":"-43.2301","pontos_turisticos":[{"nome":"Estádio do Maracanã","distancia":1083},{"nome":"Teatro Noel Rosa","distancia":1596},{"nome":"Teatro Odylo Costa Filho","distancia":1503},{"nome":"Teatro Ziembinski","distancia":685}]},{"linha":"229","descricao_ponto":"Rua Conde De Bonfim próximo ao 193","sequencia":"22","latitude":"-22.9242","longitude":"-43.2279","pontos_turisticos":[{"nome":"Estádio do Maracanã","distancia":1222},{"nome":"Teatro Noel Rosa","distancia":1798},{"nome":"Teatro Odylo Costa Filho","distancia":1682},{"nome":"Teatro Ziembinski","distancia":545}]},{"linha":"229","descricao_ponto":"BRS 1, 2, 3, 4 - CRUZ VERMELHA","sequencia":"36","latitude":"-22.9122","longitude":"-43.1893","pontos_turisticos":[{"nome":"Academia Brasileira de Letras","distancia":1679},{"nome":"Arcos da Lapa","distancia":965},{"nome":"Biblioteca Nacional","distancia":1420},{"nome":"Campo de Santana","distancia":623},{"nome":"Casa França Brasil","distancia":1893},{"nome":"Catedral Metropolitana","distancia":890},{"nome":"Centro Cultural Banco do Brasil","distancia":1837},{"nome":"Centro Cultural dos Correios","distancia":1836},{"nome":"Confeitaria Colombo","distancia":1324},{"nome":"Espaço Cultural da Marinha","distancia":1960},{"nome":"Igreja de São Francisco da Penitência","distancia":1185},{"nome":"Igreja e Convento de Santa Teresa","distancia":998},{"nome":"Igreja Nossa Senhora da Candelária","distancia":1747},{"nome":"Igreja Nossa Senhora da Glória do Outeiro","distancia":1753},{"nome":"Igreja Nossa Senhora do Carmo da Antiga Sé","distancia":1749},{"nome":"Memorial dos Pretos Novos","distancia":1832},{"nome":"Monumento aos Pracinhas","distancia":1633},{"nome":"Museu de Arte do Rio","distancia":1943},{"nome":"Museu da Chácara do Céu","distancia":779},{"nome":"Museu de Arte Moderna","distancia":1658},{"nome":"Museu do Clube Naval","distancia":1374},{"nome":"Museu Nacional de Belas Artes","distancia":1401},{"nome":"Paço Imperial","distancia":1816},{"nome":"Palácio Tiradentes","distancia":1787},{"nome":"Parque das Ruínas","distancia":920},{"nome":"Praça Paris","distancia":1488},{"nome":"Real Gabinete Português de Leitura","distancia":1046},{"nome":"Sala Cecília Meireles","distancia":1158},{"nome":"Sambódromo","distancia":776},{"nome":"Teatro Carlos Gomes","distancia":888},{"nome":"Teatro Dulcina","distancia":1265},{"nome":"Teatro Glauce Rocha","distancia":1400},{"nome":"Teatro João Caetano","distancia":966},{"nome":"Teatro Municipal","distancia":1359},{"nome":"Teatro Rival Petrobras","distancia":1340}]},{"linha":"229","descricao_ponto":"Rua Conde De Bonfim próximo ao 753","sequencia":"13","latitude":"-22.9336","longitude":"-43.2421","pontos_turisticos":[]},{"linha":"229","descricao_ponto":"Rua Conde De Bonfim próximo ao 570","sequencia":"22","latitude":"-22.9311","longitude":"-43.2387","pontos_turisticos":[{"nome":"Teatro Ziembinski","distancia":1889}]},{"linha":"229","descricao_ponto":"BRS 1, 2 , 3 - PRAÇA DA REPÚBLICA","sequencia":"4","latitude":"-22.9084","longitude":"-43.1867","pontos_turisticos":[{"nome":"Academia Brasileira de Letras","distancia":1433},{"nome":"Arcos da Lapa","distancia":855},{"nome":"Biblioteca Nacional","distancia":1138},{"nome":"Campo de Santana","distancia":255},{"nome":"Casa França Brasil","distancia":1413},{"nome":"Catedral Metropolitana","distancia":671},{"nome":"Centro Cultural Banco do Brasil","distancia":1356},{"nome":"Centro Cultural dos Correios","distancia":1365},{"nome":"Cidade do Samba","distancia":1887},{"nome":"Confeitaria Colombo","distancia":881},{"nome":"Espaço Cultural da Marinha","distancia":1496},{"nome":"Igreja de São Francisco da Penitência","distancia":780},{"nome":"Igreja e Convento de Santa Teresa","distancia":1039},{"nome":"Igreja Nossa Senhora da Candelária","distancia":1260},{"nome":"Igreja Nossa Senhora da Glória do Outeiro","distancia":1849},{"nome":"Igreja Nossa Senhora do Carmo da Antiga Sé","distancia":1304},{"nome":"Memorial dos Pretos Novos","distancia":1513},{"nome":"Monumento aos Pracinhas","distancia":1577},{"nome":"Mosteiro de São Bento","distancia":1579},{"nome":"Museu de Arte do Rio","distancia":1451},{"nome":"Museu da Chácara do Céu","distancia":1029},{"nome":"Museu de Arte Moderna","distancia":1508},{"nome":"Museu do Clube Naval","distancia":1033},{"nome":"Museu Histórico Nacional","distancia":1796},{"nome":"Museu Nacional de Belas Artes","distancia":1088},{"nome":"Paço Imperial","distancia":1383},{"nome":"Palácio Tiradentes","distancia":1364},{"nome":"Parque das Ruínas","distancia":1107},{"nome":"Praça Paris","distancia":1484},{"nome":"Real Gabinete Português de Leitura","distancia":567},{"nome":"Sala Cecília Meireles","distancia":1091},{"nome":"Sambódromo","distancia":1093},{"nome":"Teatro Carlos Gomes","distancia":448},{"nome":"Teatro Dulcina","distancia":1020},{"nome":"Teatro Glauce Rocha","distancia":1029},{"nome":"Teatro João Caetano","distancia":504},{"nome":"Teatro Municipal","distancia":1062},{"nome":"Teatro Rival Petrobras","distancia":1113}]},{"linha":"229","descricao_ponto":"Rua Conde De Bonfim próximo ao 758","sequencia":"25","latitude":"-22.9339","longitude":"-43.2424","pontos_turisticos":[]},{"linha":"229","descricao_ponto":"Rua Conde De Bonfim próximo ao 665","sequencia":"14","latitude":"-22.9323","longitude":"-43.2407","pontos_turisticos":[]},{"linha":"229","descricao_ponto":"BRS 1, 2 - REPÚBLICA DO PARAGUAI","sequencia":"38","latitude":"-22.9091","longitude":"-43.18","pontos_turisticos":[{"nome":"Academia Brasileira de Letras","distancia":747},{"nome":"Arcos da Lapa","distancia":419},{"nome":"Biblioteca Nacional","distancia":448},{"nome":"Campo de Santana","distancia":895},{"nome":"Casa França Brasil","distancia":1052},{"nome":"Catedral Metropolitana","distancia":212},{"nome":"Centro Cultural Banco do Brasil","distancia":1010},{"nome":"Centro Cultural dos Correios","distancia":967},{"nome":"Confeitaria Colombo","distancia":445},{"nome":"Espaço Cultural da Marinha","distancia":1057},{"nome":"Igreja de São Francisco da Penitência","distancia":255},{"nome":"Igreja e Convento de Santa Teresa","distancia":730},{"nome":"Igreja Nossa Senhora da Candelária","distancia":961},{"nome":"Igreja Nossa Senhora da Glória do Outeiro","distancia":1441},{"nome":"Igreja Nossa Senhora do Carmo da Antiga Sé","distancia":812},{"nome":"Ilha Fiscal","distancia":1962},{"nome":"Memorial dos Pretos Novos","distancia":1965},{"nome":"Monumento aos Pracinhas","distancia":1023},{"nome":"Mosteiro de São Bento","distancia":1391},{"nome":"Museu de Arte do Rio","distancia":1448},{"nome":"Museu da Chácara do Céu","distancia":1010},{"nome":"Museu da República","distancia":1900},{"nome":"Museu de Arte Moderna","distancia":871},{"nome":"Museu de Folclore Edison Carneiro","distancia":1921},{"nome":"Museu do Clube Naval","distancia":361},{"nome":"Museu Histórico Nacional","distancia":1151},{"nome":"Museu Nacional de Belas Artes","distancia":400},{"nome":"Paço Imperial","distancia":852},{"nome":"Palácio Tiradentes","distancia":811},{"nome":"Parque das Ruínas","distancia":974},{"nome":"Praça Paris","distancia":999},{"nome":"Real Gabinete Português de Leitura","distancia":461},{"nome":"Sala Cecília Meireles","distancia":611},{"nome":"Sambódromo","distancia":1745},{"nome":"Teatro Carlos Gomes","distancia":332},{"nome":"Teatro Dulcina","distancia":350},{"nome":"Teatro Glauce Rocha","distancia":393},{"nome":"Teatro Glória","distancia":1714},{"nome":"Teatro João Caetano","distancia":382},{"nome":"Teatro Municipal","distancia":371},{"nome":"Teatro Rival Petrobras","distancia":448}]},{"linha":"229","descricao_ponto":"Rua Conde De Bonfim próximo ao 469","sequencia":"19","latitude":"-22.9274","longitude":"-43.236","pontos_turisticos":[{"nome":"Estádio do Maracanã","distancia":1615},{"nome":"Teatro Noel Rosa","distancia":1861},{"nome":"Teatro Odylo Costa Filho","distancia":1876},{"nome":"Teatro Ziembinski","distancia":1430}]},{"linha":"229","descricao_ponto":"Rua Conde De Bonfim próximo ao 862","sequencia":"11","latitude":"-22.9364","longitude":"-43.2451","pontos_turisticos":[]},{"linha":"229","descricao_ponto":"BRS 1A, 2A, 4 - PAULO DE FRONTIN","sequencia":"31","latitude":"-22.9164","longitude":"-43.2095","pontos_turisticos":[{"nome":"Quinta da Boa Vista/Museu Nacional","distancia":1992},{"nome":"Sambódromo","distancia":1408},{"nome":"Teatro Ziembinski","distancia":1561}]}]