[{"linha":"2310","descricao_ponto":"AV. BRASIL (PISTA CENTRAL), PRÓXIMO A RUA SANTOS LIMA","sequencia":"67","latitude":"-22.8948","longitude":"-43.2153","pontos_turisticos":[{"nome":"Centro Luiz Gonzaga de Tradições Nordestinas","distancia":470},{"nome":"Cidade do Samba","distancia":1874},{"nome":"Jardim Zoológico (Riozoo)","distancia":1748},{"nome":"Quinta da Boa Vista/Museu Nacional","distancia":1537},{"nome":"Teatro Mário Lago","distancia":749}]},{"linha":"2310","descricao_ponto":"Avenida Brasil próximo ao 20971","sequencia":"59","latitude":"-22.834","longitude":"-43.3586","pontos_turisticos":[]},{"linha":"2310","descricao_ponto":"Avenida Brasil próximo ao 19405","sequencia":"63","latitude":"-22.83","longitude":"-43.3479","pontos_turisticos":[]},{"linha":"2310","descricao_ponto":"Avenida Francisco Bicalho próximo ao 234","sequencia":"69","latitude":"-22.9034","longitude":"-43.2104","pontos_turisticos":[{"nome":"Centro Luiz Gonzaga de Tradições Nordestinas","distancia":1173},{"nome":"Cidade do Samba","distancia":1702},{"nome":"Jardim Zoológico (Riozoo)","distancia":1890},{"nome":"Memorial dos Pretos Novos","distancia":1964},{"nome":"Quinta da Boa Vista/Museu Nacional","distancia":1501},{"nome":"Sambódromo","distancia":1654},{"nome":"Teatro Mário Lago","distancia":1170}]},{"linha":"2310","descricao_ponto":"Avenida Brasil próximo ao 19001","sequencia":"65","latitude":"-22.8281","longitude":"-43.3429","pontos_turisticos":[]},{"linha":"2310","descricao_ponto":"Avenida Francisco Bicalho próximo ao 337","sequencia":"68","latitude":"-22.9003","longitude":"-43.2106","pontos_turisticos":[{"nome":"Centro Luiz Gonzaga de Tradições Nordestinas","distancia":976},{"nome":"Cidade do Samba","distancia":1541},{"nome":"Jardim Zoológico (Riozoo)","distancia":1921},{"nome":"Memorial dos Pretos Novos","distancia":1867},{"nome":"Quinta da Boa Vista/Museu Nacional","distancia":1571},{"nome":"Sambódromo","distancia":1879},{"nome":"Teatro Mário Lago","distancia":1058}]},{"linha":"2310","descricao_ponto":"Rua Rio Da Prata próximo ao 136","sequencia":"8","latitude":"-22.8863","longitude":"-43.48","pontos_turisticos":[{"nome":"Parque Municipal Fazenda do Viegas","distancia":526}]},{"linha":"2310","descricao_ponto":"Avenida Brasil próximo ao 32045","sequencia":"35","latitude":"-22.8593","longitude":"-43.461","pontos_turisticos":[]},{"linha":"2310","descricao_ponto":"BRS 4, 5 - PRAÇA ONZE","sequencia":"72","latitude":"-22.9086","longitude":"-43.2013","pontos_turisticos":[{"nome":"Campo de Santana","distancia":1345},{"nome":"Cidade do Samba","distancia":1645},{"nome":"Memorial dos Pretos Novos","distancia":1634},{"nome":"Real Gabinete Português de Leitura","distancia":1990},{"nome":"Sambódromo","distancia":557},{"nome":"Teatro Carlos Gomes","distancia":1930},{"nome":"Teatro João Caetano","distancia":1963}]},{"linha":"2310","descricao_ponto":"Avenida Brasil próximo ao 2373","sequencia":"53","latitude":"-22.8458","longitude":"-43.3784","pontos_turisticos":[]},{"linha":"2310","descricao_ponto":"Avenida Brasil próximo ao 20971","sequencia":"58","latitude":"-22.837","longitude":"-43.3636","pontos_turisticos":[]},{"linha":"2310","descricao_ponto":"Avenida Brasil próximo ao 20001","sequencia":"62","latitude":"-22.8314","longitude":"-43.3512","pontos_turisticos":[]},{"linha":"2310","descricao_ponto":"Avenida Brasil próximo ao 3099","sequencia":"38","latitude":"-22.8614","longitude":"-43.4491","pontos_turisticos":[]},{"linha":"2310","descricao_ponto":"Alca Avenida Brasil próximo ao 99","sequencia":"51","latitude":"-22.8489","longitude":"-43.3831","pontos_turisticos":[]},{"linha":"2310","descricao_ponto":"Rua Paulo Rola próximo ao 248","sequencia":"5","latitude":"-22.8897","longitude":"-43.4808","pontos_turisticos":[{"nome":"Parque Municipal Fazenda do Viegas","distancia":649}]},{"linha":"2310","descricao_ponto":"Rua Dos Acudes próximo ao 495","sequencia":"15","latitude":"-22.8804","longitude":"-43.4688","pontos_turisticos":[{"nome":"Parque Municipal Fazenda do Viegas","distancia":1752}]},{"linha":"2310","descricao_ponto":"Rua Coronel Tamarindo próximo ao 2341","sequencia":"23","latitude":"-22.8753","longitude":"-43.4709","pontos_turisticos":[{"nome":"Parque Municipal Fazenda do Viegas","distancia":1829}]},{"linha":"2310","descricao_ponto":"Avenida Brasil próximo ao 27101","sequencia":"45","latitude":"-22.8656","longitude":"-43.4225","pontos_turisticos":[]},{"linha":"2310","descricao_ponto":"Avenida Brasil próximo ao 20431","sequencia":"60","latitude":"-22.8331","longitude":"-43.3562","pontos_turisticos":[]},{"linha":"2310","descricao_ponto":"Rua Cairo próximo ao 282","sequencia":"7","latitude":"-22.8874","longitude":"-43.4805","pontos_turisticos":[{"nome":"Parque Municipal Fazenda do Viegas","distancia":517}]},{"linha":"2310","descricao_ponto":"Rua Silva Cardoso próximo ao 49","sequencia":"19","latitude":"-22.8768","longitude":"-43.4637","pontos_turisticos":[]},{"linha":"2310","descricao_ponto":"Avenida De Santa Cruz próximo ao 4415","sequencia":"20","latitude":"-22.8755","longitude":"-43.4654","pontos_turisticos":[]},{"linha":"2310","descricao_ponto":"Rua Da Chita próximo ao 41","sequencia":"27","latitude":"-22.8745","longitude":"-43.4637","pontos_turisticos":[]},{"linha":"2310","descricao_ponto":"Avenida Brasil próximo ao 26785","sequencia":"46","latitude":"-22.8618","longitude":"-43.4109","pontos_turisticos":[]},{"linha":"2310","descricao_ponto":"Rua Rio Da Prata próximo ao 968","sequencia":"13","latitude":"-22.886","longitude":"-43.4698","pontos_turisticos":[{"nome":"Parque Municipal Fazenda do Viegas","distancia":1562}]},{"linha":"2310","descricao_ponto":"Avenida Francisco Bicalho próximo ao 344","sequencia":"70","latitude":"-22.9081","longitude":"-43.2099","pontos_turisticos":[{"nome":"Centro Luiz Gonzaga de Tradições Nordestinas","distancia":1585},{"nome":"Jardim Zoológico (Riozoo)","distancia":1981},{"nome":"Quinta da Boa Vista/Museu Nacional","distancia":1563},{"nome":"Sambódromo","distancia":1389},{"nome":"Teatro Mário Lago","distancia":1498}]},{"linha":"2310","descricao_ponto":"Rua Paulo Rola próximo ao 289","sequencia":"4","latitude":"-22.8905","longitude":"-43.4824","pontos_turisticos":[{"nome":"Parque Municipal Fazenda do Viegas","distancia":632}]},{"linha":"2310","descricao_ponto":"Rua Coronel Tamarindo próximo ao 2067","sequencia":"25","latitude":"-22.8751","longitude":"-43.4676","pontos_turisticos":[]},{"linha":"2310","descricao_ponto":"Rua Rio Da Prata próximo ao 1464","sequencia":"11","latitude":"-22.8861","longitude":"-43.4755","pontos_turisticos":[{"nome":"Parque Municipal Fazenda do Viegas","distancia":980}]},{"linha":"2310","descricao_ponto":"Avenida Brasil próximo ao 29689","sequencia":"39","latitude":"-22.862","longitude":"-43.446","pontos_turisticos":[]},{"linha":"2310","descricao_ponto":"Avenida Brasil próximo ao 21887","sequencia":"56","latitude":"-22.8415","longitude":"-43.3713","pontos_turisticos":[]},{"linha":"2310","descricao_ponto":"Avenida Brasil próximo ao 20001","sequencia":"61","latitude":"-22.8325","longitude":"-43.3547","pontos_turisticos":[]},{"linha":"2310","descricao_ponto":"Rua Francisco Teotonio próximo ao 199","sequencia":"3","latitude":"-22.8921","longitude":"-43.485","pontos_turisticos":[{"nome":"Parque Municipal Fazenda do Viegas","distancia":750}]},{"linha":"2310","descricao_ponto":"Avenida Brasil próximo ao 31425","sequencia":"36","latitude":"-22.8599","longitude":"-43.4576","pontos_turisticos":[]},{"linha":"2310","descricao_ponto":"Rua Rio Da Prata próximo ao 1635","sequencia":"9","latitude":"-22.8862","longitude":"-43.4782","pontos_turisticos":[{"nome":"Parque Municipal Fazenda do Viegas","distancia":706}]},{"linha":"2310","descricao_ponto":"Rua Silva Cardoso próximo ao 347","sequencia":"18","latitude":"-22.8787","longitude":"-43.4636","pontos_turisticos":[]},{"linha":"2310","descricao_ponto":"Avenida Ministro Ary Franco próximo ao 947","sequencia":"31","latitude":"-22.8665","longitude":"-43.465","pontos_turisticos":[]},{"linha":"2310","descricao_ponto":"Avenida Brasil próximo ao 31425","sequencia":"37","latitude":"-22.8607","longitude":"-43.4529","pontos_turisticos":[]},{"linha":"2310","descricao_ponto":"Avenida Brasil próximo ao 22935","sequencia":"54","latitude":"-22.8447","longitude":"-43.3766","pontos_turisticos":[]},{"linha":"2310","descricao_ponto":"BRS 5, I - PRAÇA DA REPÚBLICA","sequencia":"74","latitude":"-22.9044","longitude":"-43.1887","pontos_turisticos":[{"nome":"Academia Brasileira de Letras","distancia":1765},{"nome":"Arcos da Lapa","distancia":1303},{"nome":"Biblioteca Nacional","distancia":1460},{"nome":"Campo de Santana","distancia":255},{"nome":"Casa França Brasil","distancia":1376},{"nome":"Catedral Metropolitana","distancia":1090},{"nome":"Centro Cultural Banco do Brasil","distancia":1317},{"nome":"Centro Cultural dos Correios","distancia":1362},{"nome":"Cidade do Samba","distancia":1406},{"nome":"Confeitaria Colombo","distancia":1018},{"nome":"Espaço Cultural da Marinha","distancia":1506},{"nome":"Igreja de São Francisco da Penitência","distancia":1006},{"nome":"Igreja e Convento de Santa Teresa","distancia":1518},{"nome":"Igreja Nossa Senhora da Candelária","distancia":1204},{"nome":"Igreja Nossa Senhora do Carmo da Antiga Sé","distancia":1382},{"nome":"Memorial dos Pretos Novos","distancia":1024},{"nome":"Mosteiro de São Bento","distancia":1397},{"nome":"Museu de Arte do Rio","distancia":1160},{"nome":"Museu da Chácara do Céu","distancia":1513},{"nome":"Museu de Arte Moderna","distancia":1901},{"nome":"Museu do Clube Naval","distancia":1307},{"nome":"Museu Histórico Nacional","distancia":1977},{"nome":"Museu Nacional de Belas Artes","distancia":1385},{"nome":"Paço Imperial","distancia":1482},{"nome":"Palácio Tiradentes","distancia":1483},{"nome":"Parque das Ruínas","distancia":1597},{"nome":"Praça Paris","distancia":1942},{"nome":"Real Gabinete Português de Leitura","distancia":679},{"nome":"Sala Cecília Meireles","distancia":1540},{"nome":"Sambódromo","distancia":1146},{"nome":"Teatro Carlos Gomes","distancia":707},{"nome":"Teatro Dulcina","distancia":1383},{"nome":"Teatro Glauce Rocha","distancia":1267},{"nome":"Teatro João Caetano","distancia":693},{"nome":"Teatro Municipal","distancia":1378},{"nome":"Teatro Rival Petrobras","distancia":1481}]},{"linha":"2310","descricao_ponto":"Rua Rio Da Prata próximo ao 1692","sequencia":"10","latitude":"-22.8862","longitude":"-43.4766","pontos_turisticos":[{"nome":"Parque Municipal Fazenda do Viegas","distancia":869}]},{"linha":"2310","descricao_ponto":"Avenida Brasil próximo ao 29503","sequencia":"43","latitude":"-22.8643","longitude":"-43.4329","pontos_turisticos":[]},{"linha":"2310","descricao_ponto":"Avenida Brasil próximo ao 23377","sequencia":"48","latitude":"-22.8535","longitude":"-43.3943","pontos_turisticos":[]},{"linha":"2310","descricao_ponto":"Avenida Brasil próximo ao S/n","sequencia":"50","latitude":"-22.8503","longitude":"-43.3847","pontos_turisticos":[]},{"linha":"2310","descricao_ponto":"Avenida Brasil próximo ao 29663","sequencia":"40","latitude":"-22.8629","longitude":"-43.4408","pontos_turisticos":[]},{"linha":"2310","descricao_ponto":"Avenida Brasil próximo ao 25039","sequencia":"47","latitude":"-22.8574","longitude":"-43.4022","pontos_turisticos":[]},{"linha":"2310","descricao_ponto":"Rua Rio Da Prata próximo ao 1531","sequencia":"12","latitude":"-22.886","longitude":"-43.4716","pontos_turisticos":[{"nome":"Parque Municipal Fazenda do Viegas","distancia":1378}]},{"linha":"2310","descricao_ponto":"Avenida De Santa Cruz próximo ao 4447","sequencia":"21","latitude":"-22.8756","longitude":"-43.4682","pontos_turisticos":[]},{"linha":"2310","descricao_ponto":"Avenida Doutra Maria Estrela próximo ao 202","sequencia":"34","latitude":"-22.8596","longitude":"-43.4652","pontos_turisticos":[]},{"linha":"2310","descricao_ponto":"Rua Coronel Tamarindo próximo ao 1809","sequencia":"26","latitude":"-22.8751","longitude":"-43.4657","pontos_turisticos":[]},{"linha":"2310","descricao_ponto":"Avenida Brasil próximo ao 24277","sequencia":"49","latitude":"-22.8525","longitude":"-43.3911","pontos_turisticos":[]},{"linha":"2310","descricao_ponto":"BRS 1, 2, 3, 4, 5, I - CIDADE NOVA","sequencia":"71","latitude":"-22.9101","longitude":"-43.206","pontos_turisticos":[{"nome":"Campo de Santana","distancia":1849},{"nome":"Cidade do Samba","distancia":1980},{"nome":"Sambódromo","distancia":951},{"nome":"Teatro Mário Lago","distancia":1947}]},{"linha":"2310","descricao_ponto":"Rua Dos Acudes próximo ao 790","sequencia":"14","latitude":"-22.883","longitude":"-43.4688","pontos_turisticos":[{"nome":"Parque Municipal Fazenda do Viegas","distancia":1683}]},{"linha":"2310","descricao_ponto":"BRS 2 - OUVIDOR","sequencia":"76","latitude":"-22.9035","longitude":"-43.1783","pontos_turisticos":[{"nome":"Academia Brasileira de Letras","distancia":985},{"nome":"Arcos da Lapa","distancia":1055},{"nome":"Biblioteca Nacional","distancia":747},{"nome":"Campo de Santana","distancia":1086},{"nome":"Casa França Brasil","distancia":419},{"nome":"Catedral Metropolitana","distancia":858},{"nome":"Centro Cultural Banco do Brasil","distancia":370},{"nome":"Centro Cultural dos Correios","distancia":352},{"nome":"Confeitaria Colombo","distancia":201},{"nome":"Espaço Cultural da Marinha","distancia":477},{"nome":"Igreja de São Francisco da Penitência","distancia":391},{"nome":"Igreja e Convento de Santa Teresa","distancia":1367},{"nome":"Igreja Nossa Senhora da Candelária","distancia":315},{"nome":"Igreja Nossa Senhora do Carmo da Antiga Sé","distancia":312},{"nome":"Ilha Fiscal","distancia":1446},{"nome":"Memorial dos Pretos Novos","distancia":1714},{"nome":"Monumento aos Pracinhas","distancia":1509},{"nome":"Mosteiro de São Bento","distancia":752},{"nome":"Museu de Arte do Rio","distancia":887},{"nome":"Museu da Chácara do Céu","distancia":1651},{"nome":"Museu de Arte Moderna","distancia":1260},{"nome":"Museu do Clube Naval","distancia":548},{"nome":"Museu Histórico Nacional","distancia":935},{"nome":"Museu Nacional de Belas Artes","distancia":641},{"nome":"Paço Imperial","distancia":413},{"nome":"Palácio Tiradentes","distancia":423},{"nome":"Parque das Ruínas","distancia":1620},{"nome":"Praça Paris","distancia":1547},{"nome":"Real Gabinete Português de Leitura","distancia":453},{"nome":"Sala Cecília Meireles","distancia":1206},{"nome":"Teatro Carlos Gomes","distancia":598},{"nome":"Teatro Dulcina","distancia":811},{"nome":"Teatro Glauce Rocha","distancia":449},{"nome":"Teatro João Caetano","distancia":520},{"nome":"Teatro Municipal","distancia":684},{"nome":"Teatro Rival Petrobras","distancia":881}]},{"linha":"2310","descricao_ponto":"Rua Francisco Teotonio próximo ao 473","sequencia":"2","latitude":"-22.8939","longitude":"-43.4846","pontos_turisticos":[{"nome":"Parque Municipal Fazenda do Viegas","distancia":951}]},{"linha":"2310","descricao_ponto":"Rua Sul America próximo ao 273","sequencia":"28","latitude":"-22.8734","longitude":"-43.4648","pontos_turisticos":[]},{"linha":"2310","descricao_ponto":"Avenida Brasil próximo ao 17719","sequencia":"66","latitude":"-22.8272","longitude":"-43.3401","pontos_turisticos":[]},{"linha":"2310","descricao_ponto":"Avenida Brasil próximo ao","sequencia":"64","latitude":"-22.8294","longitude":"-43.3465","pontos_turisticos":[]},{"linha":"2310","descricao_ponto":"BRS 5,I - CENTRAL","sequencia":"73","latitude":"-22.9061","longitude":"-43.1941","pontos_turisticos":[{"nome":"Arcos da Lapa","distancia":1637},{"nome":"Biblioteca Nacional","distancia":1929},{"nome":"Campo de Santana","distancia":594},{"nome":"Casa França Brasil","distancia":1961},{"nome":"Catedral Metropolitana","distancia":1469},{"nome":"Centro Cultural Banco do Brasil","distancia":1902},{"nome":"Centro Cultural dos Correios","distancia":1945},{"nome":"Cidade do Samba","distancia":1342},{"nome":"Confeitaria Colombo","distancia":1570},{"nome":"Igreja de São Francisco da Penitência","distancia":1523},{"nome":"Igreja e Convento de Santa Teresa","distancia":1768},{"nome":"Igreja Nossa Senhora da Candelária","distancia":1788},{"nome":"Igreja Nossa Senhora do Carmo da Antiga Sé","distancia":1955},{"nome":"Memorial dos Pretos Novos","distancia":1121},{"nome":"Mosteiro de São Bento","distancia":1960},{"nome":"Museu de Arte do Rio","distancia":1680},{"nome":"Museu da Chácara do Céu","distancia":1614},{"nome":"Museu do Clube Naval","distancia":1806},{"nome":"Museu Nacional de Belas Artes","distancia":1870},{"nome":"Parque das Ruínas","distancia":1745},{"nome":"Real Gabinete Português de Leitura","distancia":1224},{"nome":"Sala Cecília Meireles","distancia":1866},{"nome":"Sambódromo","distancia":660},{"nome":"Teatro Carlos Gomes","distancia":1193},{"nome":"Teatro Dulcina","distancia":1819},{"nome":"Teatro Glauce Rocha","distancia":1784},{"nome":"Teatro João Caetano","distancia":1210},{"nome":"Teatro Municipal","distancia":1851},{"nome":"Teatro Rival Petrobras","distancia":1913}]},{"linha":"2310","descricao_ponto":"Rua Oscar Schade próximo ao 802","sequencia":"1","latitude":"-22.8954","longitude":"-43.4864","pontos_turisticos":[{"nome":"Parque Municipal Fazenda do Viegas","distancia":1125}]},{"linha":"2310","descricao_ponto":"Rua Coronel Tamarindo próximo ao 2179","sequencia":"24","latitude":"-22.8753","longitude":"-43.4691","pontos_turisticos":[{"nome":"Parque Municipal Fazenda do Viegas","distancia":1978}]},{"linha":"2310","descricao_ponto":"Avenida Brasil próximo ao 29627","sequencia":"41","latitude":"-22.8635","longitude":"-43.4379","pontos_turisticos":[]},{"linha":"2310","descricao_ponto":"Avenida Brasil próximo ao 29579","sequencia":"42","latitude":"-22.8638","longitude":"-43.4358","pontos_turisticos":[]},{"linha":"2310","descricao_ponto":"Avenida Brasil próximo ao 22253","sequencia":"55","latitude":"-22.843","longitude":"-43.3738","pontos_turisticos":[]},{"linha":"2310","descricao_ponto":"Avenida Ministro Ary Franco próximo ao 1174","sequencia":"32","latitude":"-22.8644","longitude":"-43.4651","pontos_turisticos":[]},{"linha":"2310","descricao_ponto":"Avenida Brasil próximo ao 21315","sequencia":"57","latitude":"-22.8395","longitude":"-43.3681","pontos_turisticos":[]},{"linha":"2310","descricao_ponto":"Avenida Doutra Maria Estrela próximo ao 32207","sequencia":"33","latitude":"-22.8605","longitude":"-43.4653","pontos_turisticos":[]},{"linha":"2310","descricao_ponto":"Avenida Brasil próximo ao 28783","sequencia":"44","latitude":"-22.8659","longitude":"-43.4257","pontos_turisticos":[]},{"linha":"2310","descricao_ponto":"Viaduto Bangu próximo ao 197","sequencia":"22","latitude":"-22.8758","longitude":"-43.4728","pontos_turisticos":[{"nome":"Parque Municipal Fazenda do Viegas","distancia":1643}]},{"linha":"2310","descricao_ponto":"Rua Cairo próximo ao 21","sequencia":"6","latitude":"-22.8885","longitude":"-43.4802","pontos_turisticos":[{"nome":"Parque Municipal Fazenda do Viegas","distancia":606}]},{"linha":"2310","descricao_ponto":"Avenida Brasil próximo ao 3367","sequencia":"52","latitude":"-22.8471","longitude":"-43.3804","pontos_turisticos":[]},{"linha":"2310","descricao_ponto":"Rua Da Feira próximo ao 1969","sequencia":"16","latitude":"-22.8801","longitude":"-43.4674","pontos_turisticos":[{"nome":"Parque Municipal Fazenda do Viegas","distancia":1898}]},{"linha":"2310","descricao_ponto":"Rua Francisco Real próximo ao 1869","sequencia":"17","latitude":"-22.8796","longitude":"-43.4647","pontos_turisticos":[]},{"linha":"2310","descricao_ponto":"Avenida Ministro Ary Franco próximo ao 495","sequencia":"30","latitude":"-22.8704","longitude":"-43.465","pontos_turisticos":[]},{"linha":"2310","descricao_ponto":"Nome do ponto nao identificado","sequencia":"75","latitude":"-22.9028","longitude":"-43.1831","pontos_turisticos":[{"nome":"Academia Brasileira de Letras","distancia":1372},{"nome":"Arcos da Lapa","distancia":1166},{"nome":"Biblioteca Nacional","distancia":1085},{"nome":"Campo de Santana","distancia":687},{"nome":"Casa França Brasil","distancia":776},{"nome":"Catedral Metropolitana","distancia":931},{"nome":"Centro Cultural Banco do Brasil","distancia":717},{"nome":"Centro Cultural dos Correios","distancia":762},{"nome":"Cidade do Samba","distancia":1708},{"nome":"Confeitaria Colombo","distancia":518},{"nome":"Espaço Cultural da Marinha","distancia":907},{"nome":"Igreja de São Francisco da Penitência","distancia":603},{"nome":"Igreja e Convento de Santa Teresa","distancia":1458},{"nome":"Igreja Nossa Senhora da Candelária","distancia":604},{"nome":"Igreja Nossa Senhora do Carmo da Antiga Sé","distancia":804},{"nome":"Ilha Fiscal","distancia":1858},{"nome":"Memorial dos Pretos Novos","distancia":1257},{"nome":"Monumento aos Pracinhas","distancia":1782},{"nome":"Mosteiro de São Bento","distancia":859},{"nome":"Museu de Arte do Rio","distancia":750},{"nome":"Museu da Chácara do Céu","distancia":1621},{"nome":"Museu de Arte Moderna","distancia":1590},{"nome":"Museu do Clube Naval","distancia":894},{"nome":"Museu Histórico Nacional","distancia":1432},{"nome":"Museu Nacional de Belas Artes","distancia":987},{"nome":"Paço Imperial","distancia":909},{"nome":"Palácio Tiradentes","distancia":920},{"nome":"Parque das Ruínas","distancia":1643},{"nome":"Praça Paris","distancia":1768},{"nome":"Real Gabinete Português de Leitura","distancia":311},{"nome":"Sala Cecília Meireles","distancia":1377},{"nome":"Sambódromo","distancia":1706},{"nome":"Teatro Carlos Gomes","distancia":495},{"nome":"Teatro Dulcina","distancia":1075},{"nome":"Teatro Glauce Rocha","distancia":820},{"nome":"Teatro João Caetano","distancia":408},{"nome":"Teatro Municipal","distancia":1005},{"nome":"Teatro Rival Petrobras","distancia":1167}]},{"linha":"2310","descricao_ponto":"Terminal Jamil Amiden (AV. Chile) - Ponto A4","sequencia":"77","latitude":"-22.9089","longitude":"-43.1795","pontos_turisticos":[{"nome":"Academia Brasileira de Letras","distancia":704},{"nome":"Arcos da Lapa","distancia":443},{"nome":"Biblioteca Nacional","distancia":402},{"nome":"Campo de Santana","distancia":938},{"nome":"Casa França Brasil","distancia":1012},{"nome":"Catedral Metropolitana","distancia":254},{"nome":"Centro Cultural Banco do Brasil","distancia":972},{"nome":"Centro Cultural dos Correios","distancia":925},{"nome":"Confeitaria Colombo","distancia":412},{"nome":"Espaço Cultural da Marinha","distancia":1012},{"nome":"Igreja de São Francisco da Penitência","distancia":223},{"nome":"Igreja e Convento de Santa Teresa","distancia":756},{"nome":"Igreja Nossa Senhora da Candelária","distancia":928},{"nome":"Igreja Nossa Senhora da Glória do Outeiro","distancia":1446},{"nome":"Igreja Nossa Senhora do Carmo da Antiga Sé","distancia":764},{"nome":"Ilha Fiscal","distancia":1910},{"nome":"Memorial dos Pretos Novos","distancia":1984},{"nome":"Monumento aos Pracinhas","distancia":1012},{"nome":"Mosteiro de São Bento","distancia":1361},{"nome":"Museu de Arte do Rio","distancia":1433},{"nome":"Museu da Chácara do Céu","distancia":1052},{"nome":"Museu da República","distancia":1912},{"nome":"Museu de Arte Moderna","distancia":845},{"nome":"Museu de Folclore Edison Carneiro","distancia":1934},{"nome":"Museu do Clube Naval","distancia":306},{"nome":"Museu Histórico Nacional","distancia":1095},{"nome":"Museu Nacional de Belas Artes","distancia":349},{"nome":"Paço Imperial","distancia":801},{"nome":"Palácio Tiradentes","distancia":759},{"nome":"Parque das Ruínas","distancia":1010},{"nome":"Praça Paris","distancia":999},{"nome":"Real Gabinete Português de Leitura","distancia":470},{"nome":"Sala Cecília Meireles","distancia":620},{"nome":"Sambódromo","distancia":1799},{"nome":"Teatro Carlos Gomes","distancia":361},{"nome":"Teatro Dulcina","distancia":320},{"nome":"Teatro Glauce Rocha","distancia":337},{"nome":"Teatro Glória","distancia":1713},{"nome":"Teatro João Caetano","distancia":399},{"nome":"Teatro Municipal","distancia":323},{"nome":"Teatro Rival Petrobras","distancia":418}]},{"linha":"2310","descricao_ponto":"Avenida Ministro Ary Franco próximo ao 273","sequencia":"29","latitude":"-22.8729","longitude":"-43.4649","pontos_turisticos":[]}]