[{"linha":"2335","descricao_ponto":"Avenida Delfim Moreira próximo ao 514","sequencia":"35","latitude":"-22.9867","longitude":"-43.2207","pontos_turisticos":[{"nome":"Centro Cultural Candido Mendes","distancia":1614},{"nome":"Jardim Botânico","distancia":1778},{"nome":"Jockey Club Brasileiro","distancia":1517},{"nome":"Lagoa Rodrigo de Freitas","distancia":1942},{"nome":"Planetário","distancia":1311},{"nome":"Praia de Ipanema","distancia":1789},{"nome":"Praia do Leblon","distancia":140},{"nome":"Teatro Café Pequeno","distancia":428},{"nome":"Teatro Casa da Gávea","distancia":1546},{"nome":"Teatro Casa do Riso","distancia":786},{"nome":"Teatro Clara Nunes","distancia":1445},{"nome":"Teatro das Artes","distancia":1446},{"nome":"Teatro do Jockey","distancia":1163},{"nome":"Teatro dos Quatro","distancia":1436},{"nome":"Teatro Ipanema","distancia":1636},{"nome":"Teatro Leblon","distancia":680},{"nome":"Teatro Maria Clara Machado","distancia":1311},{"nome":"Teatro Vanucci","distancia":1450}]},{"linha":"2335","descricao_ponto":"Avenida Das Americas próximo ao 3120","sequencia":"63","latitude":"-22.9998","longitude":"-43.344","pontos_turisticos":[{"nome":"Centro Cultural Anglo Americano (Suassuna)","distancia":993},{"nome":"Teatro dos Grandes Atores","distancia":612}]},{"linha":"2335","descricao_ponto":"Avenida Das Americas próximo ao 10800","sequencia":"81","latitude":"-23.004","longitude":"-43.4286","pontos_turisticos":[]},{"linha":"2335","descricao_ponto":"Avenida Das Americas próximo ao 17250","sequencia":"92","latitude":"-23.0163","longitude":"-43.4754","pontos_turisticos":[{"nome":"Praia Recreio dos Bandeirantes","distancia":1998}]},{"linha":"2335","descricao_ponto":"Avenida Das Americas próximo ao 17432","sequencia":"96","latitude":"-23.0183","longitude":"-43.4833","pontos_turisticos":[{"nome":"Praia da Macumba","distancia":1748},{"nome":"Teatro Thiago de Mello","distancia":1898}]},{"linha":"2335","descricao_ponto":"Estrada Da Pedra próximo ao 7053","sequencia":"135","latitude":"-22.992","longitude":"-43.6509","pontos_turisticos":[]},{"linha":"2335","descricao_ponto":"BRT General Olímpio","sequencia":"6","latitude":"-22.9222","longitude":"-43.6797","pontos_turisticos":[]},{"linha":"2335","descricao_ponto":"Avenida Das Americas próximo ao 27255","sequencia":"59","latitude":"-23.0054","longitude":"-43.5579","pontos_turisticos":[]},{"linha":"2335","descricao_ponto":"Avenida Das Americas próximo ao 7685","sequencia":"88","latitude":"-23.0006","longitude":"-43.3926","pontos_turisticos":[]},{"linha":"2335","descricao_ponto":"Terminal de Santa Cruz - Ponto A3","sequencia":"2","latitude":"-22.9152","longitude":"-43.6829","pontos_turisticos":[]},{"linha":"2335","descricao_ponto":"BRT Mato Alto - Alimentadoras","sequencia":"57","latitude":"-22.9936","longitude":"-43.5971","pontos_turisticos":[{"nome":"Capela Magdelena Roberto de Regina","distancia":1931}]},{"linha":"2335","descricao_ponto":"Avenida Das Americas próximo ao 4485","sequencia":"95","latitude":"-23.0002","longitude":"-43.3597","pontos_turisticos":[{"nome":"Bosque da Barra","distancia":1241},{"nome":"Cidade das Artes","distancia":625},{"nome":"Praia da Barra da Tijuca","distancia":1391},{"nome":"Teatro CEC Antonio Fagundes","distancia":1313},{"nome":"Teatro dos Grandes Atores","distancia":999}]},{"linha":"2335","descricao_ponto":"Avenida Niemeyer próximo ao 383","sequencia":"116","latitude":"-22.9973","longitude":"-43.2377","pontos_turisticos":[{"nome":"Praia do Leblon","distancia":1963}]},{"linha":"2335","descricao_ponto":"Avenida Atlantica próximo ao 3772","sequencia":"22","latitude":"-22.9795","longitude":"-43.1894","pontos_turisticos":[{"nome":"Casa Laura Alvin","distancia":1286},{"nome":"Casa Laura Alvin","distancia":1286},{"nome":"Centro Cultural Candido Mendes","distancia":1710},{"nome":"Forte de Copacabana","distancia":721},{"nome":"Fundação Eva Klabin Rapaport","distancia":977},{"nome":"Parque Peter Pan","distancia":492},{"nome":"Praia de Copacabana","distancia":1607},{"nome":"Praia de Ipanema","distancia":1654},{"nome":"Praia do Arpoador","distancia":1100},{"nome":"Sala Baden Powell","distancia":1644},{"nome":"Teatro Brigitte Blair","distancia":262},{"nome":"Teatro da Praia","distancia":612},{"nome":"Teatro Gláucio Gil","distancia":1798},{"nome":"Teatro Ipanema","distancia":1703}]},{"linha":"2335","descricao_ponto":"Estrada Da Pedra próximo ao S/n","sequencia":"156","latitude":"-22.936","longitude":"-43.6668","pontos_turisticos":[]},{"linha":"2335","descricao_ponto":"Estrada Da Pedra próximo ao 6257","sequencia":"31","latitude":"-22.9831","longitude":"-43.6482","pontos_turisticos":[]},{"linha":"2335","descricao_ponto":"Avenida Das Americas próximo ao 297","sequencia":"109","latitude":"-23.0055","longitude":"-43.3186","pontos_turisticos":[{"nome":"Centro Cultural Anglo Americano (Suassuna)","distancia":1692},{"nome":"Praia do Pepê","distancia":1757}]},{"linha":"2335","descricao_ponto":"Avenida Niemeyer próximo ao 383","sequencia":"117","latitude":"-22.9953","longitude":"-43.2352","pontos_turisticos":[{"nome":"Planetário","distancia":1899},{"nome":"Praia do Leblon","distancia":1627},{"nome":"Teatro Maria Clara Machado","distancia":1899}]},{"linha":"2335","descricao_ponto":"Avenida Atlantica próximo ao 1663","sequencia":"136","latitude":"-22.9689","longitude":"-43.1805","pontos_turisticos":[{"nome":"Fundação Eva Klabin Rapaport","distancia":1970},{"nome":"Parque Peter Pan","distancia":1981},{"nome":"Praia de Copacabana","distancia":147},{"nome":"Praia Leme","distancia":1559},{"nome":"Sala Baden Powell","distancia":198},{"nome":"Teatro Brigitte Blair","distancia":1492},{"nome":"Teatro do Instituto Benjamin Constant","distancia":1967},{"nome":"Teatro Gláucio Gil","distancia":391},{"nome":"Teatro Princesa Isabel","distancia":911},{"nome":"Teatro Villa Lobos","distancia":999}]},{"linha":"2335","descricao_ponto":"Nome do ponto nao identificado","sequencia":"5","latitude":"-22.9102","longitude":"-43.1739","pontos_turisticos":[{"nome":"Academia Brasileira de Letras","distancia":121},{"nome":"Arcos da Lapa","distancia":683},{"nome":"Biblioteca Nacional","distancia":189},{"nome":"Campo de Santana","distancia":1530},{"nome":"Casa França Brasil","distancia":1111},{"nome":"Catedral Metropolitana","distancia":704},{"nome":"Centro Cultural Banco do Brasil","distancia":1100},{"nome":"Centro Cultural dos Correios","distancia":1010},{"nome":"Confeitaria Colombo","distancia":745},{"nome":"Espaço Cultural da Marinha","distancia":1015},{"nome":"Igreja de São Francisco da Penitência","distancia":660},{"nome":"Igreja e Convento de Santa Teresa","distancia":894},{"nome":"Igreja Nossa Senhora da Candelária","distancia":1120},{"nome":"Igreja Nossa Senhora da Glória do Outeiro","distancia":1246},{"nome":"Igreja Nossa Senhora do Carmo da Antiga Sé","distancia":786},{"nome":"Ilha Fiscal","distancia":1676},{"nome":"Monumento aos Pracinhas","distancia":700},{"nome":"Mosteiro de São Bento","distancia":1551},{"nome":"Museu de Arte do Rio","distancia":1754},{"nome":"Museu da Chácara do Céu","distancia":1315},{"nome":"Museu da República","distancia":1762},{"nome":"Museu de Arte Moderna","distancia":408},{"nome":"Museu de Folclore Edison Carneiro","distancia":1782},{"nome":"Museu do Clube Naval","distancia":358},{"nome":"Museu Histórico Nacional","distancia":689},{"nome":"Museu Nacional de Belas Artes","distancia":267},{"nome":"Paço Imperial","distancia":741},{"nome":"Palácio Tiradentes","distancia":678},{"nome":"Parque das Ruínas","distancia":1199},{"nome":"Praça Paris","distancia":806},{"nome":"Real Gabinete Português de Leitura","distancia":997},{"nome":"Sala Cecília Meireles","distancia":640},{"nome":"Teatro Carlos Gomes","distancia":943},{"nome":"Teatro Dulcina","distancia":328},{"nome":"Teatro Glauce Rocha","distancia":436},{"nome":"Teatro Glória","distancia":1425},{"nome":"Teatro João Caetano","distancia":958},{"nome":"Teatro Municipal","distancia":270},{"nome":"Teatro Rival Petrobras","distancia":266}]},{"linha":"2335","descricao_ponto":"BRS 3, I - APOLLO ONZE","sequencia":"26","latitude":"-22.9862","longitude":"-43.1954","pontos_turisticos":[{"nome":"Casa Laura Alvin","distancia":397},{"nome":"Casa Laura Alvin","distancia":397},{"nome":"Centro Cultural Candido Mendes","distancia":1000},{"nome":"Forte de Copacabana","distancia":774},{"nome":"Fundação Eva Klabin Rapaport","distancia":1172},{"nome":"Parque Peter Pan","distancia":478},{"nome":"Praia de Ipanema","distancia":809},{"nome":"Praia do Arpoador","distancia":402},{"nome":"Teatro Brigitte Blair","distancia":1012},{"nome":"Teatro da Praia","distancia":355},{"nome":"Teatro Ipanema","distancia":966}]},{"linha":"2335","descricao_ponto":"Avenida Das Americas proximo ao 15600","sequencia":"86","latitude":"-23.0106","longitude":"-43.4535","pontos_turisticos":[{"nome":"Praia Recreio dos Bandeirantes","distancia":1861}]},{"linha":"2335","descricao_ponto":"Avenida Das Americas próximo ao 16755","sequencia":"93","latitude":"-23.017","longitude":"-43.4782","pontos_turisticos":[]},{"linha":"2335","descricao_ponto":"Estrada Da Matriz próximo ao 2533","sequencia":"110","latitude":"-22.9935","longitude":"-43.6098","pontos_turisticos":[]},{"linha":"2335","descricao_ponto":"Rua Felipe Cardoso próximo ao 1765","sequencia":"160","latitude":"-22.929","longitude":"-43.6757","pontos_turisticos":[]},{"linha":"2335","descricao_ponto":"Estrada Da Matriz próximo ao 1940","sequencia":"53","latitude":"-22.9949","longitude":"-43.6167","pontos_turisticos":[]},{"linha":"2335","descricao_ponto":"Avenida Das Americas próximo ao 21716","sequencia":"62","latitude":"-23.0194","longitude":"-43.5051","pontos_turisticos":[{"nome":"Museu de Arte Popular da Casa do Pontal","distancia":768},{"nome":"Teatro Thiago de Mello","distancia":353}]},{"linha":"2335","descricao_ponto":"Avenida Das Americas próximo ao 10101","sequencia":"82","latitude":"-23.0009","longitude":"-43.4163","pontos_turisticos":[]},{"linha":"2335","descricao_ponto":"Avenida Das Americas próximo ao 6107","sequencia":"93","latitude":"-23.0006","longitude":"-43.3762","pontos_turisticos":[{"nome":"Bosque da Barra","distancia":457},{"nome":"Cidade das Artes","distancia":1112},{"nome":"Praia da Barra da Tijuca","distancia":1567},{"nome":"Teatro CEC Antonio Fagundes","distancia":1559}]},{"linha":"2335","descricao_ponto":"Avenida Niemeyer próximo ao 204","sequencia":"40","latitude":"-22.992","longitude":"-43.2336","pontos_turisticos":[{"nome":"Planetário","distancia":1503},{"nome":"Praia do Leblon","distancia":1306},{"nome":"Teatro Café Pequeno","distancia":1844},{"nome":"Teatro Casa do Riso","distancia":1749},{"nome":"Teatro Clara Nunes","distancia":1907},{"nome":"Teatro das Artes","distancia":1889},{"nome":"Teatro do Jockey","distancia":1890},{"nome":"Teatro dos Quatro","distancia":1903},{"nome":"Teatro Leblon","distancia":1671},{"nome":"Teatro Maria Clara Machado","distancia":1503},{"nome":"Teatro Vanucci","distancia":1895}]},{"linha":"2335","descricao_ponto":"Avenida Das Americas próximo ao 10200","sequencia":"78","latitude":"-22.9998","longitude":"-43.4134","pontos_turisticos":[]},{"linha":"2335","descricao_ponto":"Estrada Da Matriz próximo ao 1355","sequencia":"118","latitude":"-22.9958","longitude":"-43.6232","pontos_turisticos":[]},{"linha":"2335","descricao_ponto":"Avenida Das Americas próximo ao 17617","sequencia":"66","latitude":"-23.019","longitude":"-43.4833","pontos_turisticos":[{"nome":"Praia da Macumba","distancia":1672},{"nome":"Teatro Thiago de Mello","distancia":1891}]},{"linha":"2335","descricao_ponto":"Avenida Das Americas próximo ao 8973","sequencia":"85","latitude":"-23.0003","longitude":"-43.4039","pontos_turisticos":[]},{"linha":"2335","descricao_ponto":"Avenida Das Americas próximo ao 7605","sequencia":"91","latitude":"-23.0007","longitude":"-43.3815","pontos_turisticos":[{"nome":"Bosque da Barra","distancia":996},{"nome":"Cidade das Artes","distancia":1648},{"nome":"Praia da Barra da Tijuca","distancia":1960},{"nome":"Teatro CEC Antonio Fagundes","distancia":1965}]},{"linha":"2335","descricao_ponto":"Avenida Das Americas próximo ao 4043","sequencia":"96","latitude":"-23.0002","longitude":"-43.3578","pontos_turisticos":[{"nome":"Bosque da Barra","distancia":1435},{"nome":"Cidade das Artes","distancia":813},{"nome":"Praia da Barra da Tijuca","distancia":1493},{"nome":"Teatro CEC Antonio Fagundes","distancia":1421},{"nome":"Teatro dos Grandes Atores","distancia":805}]},{"linha":"2335","descricao_ponto":"Avenida Das Americas próximo ao 3973","sequencia":"97","latitude":"-23.0003","longitude":"-43.3549","pontos_turisticos":[{"nome":"Bosque da Barra","distancia":1732},{"nome":"Cidade das Artes","distancia":1107},{"nome":"Praia da Barra da Tijuca","distancia":1672},{"nome":"Teatro CEC Antonio Fagundes","distancia":1626},{"nome":"Teatro dos Grandes Atores","distancia":508}]},{"linha":"2335","descricao_ponto":"Avenida Niemeyer próximo ao 2555","sequencia":"114","latitude":"-22.9989","longitude":"-43.2512","pontos_turisticos":[{"nome":"Praia de São Conrado","distancia":1817}]},{"linha":"2335","descricao_ponto":"Avenida Franklin Roosevelt próximo ao 126","sequencia":"145","latitude":"-22.9094","longitude":"-43.1704","pontos_turisticos":[{"nome":"Academia Brasileira de Letras","distancia":310},{"nome":"Arcos da Lapa","distancia":1047},{"nome":"Biblioteca Nacional","distancia":543},{"nome":"Campo de Santana","distancia":1862},{"nome":"Casa França Brasil","distancia":1153},{"nome":"Catedral Metropolitana","distancia":1071},{"nome":"Centro Cultural Banco do Brasil","distancia":1161},{"nome":"Centro Cultural dos Correios","distancia":1060},{"nome":"Confeitaria Colombo","distancia":977},{"nome":"Espaço Cultural da Marinha","distancia":1013},{"nome":"Igreja de São Francisco da Penitência","distancia":949},{"nome":"Igreja e Convento de Santa Teresa","distancia":1230},{"nome":"Igreja Nossa Senhora da Candelária","distancia":1216},{"nome":"Igreja Nossa Senhora da Glória do Outeiro","distancia":1419},{"nome":"Igreja Nossa Senhora do Carmo da Antiga Sé","distancia":847},{"nome":"Ilha Fiscal","distancia":1453},{"nome":"Monumento aos Pracinhas","distancia":873},{"nome":"Mosteiro de São Bento","distancia":1602},{"nome":"Museu de Arte do Rio","distancia":1874},{"nome":"Museu da Chácara do Céu","distancia":1661},{"nome":"Museu da República","distancia":1933},{"nome":"Museu de Arte Moderna","distancia":569},{"nome":"Museu de Folclore Edison Carneiro","distancia":1951},{"nome":"Museu do Clube Naval","distancia":651},{"nome":"Museu Histórico Nacional","distancia":439},{"nome":"Museu Nacional de Belas Artes","distancia":586},{"nome":"Paço Imperial","distancia":762},{"nome":"Palácio Tiradentes","distancia":707},{"nome":"Parque das Ruínas","distancia":1533},{"nome":"Praça Paris","distancia":1033},{"nome":"Real Gabinete Português de Leitura","distancia":1283},{"nome":"Sala Cecília Meireles","distancia":973},{"nome":"Teatro Carlos Gomes","distancia":1265},{"nome":"Teatro Dulcina","distancia":697},{"nome":"Teatro Glauce Rocha","distancia":690},{"nome":"Teatro Glória","distancia":1527},{"nome":"Teatro João Caetano","distancia":1263},{"nome":"Teatro Municipal","distancia":613},{"nome":"Teatro Rival Petrobras","distancia":633}]},{"linha":"2335","descricao_ponto":"Avenida Atlantica próximo ao 2516","sequencia":"18","latitude":"-22.9716","longitude":"-43.1845","pontos_turisticos":[{"nome":"Forte de Copacabana","distancia":1618},{"nome":"Fundação Eva Klabin Rapaport","distancia":1479},{"nome":"Parque Peter Pan","distancia":1503},{"nome":"Praia de Copacabana","distancia":646},{"nome":"Sala Baden Powell","distancia":637},{"nome":"Teatro Brigitte Blair","distancia":989},{"nome":"Teatro da Praia","distancia":1615},{"nome":"Teatro Gláucio Gil","distancia":787},{"nome":"Teatro Princesa Isabel","distancia":1414},{"nome":"Teatro Villa Lobos","distancia":1483}]},{"linha":"2335","descricao_ponto":"Avenida Delfim Moreira próximo ao 80","sequencia":"34","latitude":"-22.9863","longitude":"-43.217","pontos_turisticos":[{"nome":"Casa Laura Alvin","distancia":1818},{"nome":"Casa Laura Alvin","distancia":1818},{"nome":"Centro Cultural Candido Mendes","distancia":1233},{"nome":"Jardim Botânico","distancia":1831},{"nome":"Jockey Club Brasileiro","distancia":1646},{"nome":"Lagoa Rodrigo de Freitas","distancia":1752},{"nome":"Planetário","distancia":1590},{"nome":"Praia de Ipanema","distancia":1413},{"nome":"Praia do Leblon","distancia":515},{"nome":"Teatro Café Pequeno","distancia":292},{"nome":"Teatro Casa da Gávea","distancia":1702},{"nome":"Teatro Casa do Riso","distancia":923},{"nome":"Teatro Clara Nunes","distancia":1641},{"nome":"Teatro das Artes","distancia":1648},{"nome":"Teatro do Jockey","distancia":1315},{"nome":"Teatro dos Quatro","distancia":1633},{"nome":"Teatro Ipanema","distancia":1255},{"nome":"Teatro Leblon","distancia":838},{"nome":"Teatro Maria Clara Machado","distancia":1590},{"nome":"Teatro Vanucci","distancia":1651}]},{"linha":"2335","descricao_ponto":"Avenida Delfim Moreira próximo ao 1250","sequencia":"37","latitude":"-22.9883","longitude":"-43.2274","pontos_turisticos":[{"nome":"Jardim Botânico","distancia":1982},{"nome":"Jockey Club Brasileiro","distancia":1615},{"nome":"Planetário","distancia":1092},{"nome":"Praia do Leblon","distancia":573},{"nome":"Teatro Café Pequeno","distancia":1090},{"nome":"Teatro Casa da Gávea","distancia":1584},{"nome":"Teatro Casa do Riso","distancia":1052},{"nome":"Teatro Clara Nunes","distancia":1412},{"nome":"Teatro das Artes","distancia":1401},{"nome":"Teatro do Jockey","distancia":1282},{"nome":"Teatro dos Quatro","distancia":1405},{"nome":"Teatro Leblon","distancia":960},{"nome":"Teatro Maria Clara Machado","distancia":1091},{"nome":"Teatro Vanucci","distancia":1406}]},{"linha":"2335","descricao_ponto":"Avenida Das Americas próximo ao 1114","sequencia":"57","latitude":"-23.0027","longitude":"-43.3246","pontos_turisticos":[{"nome":"Centro Cultural Anglo Americano (Suassuna)","distancia":1020}]},{"linha":"2335","descricao_ponto":"Avenida Das Americas próximo ao 4200","sequencia":"66","latitude":"-22.9997","longitude":"-43.3517","pontos_turisticos":[{"nome":"Centro Cultural Anglo Americano (Suassuna)","distancia":1778},{"nome":"Cidade das Artes","distancia":1423},{"nome":"Praia da Barra da Tijuca","distancia":1955},{"nome":"Teatro CEC Antonio Fagundes","distancia":1834},{"nome":"Teatro dos Grandes Atores","distancia":198}]},{"linha":"2335","descricao_ponto":"Avenida Das Americas próximo ao 13000","sequencia":"83","latitude":"-23.007","longitude":"-43.4393","pontos_turisticos":[]},{"linha":"2335","descricao_ponto":"Estrada Da Pedra próximo ao 3885","sequencia":"146","latitude":"-22.9622","longitude":"-43.6484","pontos_turisticos":[]},{"linha":"2335","descricao_ponto":"Rua Lucindo Passos próximo ao 30","sequencia":"4","latitude":"-22.9197","longitude":"-43.6832","pontos_turisticos":[]},{"linha":"2335","descricao_ponto":"Estrada Da Pedra próximo ao 7053","sequencia":"35","latitude":"-22.9907","longitude":"-43.6513","pontos_turisticos":[]},{"linha":"2335","descricao_ponto":"Avenida Das Americas próximo ao 20007","sequencia":"64","latitude":"-23.021","longitude":"-43.4982","pontos_turisticos":[{"nome":"Museu de Arte Popular da Casa do Pontal","distancia":1270},{"nome":"Praia da Macumba","distancia":1867},{"nome":"Teatro Thiago de Mello","distancia":375}]},{"linha":"2335","descricao_ponto":"Avenida Das Americas próximo ao 16661","sequencia":"69","latitude":"-23.0171","longitude":"-43.4763","pontos_turisticos":[]},{"linha":"2335","descricao_ponto":"Rua Shubert Magalhaes próximo ao 777","sequencia":"108","latitude":"-23.004","longitude":"-43.3231","pontos_turisticos":[{"nome":"Centro Cultural Anglo Americano (Suassuna)","distancia":1203}]},{"linha":"2335","descricao_ponto":"Avenida Atlantica próximo ao 402","sequencia":"135","latitude":"-22.9719","longitude":"-43.1845","pontos_turisticos":[{"nome":"Forte de Copacabana","distancia":1585},{"nome":"Fundação Eva Klabin Rapaport","distancia":1468},{"nome":"Parque Peter Pan","distancia":1475},{"nome":"Praia de Copacabana","distancia":664},{"nome":"Sala Baden Powell","distancia":664},{"nome":"Teatro Brigitte Blair","distancia":965},{"nome":"Teatro da Praia","distancia":1588},{"nome":"Teatro Gláucio Gil","distancia":816},{"nome":"Teatro Princesa Isabel","distancia":1437},{"nome":"Teatro Villa Lobos","distancia":1509}]},{"linha":"2335","descricao_ponto":"Avenida Atlantica próximo ao 7","sequencia":"137","latitude":"-22.9676","longitude":"-43.1783","pontos_turisticos":[{"nome":"Pão de Açúcar","distancia":1775},{"nome":"Praia de Copacabana","distancia":138},{"nome":"Praia Leme","distancia":1295},{"nome":"Praia Vermelha","distancia":1971},{"nome":"Sala Baden Powell","distancia":243},{"nome":"Teatro Brigitte Blair","distancia":1757},{"nome":"Teatro do Instituto Benjamin Constant","distancia":1743},{"nome":"Teatro Gláucio Gil","distancia":355},{"nome":"Teatro Princesa Isabel","distancia":654},{"nome":"Teatro Villa Lobos","distancia":765}]},{"linha":"2335","descricao_ponto":"Nome do ponto nao identificado","sequencia":"4","latitude":"-22.9092","longitude":"-43.1743","pontos_turisticos":[{"nome":"Academia Brasileira de Letras","distancia":231},{"nome":"Arcos da Lapa","distancia":704},{"nome":"Biblioteca Nacional","distancia":156},{"nome":"Campo de Santana","distancia":1465},{"nome":"Casa França Brasil","distancia":994},{"nome":"Catedral Metropolitana","distancia":685},{"nome":"Centro Cultural Banco do Brasil","distancia":982},{"nome":"Centro Cultural dos Correios","distancia":893},{"nome":"Confeitaria Colombo","distancia":637},{"nome":"Espaço Cultural da Marinha","distancia":903},{"nome":"Igreja de São Francisco da Penitência","distancia":569},{"nome":"Igreja e Convento de Santa Teresa","distancia":946},{"nome":"Igreja Nossa Senhora da Candelária","distancia":1002},{"nome":"Igreja Nossa Senhora da Glória do Outeiro","distancia":1353},{"nome":"Igreja Nossa Senhora do Carmo da Antiga Sé","distancia":670},{"nome":"Ilha Fiscal","distancia":1600},{"nome":"Monumento aos Pracinhas","distancia":812},{"nome":"Mosteiro de São Bento","distancia":1433},{"nome":"Museu de Arte do Rio","distancia":1636},{"nome":"Museu da Chácara do Céu","distancia":1355},{"nome":"Museu da República","distancia":1866},{"nome":"Museu de Arte Moderna","distancia":525},{"nome":"Museu de Folclore Edison Carneiro","distancia":1886},{"nome":"Museu do Clube Naval","distancia":263},{"nome":"Museu Histórico Nacional","distancia":642},{"nome":"Museu Nacional de Belas Artes","distancia":187},{"nome":"Paço Imperial","distancia":629},{"nome":"Palácio Tiradentes","distancia":566},{"nome":"Parque das Ruínas","distancia":1250},{"nome":"Praça Paris","distancia":906},{"nome":"Real Gabinete Português de Leitura","distancia":907},{"nome":"Sala Cecília Meireles","distancia":700},{"nome":"Teatro Carlos Gomes","distancia":870},{"nome":"Teatro Dulcina","distancia":328},{"nome":"Teatro Glauce Rocha","distancia":329},{"nome":"Teatro Glória","distancia":1540},{"nome":"Teatro João Caetano","distancia":876},{"nome":"Teatro Municipal","distancia":215},{"nome":"Teatro Rival Petrobras","distancia":299}]},{"linha":"2335","descricao_ponto":"Avenida Delfim Moreira próximo ao 992","sequencia":"36","latitude":"-22.9876","longitude":"-43.2255","pontos_turisticos":[{"nome":"Jardim Botânico","distancia":1872},{"nome":"Jockey Club Brasileiro","distancia":1528},{"nome":"Planetário","distancia":1089},{"nome":"Praia do Leblon","distancia":369},{"nome":"Teatro Café Pequeno","distancia":882},{"nome":"Teatro Casa da Gávea","distancia":1513},{"nome":"Teatro Casa do Riso","distancia":905},{"nome":"Teatro Clara Nunes","distancia":1358},{"nome":"Teatro das Artes","distancia":1350},{"nome":"Teatro do Jockey","distancia":1180},{"nome":"Teatro dos Quatro","distancia":1350},{"nome":"Teatro Leblon","distancia":805},{"nome":"Teatro Maria Clara Machado","distancia":1088},{"nome":"Teatro Vanucci","distancia":1355}]},{"linha":"2335","descricao_ponto":"Avenida Das Americas próximo ao 1276","sequencia":"58","latitude":"-23.0015","longitude":"-43.3275","pontos_turisticos":[{"nome":"Centro Cultural Anglo Americano (Suassuna)","distancia":707}]},{"linha":"2335","descricao_ponto":"Estrada Da Matriz próximo ao 2011","sequencia":"113","latitude":"-22.9946","longitude":"-43.616","pontos_turisticos":[]},{"linha":"2335","descricao_ponto":"Rua Felipe Cardoso próximo ao 539","sequencia":"163","latitude":"-22.923","longitude":"-43.6794","pontos_turisticos":[]},{"linha":"2335","descricao_ponto":"Estrada Da Pedra próximo ao","sequencia":"20","latitude":"-22.9494","longitude":"-43.6522","pontos_turisticos":[]},{"linha":"2335","descricao_ponto":"Avenida Das Americas próximo ao 18001","sequencia":"67","latitude":"-23.0185","longitude":"-43.4815","pontos_turisticos":[{"nome":"Praia da Macumba","distancia":1769}]},{"linha":"2335","descricao_ponto":"Avenida Niemeyer próximo ao 705","sequencia":"115","latitude":"-23","longitude":"-43.2436","pontos_turisticos":[]},{"linha":"2335","descricao_ponto":"Estrada Da Pedra próximo ao 3301","sequencia":"148","latitude":"-22.955","longitude":"-43.6495","pontos_turisticos":[]},{"linha":"2335","descricao_ponto":"Estrada Da Pedra próximo ao 831","sequencia":"18","latitude":"-22.9455","longitude":"-43.6579","pontos_turisticos":[]},{"linha":"2335","descricao_ponto":"Avenida Das Americas proximo ao 10605","sequencia":"79","latitude":"-23.005","longitude":"-43.4297","pontos_turisticos":[]},{"linha":"2335","descricao_ponto":"Estrada Da Matriz próximo ao 3159","sequencia":"109","latitude":"-22.9933","longitude":"-43.6077","pontos_turisticos":[]},{"linha":"2335","descricao_ponto":"Estrada Da Pedra próximo ao 5741","sequencia":"29","latitude":"-22.979","longitude":"-43.6481","pontos_turisticos":[]},{"linha":"2335","descricao_ponto":"Avenida Das Americas próximo ao 20069","sequencia":"63","latitude":"-23.0206","longitude":"-43.5008","pontos_turisticos":[{"nome":"Museu de Arte Popular da Casa do Pontal","distancia":1040},{"nome":"Teatro Thiago de Mello","distancia":109}]},{"linha":"2335","descricao_ponto":"Avenida Das Americas próximo ao 594","sequencia":"73","latitude":"-23.0001","longitude":"-43.3877","pontos_turisticos":[{"nome":"Bosque da Barra","distancia":1626}]},{"linha":"2335","descricao_ponto":"Avenida Das Americas próximo ao 9650","sequencia":"77","latitude":"-22.9995","longitude":"-43.4074","pontos_turisticos":[]},{"linha":"2335","descricao_ponto":"Avenida Das Americas próximo ao 32316","sequencia":"105","latitude":"-22.9951","longitude":"-43.595","pontos_turisticos":[]},{"linha":"2335","descricao_ponto":"Rua Belchior Da Fonseca próximo ao 301","sequencia":"128","latitude":"-23.0016","longitude":"-43.641","pontos_turisticos":[]},{"linha":"2335","descricao_ponto":"BRT Vendas de Varanda - Sent. Alvorada","sequencia":"21","latitude":"-22.951","longitude":"-43.6506","pontos_turisticos":[]},{"linha":"2335","descricao_ponto":"Estrada Da Pedra próximo ao 7965","sequencia":"38","latitude":"-22.9962","longitude":"-43.6501","pontos_turisticos":[]},{"linha":"2335","descricao_ponto":"Avenida Das Americas próximo ao 1501","sequencia":"106","latitude":"-23.0014","longitude":"-43.3294","pontos_turisticos":[{"nome":"Centro Cultural Anglo Americano (Suassuna)","distancia":512}]},{"linha":"2335","descricao_ponto":"Avenida Atlantica próximo ao 845","sequencia":"15","latitude":"-22.9688","longitude":"-43.1808","pontos_turisticos":[{"nome":"Fundação Eva Klabin Rapaport","distancia":1946},{"nome":"Parque Peter Pan","distancia":1972},{"nome":"Praia de Copacabana","distancia":175},{"nome":"Praia Leme","distancia":1582},{"nome":"Sala Baden Powell","distancia":188},{"nome":"Teatro Brigitte Blair","distancia":1477},{"nome":"Teatro do Instituto Benjamin Constant","distancia":1971},{"nome":"Teatro Gláucio Gil","distancia":379},{"nome":"Teatro Princesa Isabel","distancia":925},{"nome":"Teatro Villa Lobos","distancia":1007}]},{"linha":"2335","descricao_ponto":"Avenida Atlantica próximo ao 2334","sequencia":"17","latitude":"-22.9704","longitude":"-43.183","pontos_turisticos":[{"nome":"Forte de Copacabana","distancia":1785},{"nome":"Fundação Eva Klabin Rapaport","distancia":1669},{"nome":"Parque Peter Pan","distancia":1698},{"nome":"Praia de Copacabana","distancia":446},{"nome":"Praia Leme","distancia":1861},{"nome":"Sala Baden Powell","distancia":439},{"nome":"Teatro Brigitte Blair","distancia":1192},{"nome":"Teatro da Praia","distancia":1813},{"nome":"Teatro Gláucio Gil","distancia":600},{"nome":"Teatro Princesa Isabel","distancia":1211},{"nome":"Teatro Villa Lobos","distancia":1283}]},{"linha":"2335","descricao_ponto":"Avenida Rainha Elisabeth próximo ao 378","sequencia":"25","latitude":"-22.9847","longitude":"-43.1902","pontos_turisticos":[{"nome":"Casa Laura Alvin","distancia":952},{"nome":"Casa Laura Alvin","distancia":952},{"nome":"Centro Cultural Candido Mendes","distancia":1521},{"nome":"Forte de Copacabana","distancia":271},{"nome":"Fundação Eva Klabin Rapaport","distancia":1266},{"nome":"Parque Peter Pan","distancia":255},{"nome":"Praia de Ipanema","distancia":1362},{"nome":"Praia do Arpoador","distancia":535},{"nome":"Teatro Brigitte Blair","distancia":762},{"nome":"Teatro da Praia","distancia":343},{"nome":"Teatro Ipanema","distancia":1495}]},{"linha":"2335","descricao_ponto":"Avenida Ministro Ivan Lins próximo ao 179","sequencia":"52","latitude":"-23.0074","longitude":"-43.3042","pontos_turisticos":[{"nome":"Praia da Joatinga","distancia":1608},{"nome":"Praia do Pepê","distancia":901}]},{"linha":"2335","descricao_ponto":"Estrada Da Pedra próximo ao 743","sequencia":"153","latitude":"-22.9415","longitude":"-43.663","pontos_turisticos":[]},{"linha":"2335","descricao_ponto":"Rua Felipe Cardoso próximo ao 86","sequencia":"167","latitude":"-22.9171","longitude":"-43.6834","pontos_turisticos":[]},{"linha":"2335","descricao_ponto":"Avenida Das Nacoes Unidas próximo ao 530","sequencia":"8","latitude":"-22.9433","longitude":"-43.1805","pontos_turisticos":[{"nome":"Aterro do Flamengo","distancia":1823},{"nome":"Cristo Redentor (Corcovado)","distancia":1869},{"nome":"Fundação Casa de Rui Barbosa","distancia":947},{"nome":"Mirante Dona Marta","distancia":1759},{"nome":"Museu Carmem Miranda","distancia":855},{"nome":"Museu da República","distancia":1982},{"nome":"Museu de Folclore Edison Carneiro","distancia":1963},{"nome":"Museu do Índio","distancia":1471},{"nome":"Oi Futuro","distancia":1538},{"nome":"Pão de Açúcar","distancia":1953},{"nome":"Parque Eduardo Guinle","distancia":1339},{"nome":"Praia da Urca","distancia":1854},{"nome":"Praia de Botafogo","distancia":205},{"nome":"Praia do Flamengo","distancia":1808},{"nome":"Teatro Bibi Ferreira","distancia":582},{"nome":"Teatro do Instituto Benjamin Constant","distancia":1392}]},{"linha":"2335","descricao_ponto":"Avenida Armando Lombardi próximo ao 800","sequencia":"53","latitude":"-23.0069","longitude":"-43.3074","pontos_turisticos":[{"nome":"Praia da Joatinga","distancia":1920},{"nome":"Praia do Pepê","distancia":975}]},{"linha":"2335","descricao_ponto":"Rua Felipe Cardoso próximo ao 951","sequencia":"162","latitude":"-22.9248","longitude":"-43.6791","pontos_turisticos":[]},{"linha":"2335","descricao_ponto":"Estrada Da Pedra próximo ao 686","sequencia":"16","latitude":"-22.9411","longitude":"-43.6635","pontos_turisticos":[]},{"linha":"2335","descricao_ponto":"Estrada Da Pedra próximo ao 7053","sequencia":"36","latitude":"-22.9934","longitude":"-43.6506","pontos_turisticos":[]},{"linha":"2335","descricao_ponto":"Rua Belchior Da Fonseca próximo ao 233","sequencia":"43","latitude":"-23.0009","longitude":"-43.6417","pontos_turisticos":[]},{"linha":"2335","descricao_ponto":"Estrada Da Matriz próximo ao 3159","sequencia":"56","latitude":"-22.994","longitude":"-43.6026","pontos_turisticos":[]},{"linha":"2335","descricao_ponto":"Avenida Das Americas próximo ao 662","sequencia":"80","latitude":"-23.0027","longitude":"-43.4246","pontos_turisticos":[]},{"linha":"2335","descricao_ponto":"Estrada Da Matriz próximo ao 3533","sequencia":"111","latitude":"-22.9938","longitude":"-43.6116","pontos_turisticos":[]},{"linha":"2335","descricao_ponto":"Rua Belchior Da Fonseca próximo ao 643","sequencia":"124","latitude":"-23.0019","longitude":"-43.6369","pontos_turisticos":[]},{"linha":"2335","descricao_ponto":"Rua Severiano Das Chagas próximo ao 27","sequencia":"168","latitude":"-22.9141","longitude":"-43.6801","pontos_turisticos":[]},{"linha":"2335","descricao_ponto":"Estrada Do Magarca próximo ao 14791","sequencia":"34","latitude":"-22.9877","longitude":"-43.6517","pontos_turisticos":[]},{"linha":"2335","descricao_ponto":"Avenida Das Americas próximo ao 18001","sequencia":"68","latitude":"-23.0178","longitude":"-43.479","pontos_turisticos":[{"nome":"Praia da Macumba","distancia":1929}]},{"linha":"2335","descricao_ponto":"Avenida Das Americas próximo ao 14737","sequencia":"74","latitude":"-23.0133","longitude":"-43.4612","pontos_turisticos":[{"nome":"Praia Recreio dos Bandeirantes","distancia":1476}]},{"linha":"2335","descricao_ponto":"Nome do ponto nao identificado","sequencia":"3","latitude":"-22.9078","longitude":"-43.1748","pontos_turisticos":[{"nome":"Academia Brasileira de Letras","distancia":390},{"nome":"Arcos da Lapa","distancia":769},{"nome":"Biblioteca Nacional","distancia":237},{"nome":"Campo de Santana","distancia":1392},{"nome":"Casa França Brasil","distancia":832},{"nome":"Catedral Metropolitana","distancia":697},{"nome":"Centro Cultural Banco do Brasil","distancia":819},{"nome":"Centro Cultural dos Correios","distancia":732},{"nome":"Confeitaria Colombo","distancia":499},{"nome":"Espaço Cultural da Marinha","distancia":748},{"nome":"Igreja de São Francisco da Penitência","distancia":468},{"nome":"Igreja e Convento de Santa Teresa","distancia":1040},{"nome":"Igreja Nossa Senhora da Candelária","distancia":838},{"nome":"Igreja Nossa Senhora da Glória do Outeiro","distancia":1505},{"nome":"Igreja Nossa Senhora do Carmo da Antiga Sé","distancia":509},{"nome":"Ilha Fiscal","distancia":1500},{"nome":"Monumento aos Pracinhas","distancia":970},{"nome":"Mosteiro de São Bento","distancia":1269},{"nome":"Museu de Arte do Rio","distancia":1475},{"nome":"Museu da Chácara do Céu","distancia":1429},{"nome":"Museu de Arte Moderna","distancia":689},{"nome":"Museu do Clube Naval","distancia":191},{"nome":"Museu Histórico Nacional","distancia":603},{"nome":"Museu Nacional de Belas Artes","distancia":181},{"nome":"Paço Imperial","distancia":476},{"nome":"Palácio Tiradentes","distancia":415},{"nome":"Parque das Ruínas","distancia":1339},{"nome":"Praça Paris","distancia":1053},{"nome":"Real Gabinete Português de Leitura","distancia":798},{"nome":"Sala Cecília Meireles","distancia":809},{"nome":"Teatro Carlos Gomes","distancia":793},{"nome":"Teatro Dulcina","distancia":397},{"nome":"Teatro Glauce Rocha","distancia":206},{"nome":"Teatro Glória","distancia":1701},{"nome":"Teatro João Caetano","distancia":783},{"nome":"Teatro Municipal","distancia":240},{"nome":"Teatro Rival Petrobras","distancia":406}]},{"linha":"2335","descricao_ponto":"Avenida Atlantica próximo ao 4066","sequencia":"24","latitude":"-22.9839","longitude":"-43.1897","pontos_turisticos":[{"nome":"Casa Laura Alvin","distancia":1025},{"nome":"Casa Laura Alvin","distancia":1025},{"nome":"Centro Cultural Candido Mendes","distancia":1576},{"nome":"Forte de Copacabana","distancia":286},{"nome":"Fundação Eva Klabin Rapaport","distancia":1235},{"nome":"Parque Peter Pan","distancia":255},{"nome":"Praia de Ipanema","distancia":1433},{"nome":"Praia do Arpoador","distancia":638},{"nome":"Teatro Brigitte Blair","distancia":685},{"nome":"Teatro da Praia","distancia":374},{"nome":"Teatro Ipanema","distancia":1553}]},{"linha":"2335","descricao_ponto":"Avenida Das Americas próximo ao 19200","sequencia":"98","latitude":"-23.0208","longitude":"-43.4975","pontos_turisticos":[{"nome":"Museu de Arte Popular da Casa do Pontal","distancia":1345},{"nome":"Praia da Macumba","distancia":1838},{"nome":"Teatro Thiago de Mello","distancia":440}]},{"linha":"2335","descricao_ponto":"Rua Felipe Cardoso próximo ao 2593","sequencia":"157","latitude":"-22.9344","longitude":"-43.6686","pontos_turisticos":[]},{"linha":"2335","descricao_ponto":"Rua Felipe Cardoso próximo ao 2593","sequencia":"12","latitude":"-22.9344","longitude":"-43.6687","pontos_turisticos":[]},{"linha":"2335","descricao_ponto":"Avenida Ministro Ivan Lins próximo ao 480","sequencia":"112","latitude":"-23.0111","longitude":"-43.3013","pontos_turisticos":[{"nome":"Praia da Joatinga","distancia":1156},{"nome":"Praia do Pepê","distancia":630}]},{"linha":"2335","descricao_ponto":"Avenida Vieira Souto próximo ao 530","sequencia":"31","latitude":"-22.9862","longitude":"-43.2094","pontos_turisticos":[{"nome":"Casa Laura Alvin","distancia":1041},{"nome":"Casa Laura Alvin","distancia":1041},{"nome":"Centro Cultural Candido Mendes","distancia":469},{"nome":"Fundação Eva Klabin Rapaport","distancia":1619},{"nome":"Lagoa Rodrigo de Freitas","distancia":1672},{"nome":"Parque Peter Pan","distancia":1806},{"nome":"Praia de Ipanema","distancia":641},{"nome":"Praia do Arpoador","distancia":1728},{"nome":"Praia do Leblon","distancia":1287},{"nome":"Teatro Café Pequeno","distancia":912},{"nome":"Teatro Casa do Riso","distancia":1534},{"nome":"Teatro da Praia","distancia":1669},{"nome":"Teatro do Jockey","distancia":1891},{"nome":"Teatro Ipanema","distancia":482},{"nome":"Teatro Leblon","distancia":1481}]},{"linha":"2335","descricao_ponto":"Estrada Da Matriz próximo ao 1555","sequencia":"116","latitude":"-22.9954","longitude":"-43.6208","pontos_turisticos":[]},{"linha":"2335","descricao_ponto":"Estrada Catruz próximo ao 2745","sequencia":"123","latitude":"-23.0008","longitude":"-43.6348","pontos_turisticos":[]},{"linha":"2335","descricao_ponto":"Estrada Da Pedra próximo ao 4772","sequencia":"30","latitude":"-22.9819","longitude":"-43.6482","pontos_turisticos":[]},{"linha":"2335","descricao_ponto":"Nome do ponto nao identificado","sequencia":"126","latitude":"-22.9865","longitude":"-43.2051","pontos_turisticos":[{"nome":"Casa Laura Alvin","distancia":600},{"nome":"Casa Laura Alvin","distancia":600},{"nome":"Centro Cultural Candido Mendes","distancia":183},{"nome":"Forte de Copacabana","distancia":1768},{"nome":"Fundação Eva Klabin Rapaport","distancia":1371},{"nome":"Lagoa Rodrigo de Freitas","distancia":1820},{"nome":"Parque Peter Pan","distancia":1384},{"nome":"Praia de Ipanema","distancia":207},{"nome":"Praia do Arpoador","distancia":1289},{"nome":"Praia do Leblon","distancia":1723},{"nome":"Teatro Brigitte Blair","distancia":1705},{"nome":"Teatro Café Pequeno","distancia":1347},{"nome":"Teatro Casa do Riso","distancia":1948},{"nome":"Teatro da Praia","distancia":1245},{"nome":"Teatro Ipanema","distancia":136},{"nome":"Teatro Leblon","distancia":1903}]},{"linha":"2335","descricao_ponto":"Nome do ponto nao identificado","sequencia":"128","latitude":"-22.9878","longitude":"-43.195","pontos_turisticos":[{"nome":"Casa Laura Alvin","distancia":452},{"nome":"Casa Laura Alvin","distancia":452},{"nome":"Centro Cultural Candido Mendes","distancia":1080},{"nome":"Forte de Copacabana","distancia":765},{"nome":"Fundação Eva Klabin Rapaport","distancia":1354},{"nome":"Parque Peter Pan","distancia":595},{"nome":"Praia de Ipanema","distancia":845},{"nome":"Praia do Arpoador","distancia":258},{"nome":"Teatro Brigitte Blair","distancia":1162},{"nome":"Teatro da Praia","distancia":493},{"nome":"Teatro Ipanema","distancia":1040}]},{"linha":"2335","descricao_ponto":"Terminal Menezes Cortes","sequencia":"146","latitude":"-22.9054","longitude":"-43.1748","pontos_turisticos":[{"nome":"Academia Brasileira de Letras","distancia":637},{"nome":"Arcos da Lapa","distancia":981},{"nome":"Biblioteca Nacional","distancia":494},{"nome":"Campo de Santana","distancia":1393},{"nome":"Casa França Brasil","distancia":570},{"nome":"Catedral Metropolitana","distancia":861},{"nome":"Centro Cultural Banco do Brasil","distancia":561},{"nome":"Centro Cultural dos Correios","distancia":469},{"nome":"Confeitaria Colombo","distancia":410},{"nome":"Espaço Cultural da Marinha","distancia":481},{"nome":"Igreja de São Francisco da Penitência","distancia":487},{"nome":"Igreja e Convento de Santa Teresa","distancia":1272},{"nome":"Igreja Nossa Senhora da Candelária","distancia":595},{"nome":"Igreja Nossa Senhora da Glória do Outeiro","distancia":1772},{"nome":"Igreja Nossa Senhora do Carmo da Antiga Sé","distancia":245},{"nome":"Ilha Fiscal","distancia":1295},{"nome":"Monumento aos Pracinhas","distancia":1236},{"nome":"Mosteiro de São Bento","distancia":1013},{"nome":"Museu de Arte do Rio","distancia":1248},{"nome":"Museu da Chácara do Céu","distancia":1637},{"nome":"Museu de Arte Moderna","distancia":950},{"nome":"Museu do Clube Naval","distancia":361},{"nome":"Museu Histórico Nacional","distancia":549},{"nome":"Museu Nacional de Belas Artes","distancia":411},{"nome":"Paço Imperial","distancia":214},{"nome":"Palácio Tiradentes","distancia":155},{"nome":"Parque das Ruínas","distancia":1563},{"nome":"Praça Paris","distancia":1319},{"nome":"Real Gabinete Português de Leitura","distancia":755},{"nome":"Sala Cecília Meireles","distancia":1055},{"nome":"Teatro Carlos Gomes","distancia":816},{"nome":"Teatro Dulcina","distancia":633},{"nome":"Teatro Glauce Rocha","distancia":286},{"nome":"Teatro Glória","distancia":1966},{"nome":"Teatro João Caetano","distancia":775},{"nome":"Teatro Municipal","distancia":473},{"nome":"Teatro Rival Petrobras","distancia":661}]},{"linha":"2335","descricao_ponto":"Avenida Das Americas próximo ao 4790","sequencia":"68","latitude":"-22.9995","longitude":"-43.3574","pontos_turisticos":[{"nome":"Bosque da Barra","distancia":1476},{"nome":"Cidade das Artes","distancia":841},{"nome":"Praia da Barra da Tijuca","distancia":1580},{"nome":"Teatro CEC Antonio Fagundes","distancia":1386},{"nome":"Teatro dos Grandes Atores","distancia":770}]},{"linha":"2335","descricao_ponto":"Avenida Das Americas próximo ao 460","sequencia":"71","latitude":"-23","longitude":"-43.38","pontos_turisticos":[{"nome":"Bosque da Barra","distancia":838},{"nome":"Cidade das Artes","distancia":1486},{"nome":"Praia da Barra da Tijuca","distancia":1889},{"nome":"Teatro CEC Antonio Fagundes","distancia":1796}]},{"linha":"2335","descricao_ponto":"Avenida Das Americas próximo ao 19350","sequencia":"97","latitude":"-23.0194","longitude":"-43.4879","pontos_turisticos":[{"nome":"Praia da Macumba","distancia":1606},{"nome":"Teatro Thiago de Mello","distancia":1418}]},{"linha":"2335","descricao_ponto":"Estrada Da Matriz próximo ao 519","sequencia":"122","latitude":"-22.9982","longitude":"-43.6306","pontos_turisticos":[]},{"linha":"2335","descricao_ponto":"Estrada Da Pedra próximo ao 1","sequencia":"130","latitude":"-23.0008","longitude":"-43.6458","pontos_turisticos":[]},{"linha":"2335","descricao_ponto":"Rua Felipe Cardoso próximo ao 1775","sequencia":"159","latitude":"-22.9309","longitude":"-43.6733","pontos_turisticos":[]},{"linha":"2335","descricao_ponto":"Avenida Das Americas próximo ao 165","sequencia":"75","latitude":"-23.0122","longitude":"-43.4567","pontos_turisticos":[{"nome":"Praia Recreio dos Bandeirantes","distancia":1608}]},{"linha":"2335","descricao_ponto":"Nome do ponto nao identificado","sequencia":"2","latitude":"-22.9068","longitude":"-43.1751","pontos_turisticos":[{"nome":"Academia Brasileira de Letras","distancia":503},{"nome":"Arcos da Lapa","distancia":835},{"nome":"Biblioteca Nacional","distancia":336},{"nome":"Campo de Santana","distancia":1355},{"nome":"Casa França Brasil","distancia":718},{"nome":"Catedral Metropolitana","distancia":734},{"nome":"Centro Cultural Banco do Brasil","distancia":704},{"nome":"Centro Cultural dos Correios","distancia":617},{"nome":"Confeitaria Colombo","distancia":417},{"nome":"Espaço Cultural da Marinha","distancia":639},{"nome":"Igreja de São Francisco da Penitência","distancia":426},{"nome":"Igreja e Convento de Santa Teresa","distancia":1120},{"nome":"Igreja Nossa Senhora da Candelária","distancia":723},{"nome":"Igreja Nossa Senhora da Glória do Outeiro","distancia":1616},{"nome":"Igreja Nossa Senhora do Carmo da Antiga Sé","distancia":396},{"nome":"Ilha Fiscal","distancia":1431},{"nome":"Monumento aos Pracinhas","distancia":1083},{"nome":"Mosteiro de São Bento","distancia":1154},{"nome":"Museu de Arte do Rio","distancia":1363},{"nome":"Museu da Chácara do Céu","distancia":1494},{"nome":"Museu de Arte Moderna","distancia":804},{"nome":"Museu do Clube Naval","distancia":218},{"nome":"Museu Histórico Nacional","distancia":596},{"nome":"Museu Nacional de Belas Artes","distancia":255},{"nome":"Paço Imperial","distancia":372},{"nome":"Palácio Tiradentes","distancia":313},{"nome":"Parque das Ruínas","distancia":1414},{"nome":"Praça Paris","distancia":1161},{"nome":"Real Gabinete Português de Leitura","distancia":739},{"nome":"Sala Cecília Meireles","distancia":899},{"nome":"Teatro Carlos Gomes","distancia":761},{"nome":"Teatro Dulcina","distancia":478},{"nome":"Teatro Glauce Rocha","distancia":174},{"nome":"Teatro Glória","distancia":1815},{"nome":"Teatro João Caetano","distancia":738},{"nome":"Teatro Municipal","distancia":317},{"nome":"Teatro Rival Petrobras","distancia":503}]},{"linha":"2335","descricao_ponto":"Estrada Da Pedra próximo ao 4945","sequencia":"143","latitude":"-22.9725","longitude":"-43.6479","pontos_turisticos":[]},{"linha":"2335","descricao_ponto":"Rua Felipe Cardoso próximo ao 2142","sequencia":"10","latitude":"-22.9312","longitude":"-43.673","pontos_turisticos":[]},{"linha":"2335","descricao_ponto":"Avenida Das Americas próximo ao 16325","sequencia":"78","latitude":"-23.0087","longitude":"-43.443","pontos_turisticos":[]},{"linha":"2335","descricao_ponto":"Avenida Das Americas próximo ao 10585","sequencia":"81","latitude":"-23.0016","longitude":"-43.4191","pontos_turisticos":[]},{"linha":"2335","descricao_ponto":"Avenida Atlantica próximo ao 112","sequencia":"134","latitude":"-22.9759","longitude":"-43.1877","pontos_turisticos":[{"nome":"Casa Laura Alvin","distancia":1683},{"nome":"Casa Laura Alvin","distancia":1683},{"nome":"Forte de Copacabana","distancia":1103},{"nome":"Fundação Eva Klabin Rapaport","distancia":1069},{"nome":"Parque Peter Pan","distancia":925},{"nome":"Praia de Copacabana","distancia":1198},{"nome":"Praia do Arpoador","distancia":1535},{"nome":"Sala Baden Powell","distancia":1216},{"nome":"Teatro Brigitte Blair","distancia":431},{"nome":"Teatro da Praia","distancia":1036},{"nome":"Teatro Gláucio Gil","distancia":1365},{"nome":"Teatro Princesa Isabel","distancia":1983}]},{"linha":"2335","descricao_ponto":"Avenida Atlantica próximo ao 827","sequencia":"14","latitude":"-22.9674","longitude":"-43.1785","pontos_turisticos":[{"nome":"Pão de Açúcar","distancia":1772},{"nome":"Praia de Copacabana","distancia":146},{"nome":"Praia Leme","distancia":1305},{"nome":"Praia Vermelha","distancia":1970},{"nome":"Sala Baden Powell","distancia":219},{"nome":"Teatro Brigitte Blair","distancia":1756},{"nome":"Teatro do Instituto Benjamin Constant","distancia":1730},{"nome":"Teatro Gláucio Gil","distancia":325},{"nome":"Teatro Princesa Isabel","distancia":650},{"nome":"Teatro Villa Lobos","distancia":753}]},{"linha":"2335","descricao_ponto":"Avenida Rainha Elisabeth próximo ao 727","sequencia":"27","latitude":"-22.9868","longitude":"-43.1976","pontos_turisticos":[{"nome":"Casa Laura Alvin","distancia":169},{"nome":"Casa Laura Alvin","distancia":169},{"nome":"Centro Cultural Candido Mendes","distancia":793},{"nome":"Forte de Copacabana","distancia":1004},{"nome":"Fundação Eva Klabin Rapaport","distancia":1206},{"nome":"Parque Peter Pan","distancia":695},{"nome":"Praia de Ipanema","distancia":578},{"nome":"Praia do Arpoador","distancia":546},{"nome":"Teatro Brigitte Blair","distancia":1180},{"nome":"Teatro da Praia","distancia":560},{"nome":"Teatro Ipanema","distancia":754}]},{"linha":"2335","descricao_ponto":"Avenida Vieira Souto próximo ao 320","sequencia":"29","latitude":"-22.9865","longitude":"-43.2032","pontos_turisticos":[{"nome":"Casa Laura Alvin","distancia":406},{"nome":"Casa Laura Alvin","distancia":406},{"nome":"Centro Cultural Candido Mendes","distancia":264},{"nome":"Forte de Copacabana","distancia":1574},{"nome":"Fundação Eva Klabin Rapaport","distancia":1280},{"nome":"Lagoa Rodrigo de Freitas","distancia":1901},{"nome":"Parque Peter Pan","distancia":1198},{"nome":"Praia de Ipanema","distancia":78},{"nome":"Praia do Arpoador","distancia":1099},{"nome":"Praia do Leblon","distancia":1918},{"nome":"Teatro Brigitte Blair","distancia":1548},{"nome":"Teatro Café Pequeno","distancia":1537},{"nome":"Teatro da Praia","distancia":1058},{"nome":"Teatro Ipanema","distancia":210}]},{"linha":"2335","descricao_ponto":"Auto Estrada Lagoa Barra próximo ao 450","sequencia":"51","latitude":"-22.999","longitude":"-43.2705","pontos_turisticos":[{"nome":"Pedra da Gávea","distancia":1376},{"nome":"Praia de São Conrado","distancia":223},{"nome":"Praia do Pepino","distancia":225}]},{"linha":"2335","descricao_ponto":"Avenida Das Americas próximo ao 1880","sequencia":"60","latitude":"-23.0003","longitude":"-43.3339","pontos_turisticos":[{"nome":"Centro Cultural Anglo Americano (Suassuna)","distancia":89},{"nome":"Teatro dos Grandes Atores","distancia":1642}]},{"linha":"2335","descricao_ponto":"Avenida Das Americas próximo ao 21280","sequencia":"100","latitude":"-23.0185","longitude":"-43.5072","pontos_turisticos":[{"nome":"Museu de Arte Popular da Casa do Pontal","distancia":742},{"nome":"Teatro Thiago de Mello","distancia":588}]},{"linha":"2335","descricao_ponto":"Estrada Da Pedra próximo ao 3701","sequencia":"147","latitude":"-22.9589","longitude":"-43.65","pontos_turisticos":[]},{"linha":"2335","descricao_ponto":"Estrada Da Pedra próximo ao 4267","sequencia":"37","latitude":"-22.9957","longitude":"-43.6502","pontos_turisticos":[]},{"linha":"2335","descricao_ponto":"Estrada Da Pedra próximo ao 8758","sequencia":"40","latitude":"-22.9987","longitude":"-43.6492","pontos_turisticos":[]},{"linha":"2335","descricao_ponto":"Estrada Da Matriz próximo ao 290","sequencia":"47","latitude":"-23.0002","longitude":"-43.6331","pontos_turisticos":[]},{"linha":"2335","descricao_ponto":"Avenida Armando Lombardi próximo ao 385","sequencia":"110","latitude":"-23.0065","longitude":"-43.3156","pontos_turisticos":[{"nome":"Praia do Pepê","distancia":1452}]},{"linha":"2335","descricao_ponto":"Avenida Das Nacoes Unidas próximo ao 402","sequencia":"9","latitude":"-22.9457","longitude":"-43.1818","pontos_turisticos":[{"nome":"Cristo Redentor (Corcovado)","distancia":1806},{"nome":"Fundação Casa de Rui Barbosa","distancia":668},{"nome":"Mirante Dona Marta","distancia":1601},{"nome":"Museu Carmem Miranda","distancia":1074},{"nome":"Museu do Índio","distancia":1200},{"nome":"Oi Futuro","distancia":1832},{"nome":"Pão de Açúcar","distancia":1883},{"nome":"Parque Eduardo Guinle","distancia":1592},{"nome":"Praia da Urca","distancia":1933},{"nome":"Praia de Botafogo","distancia":118},{"nome":"Teatro Bibi Ferreira","distancia":364},{"nome":"Teatro do Instituto Benjamin Constant","distancia":1297},{"nome":"Teatro Villa Lobos","distancia":1859}]},{"linha":"2335","descricao_ponto":"Avenida Niemeyer próximo ao 103","sequencia":"39","latitude":"-22.9909","longitude":"-43.2324","pontos_turisticos":[{"nome":"Planetário","distancia":1359},{"nome":"Praia do Leblon","distancia":1147},{"nome":"Teatro Café Pequeno","distancia":1678},{"nome":"Teatro Casa da Gávea","distancia":1953},{"nome":"Teatro Casa do Riso","distancia":1576},{"nome":"Teatro Clara Nunes","distancia":1756},{"nome":"Teatro das Artes","distancia":1739},{"nome":"Teatro do Jockey","distancia":1725},{"nome":"Teatro dos Quatro","distancia":1751},{"nome":"Teatro Leblon","distancia":1498},{"nome":"Teatro Maria Clara Machado","distancia":1359},{"nome":"Teatro Vanucci","distancia":1745}]},{"linha":"2335","descricao_ponto":"Avenida Das Americas próximo ao 4666","sequencia":"67","latitude":"-22.9997","longitude":"-43.3539","pontos_turisticos":[{"nome":"Bosque da Barra","distancia":1834},{"nome":"Cidade das Artes","distancia":1199},{"nome":"Praia da Barra da Tijuca","distancia":1791},{"nome":"Teatro CEC Antonio Fagundes","distancia":1656},{"nome":"Teatro dos Grandes Atores","distancia":413}]},{"linha":"2335","descricao_ponto":"Avenida Das Americas próximo ao","sequencia":"95","latitude":"-23.0177","longitude":"-43.481","pontos_turisticos":[{"nome":"Praia da Macumba","distancia":1869}]},{"linha":"2335","descricao_ponto":"Estrada Da Pedra próximo ao 7677","sequencia":"134","latitude":"-22.9936","longitude":"-43.6505","pontos_turisticos":[]},{"linha":"2335","descricao_ponto":"Estrada Do Magarca próximo ao 6609","sequencia":"139","latitude":"-22.9845","longitude":"-43.65","pontos_turisticos":[]},{"linha":"2335","descricao_ponto":"Estrada Da Matriz próximo ao 2358","sequencia":"54","latitude":"-22.9941","longitude":"-43.6121","pontos_turisticos":[]},{"linha":"2335","descricao_ponto":"Avenida Atlantica próximo ao 3992","sequencia":"23","latitude":"-22.982","longitude":"-43.1899","pontos_turisticos":[{"nome":"Casa Laura Alvin","distancia":1089},{"nome":"Casa Laura Alvin","distancia":1089},{"nome":"Centro Cultural Candido Mendes","distancia":1584},{"nome":"Forte de Copacabana","distancia":474},{"nome":"Fundação Eva Klabin Rapaport","distancia":1078},{"nome":"Parque Peter Pan","distancia":258},{"nome":"Praia de Copacabana","distancia":1856},{"nome":"Praia de Ipanema","distancia":1482},{"nome":"Praia do Arpoador","distancia":821},{"nome":"Sala Baden Powell","distancia":1908},{"nome":"Teatro Brigitte Blair","distancia":476},{"nome":"Teatro da Praia","distancia":396},{"nome":"Teatro Ipanema","distancia":1568}]},{"linha":"2335","descricao_ponto":"Avenida Das Americas próximo ao 17200","sequencia":"101","latitude":"-23.016","longitude":"-43.5166","pontos_turisticos":[{"nome":"Museu de Arte Popular da Casa do Pontal","distancia":1181},{"nome":"Teatro Thiago de Mello","distancia":1589}]},{"linha":"2335","descricao_ponto":"Rua Belchior Da Fonseca próximo ao 437","sequencia":"125","latitude":"-23.0018","longitude":"-43.6388","pontos_turisticos":[]},{"linha":"2335","descricao_ponto":"BRT Pingo dÁgua - Alimentadoras","sequencia":"25","latitude":"-22.9649","longitude":"-43.6476","pontos_turisticos":[]},{"linha":"2335","descricao_ponto":"Estrada Da Matriz próximo ao 3159","sequencia":"55","latitude":"-22.9933","longitude":"-43.6079","pontos_turisticos":[]},{"linha":"2335","descricao_ponto":"Terminal Menezes Cortes","sequencia":"1","latitude":"-22.9054","longitude":"-43.1748","pontos_turisticos":[{"nome":"Academia Brasileira de Letras","distancia":637},{"nome":"Arcos da Lapa","distancia":981},{"nome":"Biblioteca Nacional","distancia":494},{"nome":"Campo de Santana","distancia":1393},{"nome":"Casa França Brasil","distancia":570},{"nome":"Catedral Metropolitana","distancia":861},{"nome":"Centro Cultural Banco do Brasil","distancia":561},{"nome":"Centro Cultural dos Correios","distancia":469},{"nome":"Confeitaria Colombo","distancia":410},{"nome":"Espaço Cultural da Marinha","distancia":481},{"nome":"Igreja de São Francisco da Penitência","distancia":487},{"nome":"Igreja e Convento de Santa Teresa","distancia":1272},{"nome":"Igreja Nossa Senhora da Candelária","distancia":595},{"nome":"Igreja Nossa Senhora da Glória do Outeiro","distancia":1772},{"nome":"Igreja Nossa Senhora do Carmo da Antiga Sé","distancia":245},{"nome":"Ilha Fiscal","distancia":1295},{"nome":"Monumento aos Pracinhas","distancia":1236},{"nome":"Mosteiro de São Bento","distancia":1013},{"nome":"Museu de Arte do Rio","distancia":1248},{"nome":"Museu da Chácara do Céu","distancia":1637},{"nome":"Museu de Arte Moderna","distancia":950},{"nome":"Museu do Clube Naval","distancia":361},{"nome":"Museu Histórico Nacional","distancia":549},{"nome":"Museu Nacional de Belas Artes","distancia":411},{"nome":"Paço Imperial","distancia":214},{"nome":"Palácio Tiradentes","distancia":155},{"nome":"Parque das Ruínas","distancia":1563},{"nome":"Praça Paris","distancia":1319},{"nome":"Real Gabinete Português de Leitura","distancia":755},{"nome":"Sala Cecília Meireles","distancia":1055},{"nome":"Teatro Carlos Gomes","distancia":816},{"nome":"Teatro Dulcina","distancia":633},{"nome":"Teatro Glauce Rocha","distancia":286},{"nome":"Teatro Glória","distancia":1966},{"nome":"Teatro João Caetano","distancia":775},{"nome":"Teatro Municipal","distancia":473},{"nome":"Teatro Rival Petrobras","distancia":661}]},{"linha":"2335","descricao_ponto":"Avenida Niemeyer próximo ao 103","sequencia":"38","latitude":"-22.9903","longitude":"-43.2286","pontos_turisticos":[{"nome":"Jockey Club Brasileiro","distancia":1851},{"nome":"Planetário","distancia":1286},{"nome":"Praia do Leblon","distancia":763},{"nome":"Teatro Café Pequeno","distancia":1309},{"nome":"Teatro Casa da Gávea","distancia":1814},{"nome":"Teatro Casa do Riso","distancia":1306},{"nome":"Teatro Clara Nunes","distancia":1633},{"nome":"Teatro das Artes","distancia":1620},{"nome":"Teatro do Jockey","distancia":1526},{"nome":"Teatro dos Quatro","distancia":1627},{"nome":"Teatro Leblon","distancia":1214},{"nome":"Teatro Maria Clara Machado","distancia":1285},{"nome":"Teatro Vanucci","distancia":1626}]},{"linha":"2335","descricao_ponto":"Rua Belchior Da Fonseca próximo ao 437","sequencia":"127","latitude":"-23.0018","longitude":"-43.64","pontos_turisticos":[]},{"linha":"2335","descricao_ponto":"Estrada Da Pedra próximo ao 5741","sequencia":"141","latitude":"-22.9792","longitude":"-43.6481","pontos_turisticos":[]},{"linha":"2335","descricao_ponto":"Rua Felipe Cardoso próximo ao 2698","sequencia":"11","latitude":"-22.9326","longitude":"-43.6712","pontos_turisticos":[]},{"linha":"2335","descricao_ponto":"Estrada Da Pedra próximo ao 1673","sequencia":"19","latitude":"-22.9466","longitude":"-43.655","pontos_turisticos":[]},{"linha":"2335","descricao_ponto":"Avenida Das Americas próximo ao 7777","sequencia":"89","latitude":"-23.0007","longitude":"-43.3891","pontos_turisticos":[{"nome":"Bosque da Barra","distancia":1772}]},{"linha":"2335","descricao_ponto":"Estrada Da Gavea próximo ao 2364","sequencia":"49","latitude":"-22.9975","longitude":"-43.2646","pontos_turisticos":[{"nome":"Pedra da Gávea","distancia":1972},{"nome":"Praia de São Conrado","distancia":541},{"nome":"Praia do Pepino","distancia":775}]},{"linha":"2335","descricao_ponto":"Avenida Das Americas próximo ao 1500","sequencia":"59","latitude":"-23.0006","longitude":"-43.3303","pontos_turisticos":[{"nome":"Centro Cultural Anglo Americano (Suassuna)","distancia":420}]},{"linha":"2335","descricao_ponto":"Estrada Da Matriz próximo ao 1151","sequencia":"114","latitude":"-22.9949","longitude":"-43.6178","pontos_turisticos":[]},{"linha":"2335","descricao_ponto":"Estrada Da Pedra próximo ao 115","sequencia":"155","latitude":"-22.937","longitude":"-43.6669","pontos_turisticos":[]},{"linha":"2335","descricao_ponto":"Estrada Da Pedra próximo ao 831","sequencia":"17","latitude":"-22.943","longitude":"-43.6618","pontos_turisticos":[]},{"linha":"2335","descricao_ponto":"Rua Belchior Da Fonseca próximo ao 437","sequencia":"44","latitude":"-23.0018","longitude":"-43.6402","pontos_turisticos":[]},{"linha":"2335","descricao_ponto":"Estrada Da Matriz próximo ao 162","sequencia":"46","latitude":"-23.0012","longitude":"-43.6347","pontos_turisticos":[]},{"linha":"2335","descricao_ponto":"Avenida Das Americas próximo ao 1245","sequencia":"107","latitude":"-23.0021","longitude":"-43.3278","pontos_turisticos":[{"nome":"Centro Cultural Anglo Americano (Suassuna)","distancia":685}]},{"linha":"2335","descricao_ponto":"BRS 1, 3 - JOSÉ LINHARES","sequencia":"123","latitude":"-22.9868","longitude":"-43.2204","pontos_turisticos":[{"nome":"Centro Cultural Candido Mendes","distancia":1585},{"nome":"Jardim Botânico","distancia":1794},{"nome":"Jockey Club Brasileiro","distancia":1538},{"nome":"Lagoa Rodrigo de Freitas","distancia":1937},{"nome":"Planetário","distancia":1342},{"nome":"Praia de Ipanema","distancia":1758},{"nome":"Praia do Leblon","distancia":164},{"nome":"Teatro Café Pequeno","distancia":417},{"nome":"Teatro Casa da Gávea","distancia":1569},{"nome":"Teatro Casa do Riso","distancia":805},{"nome":"Teatro Clara Nunes","distancia":1470},{"nome":"Teatro das Artes","distancia":1472},{"nome":"Teatro do Jockey","distancia":1185},{"nome":"Teatro dos Quatro","distancia":1462},{"nome":"Teatro Ipanema","distancia":1607},{"nome":"Teatro Leblon","distancia":701},{"nome":"Teatro Maria Clara Machado","distancia":1341},{"nome":"Teatro Vanucci","distancia":1476}]},{"linha":"2335","descricao_ponto":"Nome do ponto nao identificado","sequencia":"6","latitude":"-22.9115","longitude":"-43.173","pontos_turisticos":[{"nome":"Academia Brasileira de Letras","distancia":69},{"nome":"Arcos da Lapa","distancia":724},{"nome":"Aterro do Flamengo","distancia":1949},{"nome":"Biblioteca Nacional","distancia":336},{"nome":"Campo de Santana","distancia":1660},{"nome":"Casa França Brasil","distancia":1272},{"nome":"Catedral Metropolitana","distancia":794},{"nome":"Centro Cultural Banco do Brasil","distancia":1264},{"nome":"Centro Cultural dos Correios","distancia":1172},{"nome":"Confeitaria Colombo","distancia":915},{"nome":"Espaço Cultural da Marinha","distancia":1168},{"nome":"Igreja de São Francisco da Penitência","distancia":820},{"nome":"Igreja e Convento de Santa Teresa","distancia":880},{"nome":"Igreja Nossa Senhora da Candelária","distancia":1288},{"nome":"Igreja Nossa Senhora da Glória do Outeiro","distancia":1119},{"nome":"Igreja Nossa Senhora do Carmo da Antiga Sé","distancia":947},{"nome":"Ilha Fiscal","distancia":1766},{"nome":"Monumento aos Pracinhas","distancia":566},{"nome":"Mosteiro de São Bento","distancia":1715},{"nome":"Museu de Arte do Rio","distancia":1925},{"nome":"Museu da Chácara do Céu","distancia":1313},{"nome":"Museu da República","distancia":1636},{"nome":"Museu de Arte Moderna","distancia":259},{"nome":"Museu de Folclore Edison Carneiro","distancia":1656},{"nome":"Museu do Clube Naval","distancia":523},{"nome":"Museu Histórico Nacional","distancia":755},{"nome":"Museu Nacional de Belas Artes","distancia":429},{"nome":"Paço Imperial","distancia":894},{"nome":"Palácio Tiradentes","distancia":832},{"nome":"Parque das Ruínas","distancia":1180},{"nome":"Praça Paris","distancia":699},{"nome":"Real Gabinete Português de Leitura","distancia":1154},{"nome":"Sala Cecília Meireles","distancia":623},{"nome":"Teatro Carlos Gomes","distancia":1085},{"nome":"Teatro Dulcina","distancia":425},{"nome":"Teatro Glauce Rocha","distancia":606},{"nome":"Teatro Glória","distancia":1276},{"nome":"Teatro João Caetano","distancia":1108},{"nome":"Teatro Municipal","distancia":419},{"nome":"Teatro Rival Petrobras","distancia":336}]},{"linha":"2335","descricao_ponto":"Avenida Atlantica próximo ao 1500","sequencia":"13","latitude":"-22.9667","longitude":"-43.1771","pontos_turisticos":[{"nome":"Pão de Açúcar","distancia":1619},{"nome":"Praia de Copacabana","distancia":294},{"nome":"Praia Leme","distancia":1144},{"nome":"Praia Vermelha","distancia":1813},{"nome":"Sala Baden Powell","distancia":363},{"nome":"Teatro Brigitte Blair","distancia":1915},{"nome":"Teatro do Instituto Benjamin Constant","distancia":1606},{"nome":"Teatro Gláucio Gil","distancia":406},{"nome":"Teatro Princesa Isabel","distancia":500},{"nome":"Teatro Villa Lobos","distancia":628}]},{"linha":"2335","descricao_ponto":"Estrada Da Pedra próximo ao 3022","sequencia":"22","latitude":"-22.9545","longitude":"-43.6495","pontos_turisticos":[]},{"linha":"2335","descricao_ponto":"Estrada Da Pedra próximo ao 3421","sequencia":"23","latitude":"-22.9582","longitude":"-43.65","pontos_turisticos":[]},{"linha":"2335","descricao_ponto":"Estrada Do Magarca próximo ao 6681","sequencia":"32","latitude":"-22.9852","longitude":"-43.6504","pontos_turisticos":[]},{"linha":"2335","descricao_ponto":"Avenida Das Americas próximo ao 10333","sequencia":"83","latitude":"-23.0005","longitude":"-43.4139","pontos_turisticos":[]},{"linha":"2335","descricao_ponto":"Avenida Das Americas próximo ao 3307","sequencia":"99","latitude":"-23.0004","longitude":"-43.3502","pontos_turisticos":[{"nome":"Centro Cultural Anglo Americano (Suassuna)","distancia":1620},{"nome":"Cidade das Artes","distancia":1584},{"nome":"Teatro dos Grandes Atores","distancia":27}]},{"linha":"2335","descricao_ponto":"Nome do ponto nao identificado","sequencia":"127","latitude":"-22.9868","longitude":"-43.2009","pontos_turisticos":[{"nome":"Casa Laura Alvin","distancia":170},{"nome":"Casa Laura Alvin","distancia":170},{"nome":"Centro Cultural Candido Mendes","distancia":477},{"nome":"Forte de Copacabana","distancia":1341},{"nome":"Fundação Eva Klabin Rapaport","distancia":1237},{"nome":"Parque Peter Pan","distancia":990},{"nome":"Praia de Ipanema","distancia":242},{"nome":"Praia do Arpoador","distancia":863},{"nome":"Teatro Brigitte Blair","distancia":1394},{"nome":"Teatro Café Pequeno","distancia":1774},{"nome":"Teatro da Praia","distancia":850},{"nome":"Teatro Ipanema","distancia":431}]},{"linha":"2335","descricao_ponto":"Avenida Atlantica próximo ao 2672","sequencia":"19","latitude":"-22.9729","longitude":"-43.1858","pontos_turisticos":[{"nome":"Forte de Copacabana","distancia":1452},{"nome":"Fundação Eva Klabin Rapaport","distancia":1309},{"nome":"Parque Peter Pan","distancia":1311},{"nome":"Praia de Copacabana","distancia":836},{"nome":"Praia do Arpoador","distancia":1916},{"nome":"Sala Baden Powell","distancia":833},{"nome":"Teatro Brigitte Blair","distancia":792},{"nome":"Teatro da Praia","distancia":1421},{"nome":"Teatro Gláucio Gil","distancia":979},{"nome":"Teatro Princesa Isabel","distancia":1610},{"nome":"Teatro Villa Lobos","distancia":1680}]},{"linha":"2335","descricao_ponto":"Avenida Atlantica próximo ao 3288","sequencia":"21","latitude":"-22.9779","longitude":"-43.1889","pontos_turisticos":[{"nome":"Casa Laura Alvin","distancia":1440},{"nome":"Casa Laura Alvin","distancia":1440},{"nome":"Centro Cultural Candido Mendes","distancia":1826},{"nome":"Forte de Copacabana","distancia":887},{"nome":"Fundação Eva Klabin Rapaport","distancia":970},{"nome":"Parque Peter Pan","distancia":671},{"nome":"Praia de Copacabana","distancia":1441},{"nome":"Praia de Ipanema","distancia":1794},{"nome":"Praia do Arpoador","distancia":1285},{"nome":"Sala Baden Powell","distancia":1468},{"nome":"Teatro Brigitte Blair","distancia":245},{"nome":"Teatro da Praia","distancia":783},{"nome":"Teatro Gláucio Gil","distancia":1619},{"nome":"Teatro Ipanema","distancia":1823}]},{"linha":"2335","descricao_ponto":"Avenida Niemeyer próximo ao 845","sequencia":"46","latitude":"-22.9964","longitude":"-43.2554","pontos_turisticos":[{"nome":"Praia de São Conrado","distancia":1448},{"nome":"Praia do Pepino","distancia":1693}]},{"linha":"2335","descricao_ponto":"Rua Belchior Da Fonseca próximo ao 233","sequencia":"129","latitude":"-23.0009","longitude":"-43.6416","pontos_turisticos":[]},{"linha":"2335","descricao_ponto":"Estrada Da Pedra próximo ao 4845","sequencia":"144","latitude":"-22.9703","longitude":"-43.6479","pontos_turisticos":[]},{"linha":"2335","descricao_ponto":"Rua Felipe Cardoso próximo ao 2698","sequencia":"158","latitude":"-22.9325","longitude":"-43.6712","pontos_turisticos":[]},{"linha":"2335","descricao_ponto":"Estrada Da Matriz próximo ao 620","sequencia":"49","latitude":"-22.9978","longitude":"-43.6297","pontos_turisticos":[]},{"linha":"2335","descricao_ponto":"Avenida Venceslau Braz próximo ao 3554","sequencia":"142","latitude":"-22.9528","longitude":"-43.1762","pontos_turisticos":[{"nome":"Fundação Casa de Rui Barbosa","distancia":1158},{"nome":"Museu Carmem Miranda","distancia":1327},{"nome":"Museu do Índio","distancia":1550},{"nome":"Pão de Açúcar","distancia":1004},{"nome":"Praia da Urca","distancia":1457},{"nome":"Praia de Botafogo","distancia":978},{"nome":"Praia de Copacabana","distancia":1781},{"nome":"Praia Leme","distancia":1517},{"nome":"Praia Vermelha","distancia":1207},{"nome":"Sala Baden Powell","distancia":1655},{"nome":"Teatro Bibi Ferreira","distancia":1197},{"nome":"Teatro do Instituto Benjamin Constant","distancia":434},{"nome":"Teatro Gláucio Gil","distancia":1478},{"nome":"Teatro Princesa Isabel","distancia":1152},{"nome":"Teatro Villa Lobos","distancia":951}]},{"linha":"2335","descricao_ponto":"Nome do ponto nao identificado","sequencia":"50","latitude":"-22.9981","longitude":"-43.2667","pontos_turisticos":[{"nome":"Pedra da Gávea","distancia":1758},{"nome":"Praia de São Conrado","distancia":335},{"nome":"Praia do Pepino","distancia":557}]},{"linha":"2335","descricao_ponto":"Avenida Armando Lombardi próximo ao 350","sequencia":"54","latitude":"-23.0065","longitude":"-43.3098","pontos_turisticos":[{"nome":"Praia do Pepê","distancia":1098}]},{"linha":"2335","descricao_ponto":"Avenida Das Americas próximo ao 530","sequencia":"72","latitude":"-23.0001","longitude":"-43.3845","pontos_turisticos":[{"nome":"Bosque da Barra","distancia":1298},{"nome":"Cidade das Artes","distancia":1946}]},{"linha":"2335","descricao_ponto":"Avenida Das Americas próximo ao 13822","sequencia":"85","latitude":"-23.0092","longitude":"-43.4477","pontos_turisticos":[]},{"linha":"2335","descricao_ponto":"Avenida Das Americas próximo ao 19037","sequencia":"99","latitude":"-23.0203","longitude":"-43.5008","pontos_turisticos":[{"nome":"Museu de Arte Popular da Casa do Pontal","distancia":1055},{"nome":"Teatro Thiago de Mello","distancia":98}]},{"linha":"2335","descricao_ponto":"Estrada Da Matriz próximo ao 1155","sequencia":"120","latitude":"-22.9964","longitude":"-43.6265","pontos_turisticos":[]},{"linha":"2335","descricao_ponto":"Estrada Da Pedra próximo ao 1","sequencia":"131","latitude":"-23.0003","longitude":"-43.6468","pontos_turisticos":[]},{"linha":"2335","descricao_ponto":"Estrada Da Pedra próximo ao","sequencia":"154","latitude":"-22.9398","longitude":"-43.666","pontos_turisticos":[]},{"linha":"2335","descricao_ponto":"Estrada Da Pedra próximo ao 4945","sequencia":"27","latitude":"-22.9725","longitude":"-43.6479","pontos_turisticos":[]},{"linha":"2335","descricao_ponto":"Avenida Das Americas próximo ao 6323","sequencia":"92","latitude":"-23.0006","longitude":"-43.3787","pontos_turisticos":[{"nome":"Bosque da Barra","distancia":710},{"nome":"Cidade das Artes","distancia":1363},{"nome":"Praia da Barra da Tijuca","distancia":1746},{"nome":"Teatro CEC Antonio Fagundes","distancia":1737}]},{"linha":"2335","descricao_ponto":"Avenida Ministro Ivan Lins próximo ao S/n","sequencia":"111","latitude":"-23.0084","longitude":"-43.3036","pontos_turisticos":[{"nome":"Praia da Joatinga","distancia":1499},{"nome":"Praia do Pepê","distancia":801}]},{"linha":"2335","descricao_ponto":"Avenida Atlantica próximo ao 262","sequencia":"132","latitude":"-22.9808","longitude":"-43.1895","pontos_turisticos":[{"nome":"Casa Laura Alvin","distancia":1193},{"nome":"Casa Laura Alvin","distancia":1193},{"nome":"Centro Cultural Candido Mendes","distancia":1655},{"nome":"Forte de Copacabana","distancia":584},{"nome":"Fundação Eva Klabin Rapaport","distancia":1035},{"nome":"Parque Peter Pan","distancia":373},{"nome":"Praia de Copacabana","distancia":1725},{"nome":"Praia de Ipanema","distancia":1575},{"nome":"Praia do Arpoador","distancia":960},{"nome":"Sala Baden Powell","distancia":1772},{"nome":"Teatro Brigitte Blair","distancia":369},{"nome":"Teatro da Praia","distancia":504},{"nome":"Teatro Gláucio Gil","distancia":1930},{"nome":"Teatro Ipanema","distancia":1644}]},{"linha":"2335","descricao_ponto":"Avenida Das Americas próximo ao 3328","sequencia":"65","latitude":"-22.9998","longitude":"-43.3503","pontos_turisticos":[{"nome":"Centro Cultural Anglo Americano (Suassuna)","distancia":1634},{"nome":"Cidade das Artes","distancia":1567},{"nome":"Teatro CEC Antonio Fagundes","distancia":1958},{"nome":"Teatro dos Grandes Atores","distancia":80}]},{"linha":"2335","descricao_ponto":"Avenida Das Americas próximo ao 18500","sequencia":"94","latitude":"-23.0172","longitude":"-43.4792","pontos_turisticos":[{"nome":"Praia da Macumba","distancia":1983}]},{"linha":"2335","descricao_ponto":"Estrada Da Matriz próximo ao 2339","sequencia":"112","latitude":"-22.9945","longitude":"-43.6155","pontos_turisticos":[]},{"linha":"2335","descricao_ponto":"Estrada Da Matriz próximo ao 1432","sequencia":"117","latitude":"-22.9957","longitude":"-43.6222","pontos_turisticos":[]},{"linha":"2335","descricao_ponto":"Rua Felipe Cardoso próximo ao 28831","sequencia":"9","latitude":"-22.9284","longitude":"-43.6765","pontos_turisticos":[]},{"linha":"2335","descricao_ponto":"Estrada Da Pedra próximo ao","sequencia":"15","latitude":"-22.9398","longitude":"-43.666","pontos_turisticos":[]},{"linha":"2335","descricao_ponto":"Estrada Da Pedra próximo ao 9024","sequencia":"41","latitude":"-23","longitude":"-43.6474","pontos_turisticos":[]},{"linha":"2335","descricao_ponto":"Estrada Da Matriz próximo ao 1432","sequencia":"52","latitude":"-22.9958","longitude":"-43.6221","pontos_turisticos":[]},{"linha":"2335","descricao_ponto":"Avenida Das Americas próximo ao 2300","sequencia":"62","latitude":"-22.9999","longitude":"-43.3408","pontos_turisticos":[{"nome":"Centro Cultural Anglo Americano (Suassuna)","distancia":668},{"nome":"Teatro dos Grandes Atores","distancia":938}]},{"linha":"2335","descricao_ponto":"Avenida Das Americas proximo ao 710","sequencia":"82","latitude":"-23.005","longitude":"-43.4316","pontos_turisticos":[]},{"linha":"2335","descricao_ponto":"Avenida Das Americas próximo ao 15300","sequencia":"88","latitude":"-23.0122","longitude":"-43.46","pontos_turisticos":[{"nome":"Praia Recreio dos Bandeirantes","distancia":1587}]},{"linha":"2335","descricao_ponto":"Avenida Das Americas próximo ao 15344","sequencia":"89","latitude":"-23.013","longitude":"-43.4627","pontos_turisticos":[{"nome":"Praia Recreio dos Bandeirantes","distancia":1537}]},{"linha":"2335","descricao_ponto":"Rua Felipe Cardoso próximo ao 840","sequencia":"5","latitude":"-22.9203","longitude":"-43.6814","pontos_turisticos":[]},{"linha":"2335","descricao_ponto":"Avenida Prefeito Mendes De Morais próximo ao 550","sequencia":"113","latitude":"-22.9985","longitude":"-43.2566","pontos_turisticos":[{"nome":"Praia de São Conrado","distancia":1274},{"nome":"Praia do Pepino","distancia":1517}]},{"linha":"2335","descricao_ponto":"Avenida Niemeyer próximo ao 333","sequencia":"118","latitude":"-22.9948","longitude":"-43.2346","pontos_turisticos":[{"nome":"Planetário","distancia":1830},{"nome":"Praia do Leblon","distancia":1545},{"nome":"Teatro Leblon","distancia":1975},{"nome":"Teatro Maria Clara Machado","distancia":1829}]},{"linha":"2335","descricao_ponto":"Avenida Das Nacoes Unidas próximo ao 2672","sequencia":"143","latitude":"-22.9479","longitude":"-43.1814","pontos_turisticos":[{"nome":"Cristo Redentor (Corcovado)","distancia":1936},{"nome":"Fundação Casa de Rui Barbosa","distancia":589},{"nome":"Mirante Dona Marta","distancia":1657},{"nome":"Museu Carmem Miranda","distancia":1171},{"nome":"Museu do Índio","distancia":1113},{"nome":"Pão de Açúcar","distancia":1715},{"nome":"Parque Eduardo Guinle","distancia":1838},{"nome":"Praia da Urca","distancia":1878},{"nome":"Praia de Botafogo","distancia":315},{"nome":"Praia Vermelha","distancia":1890},{"nome":"Teatro Bibi Ferreira","distancia":451},{"nome":"Teatro do Instituto Benjamin Constant","distancia":1123},{"nome":"Teatro Gláucio Gil","distancia":1946},{"nome":"Teatro Princesa Isabel","distancia":1831},{"nome":"Teatro Villa Lobos","distancia":1617}]},{"linha":"2335","descricao_ponto":"Avenida Das Nacoes Unidas próximo ao 68","sequencia":"7","latitude":"-22.9428","longitude":"-43.1769","pontos_turisticos":[{"nome":"Aterro do Flamengo","distancia":1622},{"nome":"Fundação Casa de Rui Barbosa","distancia":1263},{"nome":"Museu Carmem Miranda","distancia":486},{"nome":"Museu da República","distancia":1883},{"nome":"Museu de Folclore Edison Carneiro","distancia":1863},{"nome":"Museu do Índio","distancia":1796},{"nome":"Oi Futuro","distancia":1424},{"nome":"Pão de Açúcar","distancia":1754},{"nome":"Parque Eduardo Guinle","distancia":1391},{"nome":"Praia da Urca","distancia":1522},{"nome":"Praia de Botafogo","distancia":479},{"nome":"Praia do Flamengo","distancia":1594},{"nome":"Praia Vermelha","distancia":1852},{"nome":"Teatro Bibi Ferreira","distancia":936},{"nome":"Teatro do Instituto Benjamin Constant","distancia":1246}]},{"linha":"2335","descricao_ponto":"Avenida Niemeyer próximo ao 383","sequencia":"42","latitude":"-22.9952","longitude":"-43.2352","pontos_turisticos":[{"nome":"Planetário","distancia":1889},{"nome":"Praia do Leblon","distancia":1620},{"nome":"Teatro Maria Clara Machado","distancia":1888}]},{"linha":"2335","descricao_ponto":"Avenida Niemeyer próximo ao 705","sequencia":"44","latitude":"-23","longitude":"-43.2435","pontos_turisticos":[]},{"linha":"2335","descricao_ponto":"Estrada Da Gavea próximo ao 710","sequencia":"48","latitude":"-22.9947","longitude":"-43.2576","pontos_turisticos":[{"nome":"Praia de São Conrado","distancia":1315},{"nome":"Praia do Pepino","distancia":1554}]},{"linha":"2335","descricao_ponto":"Avenida Das Americas próximo ao 8888","sequencia":"75","latitude":"-22.9999","longitude":"-43.3963","pontos_turisticos":[]},{"linha":"2335","descricao_ponto":"Estrada Da Pedra próximo ao 8686","sequencia":"39","latitude":"-22.9966","longitude":"-43.6502","pontos_turisticos":[]},{"linha":"2335","descricao_ponto":"Estrada Da Matriz próximo ao 1485","sequencia":"119","latitude":"-22.996","longitude":"-43.624","pontos_turisticos":[]},{"linha":"2335","descricao_ponto":"Estrada Da Pedra próximo ao 831","sequencia":"152","latitude":"-22.9431","longitude":"-43.6616","pontos_turisticos":[]},{"linha":"2335","descricao_ponto":"Estrada Da Pedra próximo ao 4158","sequencia":"26","latitude":"-22.9689","longitude":"-43.6479","pontos_turisticos":[]},{"linha":"2335","descricao_ponto":"Avenida Das Americas próximo ao 13561","sequencia":"77","latitude":"-23.0096","longitude":"-43.4469","pontos_turisticos":[]},{"linha":"2335","descricao_ponto":"Avenida Niemeyer próximo ao 1130","sequencia":"120","latitude":"-22.991","longitude":"-43.2327","pontos_turisticos":[{"nome":"Parque da Cidade","distancia":1996},{"nome":"Planetário","distancia":1375},{"nome":"Praia do Leblon","distancia":1179},{"nome":"Teatro Café Pequeno","distancia":1710},{"nome":"Teatro Casa da Gávea","distancia":1973},{"nome":"Teatro Casa do Riso","distancia":1604},{"nome":"Teatro Clara Nunes","distancia":1775},{"nome":"Teatro das Artes","distancia":1757},{"nome":"Teatro do Jockey","distancia":1748},{"nome":"Teatro dos Quatro","distancia":1770},{"nome":"Teatro Leblon","distancia":1527},{"nome":"Teatro Maria Clara Machado","distancia":1375},{"nome":"Teatro Vanucci","distancia":1763}]},{"linha":"2335","descricao_ponto":"Avenida Atlantica próximo ao 46","sequencia":"133","latitude":"-22.9786","longitude":"-43.1889","pontos_turisticos":[{"nome":"Casa Laura Alvin","distancia":1389},{"nome":"Casa Laura Alvin","distancia":1389},{"nome":"Centro Cultural Candido Mendes","distancia":1794},{"nome":"Forte de Copacabana","distancia":810},{"nome":"Fundação Eva Klabin Rapaport","distancia":990},{"nome":"Parque Peter Pan","distancia":604},{"nome":"Praia de Copacabana","distancia":1498},{"nome":"Praia de Ipanema","distancia":1751},{"nome":"Praia do Arpoador","distancia":1211},{"nome":"Sala Baden Powell","distancia":1532},{"nome":"Teatro Brigitte Blair","distancia":256},{"nome":"Teatro da Praia","distancia":721},{"nome":"Teatro Gláucio Gil","distancia":1686},{"nome":"Teatro Ipanema","distancia":1790}]},{"linha":"2335","descricao_ponto":"Avenida Niemeyer próximo ao 383","sequencia":"43","latitude":"-22.9973","longitude":"-43.2378","pontos_turisticos":[{"nome":"Praia do Leblon","distancia":1971}]},{"linha":"2335","descricao_ponto":"Estrada Da Matriz próximo ao 1555","sequencia":"115","latitude":"-22.9952","longitude":"-43.6194","pontos_turisticos":[]},{"linha":"2335","descricao_ponto":"Estrada Da Pedra próximo ao 8081","sequencia":"132","latitude":"-22.9997","longitude":"-43.6482","pontos_turisticos":[]},{"linha":"2335","descricao_ponto":"Estrada Da Pedra próximo ao 5327","sequencia":"142","latitude":"-22.9755","longitude":"-43.648","pontos_turisticos":[]},{"linha":"2335","descricao_ponto":"Estrada Da Pedra próximo ao 332","sequencia":"14","latitude":"-22.9389","longitude":"-43.6665","pontos_turisticos":[]},{"linha":"2335","descricao_ponto":"Avenida Das Americas próximo ao 19002","sequencia":"65","latitude":"-23.0202","longitude":"-43.4882","pontos_turisticos":[{"nome":"Praia da Macumba","distancia":1521},{"nome":"Teatro Thiago de Mello","distancia":1385}]},{"linha":"2335","descricao_ponto":"Avenida Das Americas próximo ao 9141","sequencia":"84","latitude":"-23.0002","longitude":"-43.4087","pontos_turisticos":[]},{"linha":"2335","descricao_ponto":"Avenida Das Americas próximo ao 10333","sequencia":"86","latitude":"-23.0004","longitude":"-43.4002","pontos_turisticos":[]},{"linha":"2335","descricao_ponto":"Avenida Das Americas próximo ao 1981","sequencia":"104","latitude":"-23.0008","longitude":"-43.3357","pontos_turisticos":[{"nome":"Centro Cultural Anglo Americano (Suassuna)","distancia":136},{"nome":"Teatro dos Grandes Atores","distancia":1458}]},{"linha":"2335","descricao_ponto":"Avenida Atlantica próximo ao 1812","sequencia":"12","latitude":"-22.9657","longitude":"-43.175","pontos_turisticos":[{"nome":"Pão de Açúcar","distancia":1399},{"nome":"Praia de Copacabana","distancia":529},{"nome":"Praia Leme","distancia":904},{"nome":"Praia Vermelha","distancia":1585},{"nome":"Sala Baden Powell","distancia":597},{"nome":"Teatro do Instituto Benjamin Constant","distancia":1441},{"nome":"Teatro Gláucio Gil","distancia":595},{"nome":"Teatro Princesa Isabel","distancia":307},{"nome":"Teatro Villa Lobos","distancia":489}]},{"linha":"2335","descricao_ponto":"Avenida Das Americas próximo ao 1976","sequencia":"61","latitude":"-23","longitude":"-43.3386","pontos_turisticos":[{"nome":"Centro Cultural Anglo Americano (Suassuna)","distancia":445},{"nome":"Teatro dos Grandes Atores","distancia":1162}]},{"linha":"2335","descricao_ponto":"Avenida Das Americas próximo ao 15814","sequencia":"91","latitude":"-23.015","longitude":"-43.4706","pontos_turisticos":[{"nome":"Praia Recreio dos Bandeirantes","distancia":1721}]},{"linha":"2335","descricao_ponto":"Estrada Do Magarca próximo ao 7111","sequencia":"137","latitude":"-22.9868","longitude":"-43.6511","pontos_turisticos":[]},{"linha":"2335","descricao_ponto":"Estrada Do Magarca próximo ao 14791","sequencia":"33","latitude":"-22.9876","longitude":"-43.6516","pontos_turisticos":[]},{"linha":"2335","descricao_ponto":"Nome do ponto nao identificado","sequencia":"129","latitude":"-22.9869","longitude":"-43.191","pontos_turisticos":[{"nome":"Casa Laura Alvin","distancia":844},{"nome":"Casa Laura Alvin","distancia":844},{"nome":"Centro Cultural Candido Mendes","distancia":1457},{"nome":"Forte de Copacabana","distancia":344},{"nome":"Fundação Eva Klabin Rapaport","distancia":1418},{"nome":"Parque Peter Pan","distancia":427},{"nome":"Praia de Ipanema","distancia":1252},{"nome":"Praia do Arpoador","distancia":286},{"nome":"Teatro Brigitte Blair","distancia":999},{"nome":"Teatro da Praia","distancia":435},{"nome":"Teatro Ipanema","distancia":1423}]},{"linha":"2335","descricao_ponto":"Avenida Niemeyer próximo ao 2555","sequencia":"45","latitude":"-22.9989","longitude":"-43.2514","pontos_turisticos":[{"nome":"Praia de São Conrado","distancia":1797}]},{"linha":"2335","descricao_ponto":"Avenida Das Americas próximo ao 514","sequencia":"79","latitude":"-23.0005","longitude":"-43.4173","pontos_turisticos":[]},{"linha":"2335","descricao_ponto":"Estrada Da Pedra próximo ao 9376","sequencia":"42","latitude":"-23.0005","longitude":"-43.645","pontos_turisticos":[]},{"linha":"2335","descricao_ponto":"Avenida Das Americas próximo ao 16285","sequencia":"70","latitude":"-23.0166","longitude":"-43.4739","pontos_turisticos":[{"nome":"Praia Recreio dos Bandeirantes","distancia":1853}]},{"linha":"2335","descricao_ponto":"Avenida Das Americas próximo ao 16285","sequencia":"71","latitude":"-23.0155","longitude":"-43.4695","pontos_turisticos":[{"nome":"Praia Recreio dos Bandeirantes","distancia":1605}]},{"linha":"2335","descricao_ponto":"Avenida Das Americas próximo ao 7607","sequencia":"90","latitude":"-23.0008","longitude":"-43.386","pontos_turisticos":[{"nome":"Bosque da Barra","distancia":1456}]},{"linha":"2335","descricao_ponto":"Avenida Das Americas próximo ao 2151","sequencia":"105","latitude":"-23.001","longitude":"-43.3319","pontos_turisticos":[{"nome":"Centro Cultural Anglo Americano (Suassuna)","distancia":254},{"nome":"Teatro dos Grandes Atores","distancia":1848}]},{"linha":"2335","descricao_ponto":"Avenida Vieira Souto próximo ao 530","sequencia":"125","latitude":"-22.9863","longitude":"-43.2094","pontos_turisticos":[{"nome":"Casa Laura Alvin","distancia":1041},{"nome":"Casa Laura Alvin","distancia":1041},{"nome":"Centro Cultural Candido Mendes","distancia":473},{"nome":"Fundação Eva Klabin Rapaport","distancia":1627},{"nome":"Lagoa Rodrigo de Freitas","distancia":1683},{"nome":"Parque Peter Pan","distancia":1808},{"nome":"Praia de Ipanema","distancia":640},{"nome":"Praia do Arpoador","distancia":1726},{"nome":"Praia do Leblon","distancia":1286},{"nome":"Teatro Café Pequeno","distancia":916},{"nome":"Teatro Casa do Riso","distancia":1539},{"nome":"Teatro da Praia","distancia":1670},{"nome":"Teatro do Jockey","distancia":1897},{"nome":"Teatro Ipanema","distancia":485},{"nome":"Teatro Leblon","distancia":1486}]},{"linha":"2335","descricao_ponto":"Avenida Lauro Sodre próximo ao 150","sequencia":"11","latitude":"-22.9549","longitude":"-43.1783","pontos_turisticos":[{"nome":"Fundação Casa de Rui Barbosa","distancia":1070},{"nome":"Museu Carmem Miranda","distancia":1619},{"nome":"Museu do Índio","distancia":1371},{"nome":"Pão de Açúcar","distancia":1172},{"nome":"Praia da Urca","distancia":1750},{"nome":"Praia de Botafogo","distancia":1119},{"nome":"Praia de Copacabana","distancia":1524},{"nome":"Praia Leme","distancia":1512},{"nome":"Praia Vermelha","distancia":1395},{"nome":"Sala Baden Powell","distancia":1379},{"nome":"Teatro Bibi Ferreira","distancia":1217},{"nome":"Teatro do Instituto Benjamin Constant","distancia":680},{"nome":"Teatro Gláucio Gil","distancia":1195},{"nome":"Teatro Princesa Isabel","distancia":990},{"nome":"Teatro Villa Lobos","distancia":777}]},{"linha":"2335","descricao_ponto":"Avenida Atlantica próximo ao 3264","sequencia":"20","latitude":"-22.9763","longitude":"-43.188","pontos_turisticos":[{"nome":"Casa Laura Alvin","distancia":1630},{"nome":"Casa Laura Alvin","distancia":1630},{"nome":"Centro Cultural Candido Mendes","distancia":1989},{"nome":"Forte de Copacabana","distancia":1059},{"nome":"Fundação Eva Klabin Rapaport","distancia":1039},{"nome":"Parque Peter Pan","distancia":871},{"nome":"Praia de Copacabana","distancia":1251},{"nome":"Praia de Ipanema","distancia":1974},{"nome":"Praia do Arpoador","distancia":1483},{"nome":"Sala Baden Powell","distancia":1270},{"nome":"Teatro Brigitte Blair","distancia":382},{"nome":"Teatro da Praia","distancia":982},{"nome":"Teatro Gláucio Gil","distancia":1419},{"nome":"Teatro Ipanema","distancia":1989}]},{"linha":"2335","descricao_ponto":"Avenida Das Americas próximo ao 25500","sequencia":"69","latitude":"-22.9998","longitude":"-43.371","pontos_turisticos":[{"nome":"Bosque da Barra","distancia":84},{"nome":"Cidade das Artes","distancia":573},{"nome":"Praia da Barra da Tijuca","distancia":1364},{"nome":"Teatro CEC Antonio Fagundes","distancia":1193}]},{"linha":"2335","descricao_ponto":"Estrada Da Pedra próximo ao 6257","sequencia":"140","latitude":"-22.983","longitude":"-43.6482","pontos_turisticos":[]},{"linha":"2335","descricao_ponto":"Rua Felipe Cardoso próximo ao 1086","sequencia":"8","latitude":"-22.9271","longitude":"-43.6781","pontos_turisticos":[]},{"linha":"2335","descricao_ponto":"Avenida Das Americas próximo ao 29457","sequencia":"58","latitude":"-22.9999","longitude":"-43.5816","pontos_turisticos":[]},{"linha":"2335","descricao_ponto":"Avenida Das Americas próximo ao 27255","sequencia":"60","latitude":"-23.0061","longitude":"-43.5553","pontos_turisticos":[{"nome":"Sítio Roberto Burle Marx","distancia":1986}]},{"linha":"2335","descricao_ponto":"Avenida Das Americas próximo ao 1917","sequencia":"103","latitude":"-23.0006","longitude":"-43.3397","pontos_turisticos":[{"nome":"Centro Cultural Anglo Americano (Suassuna)","distancia":546},{"nome":"Teatro dos Grandes Atores","distancia":1049}]},{"linha":"2335","descricao_ponto":"Avenida Niemeyer próximo ao 204","sequencia":"119","latitude":"-22.9921","longitude":"-43.2337","pontos_turisticos":[{"nome":"Planetário","distancia":1516},{"nome":"Praia do Leblon","distancia":1320},{"nome":"Teatro Café Pequeno","distancia":1859},{"nome":"Teatro Casa do Riso","distancia":1764},{"nome":"Teatro Clara Nunes","distancia":1921},{"nome":"Teatro das Artes","distancia":1903},{"nome":"Teatro do Jockey","distancia":1904},{"nome":"Teatro dos Quatro","distancia":1916},{"nome":"Teatro Leblon","distancia":1686},{"nome":"Teatro Maria Clara Machado","distancia":1516},{"nome":"Teatro Vanucci","distancia":1909}]},{"linha":"2335","descricao_ponto":"Avenida Atlantica próximo ao 770","sequencia":"16","latitude":"-22.9696","longitude":"-43.1819","pontos_turisticos":[{"nome":"Forte de Copacabana","distancia":1904},{"nome":"Fundação Eva Klabin Rapaport","distancia":1807},{"nome":"Parque Peter Pan","distancia":1834},{"nome":"Praia de Copacabana","distancia":307},{"nome":"Praia Leme","distancia":1721},{"nome":"Sala Baden Powell","distancia":305},{"nome":"Teatro Brigitte Blair","distancia":1334},{"nome":"Teatro da Praia","distancia":1951},{"nome":"Teatro Gláucio Gil","distancia":481},{"nome":"Teatro Princesa Isabel","distancia":1068},{"nome":"Teatro Villa Lobos","distancia":1144}]},{"linha":"2335","descricao_ponto":"Avenida Vieira Souto próximo ao 594","sequencia":"32","latitude":"-22.9861","longitude":"-43.211","pontos_turisticos":[{"nome":"Casa Laura Alvin","distancia":1205},{"nome":"Casa Laura Alvin","distancia":1205},{"nome":"Centro Cultural Candido Mendes","distancia":624},{"nome":"Fundação Eva Klabin Rapaport","distancia":1733},{"nome":"Lagoa Rodrigo de Freitas","distancia":1646},{"nome":"Parque Peter Pan","distancia":1965},{"nome":"Praia de Ipanema","distancia":805},{"nome":"Praia do Arpoador","distancia":1891},{"nome":"Praia do Leblon","distancia":1125},{"nome":"Teatro Café Pequeno","distancia":753},{"nome":"Teatro Casa do Riso","distancia":1385},{"nome":"Teatro da Praia","distancia":1828},{"nome":"Teatro do Jockey","distancia":1749},{"nome":"Teatro Ipanema","distancia":642},{"nome":"Teatro Leblon","distancia":1328}]},{"linha":"2335","descricao_ponto":"Avenida Niemeyer próximo ao 333","sequencia":"41","latitude":"-22.9948","longitude":"-43.2346","pontos_turisticos":[{"nome":"Planetário","distancia":1830},{"nome":"Praia do Leblon","distancia":1545},{"nome":"Teatro Leblon","distancia":1975},{"nome":"Teatro Maria Clara Machado","distancia":1829}]},{"linha":"2335","descricao_ponto":"BRT Mato Alto - Alimentadoras","sequencia":"106","latitude":"-22.9941","longitude":"-43.5962","pontos_turisticos":[{"nome":"Capela Magdelena Roberto de Regina","distancia":1949}]},{"linha":"2335","descricao_ponto":"Estrada Da Pedra próximo ao 4267","sequencia":"133","latitude":"-22.9958","longitude":"-43.6502","pontos_turisticos":[]},{"linha":"2335","descricao_ponto":"Estrada Do Magarca próximo ao 4444","sequencia":"136","latitude":"-22.9878","longitude":"-43.6518","pontos_turisticos":[]},{"linha":"2335","descricao_ponto":"BRT Curral Falso","sequencia":"13","latitude":"-22.9367","longitude":"-43.667","pontos_turisticos":[]},{"linha":"2335","descricao_ponto":"Estrada Da Pedra próximo ao 24407","sequencia":"24","latitude":"-22.9615","longitude":"-43.649","pontos_turisticos":[]},{"linha":"2335","descricao_ponto":"Avenida Das Americas próximo ao 6601","sequencia":"94","latitude":"-23.0005","longitude":"-43.3723","pontos_turisticos":[{"nome":"Bosque da Barra","distancia":89},{"nome":"Cidade das Artes","distancia":722},{"nome":"Praia da Barra da Tijuca","distancia":1348},{"nome":"Teatro CEC Antonio Fagundes","distancia":1321}]},{"linha":"2335","descricao_ponto":"Avenida Das Americas próximo ao 3665","sequencia":"98","latitude":"-23.0003","longitude":"-43.3525","pontos_turisticos":[{"nome":"Bosque da Barra","distancia":1978},{"nome":"Centro Cultural Anglo Americano (Suassuna)","distancia":1856},{"nome":"Cidade das Artes","distancia":1349},{"nome":"Praia da Barra da Tijuca","distancia":1849},{"nome":"Teatro CEC Antonio Fagundes","distancia":1809},{"nome":"Teatro dos Grandes Atores","distancia":262}]},{"linha":"2335","descricao_ponto":"Avenida Das Americas próximo ao 2250","sequencia":"102","latitude":"-23.0005","longitude":"-43.3428","pontos_turisticos":[{"nome":"Centro Cultural Anglo Americano (Suassuna)","distancia":863},{"nome":"Teatro dos Grandes Atores","distancia":731}]},{"linha":"2335","descricao_ponto":"BRS 1, 3 - GAL. VENÂNCIO FLORES","sequencia":"122","latitude":"-22.9873","longitude":"-43.2239","pontos_turisticos":[{"nome":"Centro Cultural Candido Mendes","distancia":1948},{"nome":"Jardim Botânico","distancia":1826},{"nome":"Jockey Club Brasileiro","distancia":1506},{"nome":"Planetário","distancia":1143},{"nome":"Praia do Leblon","distancia":203},{"nome":"Teatro Café Pequeno","distancia":724},{"nome":"Teatro Casa da Gávea","distancia":1506},{"nome":"Teatro Casa do Riso","distancia":834},{"nome":"Teatro Clara Nunes","distancia":1367},{"nome":"Teatro das Artes","distancia":1363},{"nome":"Teatro do Jockey","distancia":1151},{"nome":"Teatro dos Quatro","distancia":1359},{"nome":"Teatro Ipanema","distancia":1969},{"nome":"Teatro Leblon","distancia":728},{"nome":"Teatro Maria Clara Machado","distancia":1143},{"nome":"Teatro Vanucci","distancia":1367}]},{"linha":"2335","descricao_ponto":"Avenida Das Americas próximo ao 16400","sequencia":"90","latitude":"-23.0144","longitude":"-43.4682","pontos_turisticos":[{"nome":"Praia Recreio dos Bandeirantes","distancia":1621}]},{"linha":"2335","descricao_ponto":"Avenida Das Americas próximo ao 27255","sequencia":"103","latitude":"-23.0052","longitude":"-43.558","pontos_turisticos":[]},{"linha":"2335","descricao_ponto":"Estrada Da Pedra próximo ao 831","sequencia":"151","latitude":"-22.9457","longitude":"-43.6566","pontos_turisticos":[]},{"linha":"2335","descricao_ponto":"Rua Felipe Cardoso próximo ao 1086","sequencia":"161","latitude":"-22.9271","longitude":"-43.678","pontos_turisticos":[]},{"linha":"2335","descricao_ponto":"Rua Felipe Cardoso próximo ao 337","sequencia":"164","latitude":"-22.9207","longitude":"-43.6809","pontos_turisticos":[]},{"linha":"2335","descricao_ponto":"Rua Felipe Cardoso próximo ao 951","sequencia":"7","latitude":"-22.9249","longitude":"-43.6792","pontos_turisticos":[]},{"linha":"2335","descricao_ponto":"Avenida Das Americas próximo ao 7897","sequencia":"87","latitude":"-23.0005","longitude":"-43.3959","pontos_turisticos":[]},{"linha":"2335","descricao_ponto":"Avenida Das Americas próximo ao 3979","sequencia":"100","latitude":"-23.0004","longitude":"-43.3475","pontos_turisticos":[{"nome":"Centro Cultural Anglo Americano (Suassuna)","distancia":1344},{"nome":"Cidade das Artes","distancia":1859},{"nome":"Teatro dos Grandes Atores","distancia":250}]},{"linha":"2335","descricao_ponto":"Avenida Das Americas próximo ao 3255","sequencia":"101","latitude":"-23.0004","longitude":"-43.3465","pontos_turisticos":[{"nome":"Centro Cultural Anglo Americano (Suassuna)","distancia":1242},{"nome":"Cidade das Artes","distancia":1961},{"nome":"Teatro dos Grandes Atores","distancia":352}]},{"linha":"2335","descricao_ponto":"Avenida Niemeyer próximo ao 37","sequencia":"121","latitude":"-22.99","longitude":"-43.2277","pontos_turisticos":[{"nome":"Jockey Club Brasileiro","distancia":1806},{"nome":"Planetário","distancia":1268},{"nome":"Praia do Leblon","distancia":665},{"nome":"Teatro Café Pequeno","distancia":1214},{"nome":"Teatro Casa da Gávea","distancia":1774},{"nome":"Teatro Casa do Riso","distancia":1236},{"nome":"Teatro Clara Nunes","distancia":1599},{"nome":"Teatro das Artes","distancia":1588},{"nome":"Teatro do Jockey","distancia":1473},{"nome":"Teatro dos Quatro","distancia":1593},{"nome":"Teatro Leblon","distancia":1141},{"nome":"Teatro Maria Clara Machado","distancia":1268},{"nome":"Teatro Vanucci","distancia":1594}]},{"linha":"2335","descricao_ponto":"Avenida Das Nacoes Unidas próximo ao 3114","sequencia":"144","latitude":"-22.9438","longitude":"-43.1808","pontos_turisticos":[{"nome":"Aterro do Flamengo","distancia":1887},{"nome":"Cristo Redentor (Corcovado)","distancia":1849},{"nome":"Fundação Casa de Rui Barbosa","distancia":886},{"nome":"Mirante Dona Marta","distancia":1720},{"nome":"Museu Carmem Miranda","distancia":900},{"nome":"Museu do Índio","distancia":1411},{"nome":"Oi Futuro","distancia":1600},{"nome":"Pão de Açúcar","distancia":1937},{"nome":"Parque Eduardo Guinle","distancia":1389},{"nome":"Praia da Urca","distancia":1870},{"nome":"Praia de Botafogo","distancia":146},{"nome":"Praia do Flamengo","distancia":1871},{"nome":"Teatro Bibi Ferreira","distancia":528},{"nome":"Teatro do Instituto Benjamin Constant","distancia":1369}]},{"linha":"2335","descricao_ponto":"Avenida Das Nacoes Unidas próximo ao 501","sequencia":"10","latitude":"-22.9495","longitude":"-43.1806","pontos_turisticos":[{"nome":"Fundação Casa de Rui Barbosa","distancia":646},{"nome":"Mirante Dona Marta","distancia":1770},{"nome":"Museu Carmem Miranda","distancia":1231},{"nome":"Museu do Índio","distancia":1132},{"nome":"Pão de Açúcar","distancia":1560},{"nome":"Praia da Urca","distancia":1807},{"nome":"Praia de Botafogo","distancia":488},{"nome":"Praia Vermelha","distancia":1745},{"nome":"Sala Baden Powell","distancia":1959},{"nome":"Teatro Bibi Ferreira","distancia":616},{"nome":"Teatro do Instituto Benjamin Constant","distancia":968},{"nome":"Teatro Gláucio Gil","distancia":1768},{"nome":"Teatro Princesa Isabel","distancia":1635},{"nome":"Teatro Villa Lobos","distancia":1421}]},{"linha":"2335","descricao_ponto":"Avenida Das Americas próximo ao 500","sequencia":"56","latitude":"-23.0047","longitude":"-43.3198","pontos_turisticos":[{"nome":"Centro Cultural Anglo Americano (Suassuna)","distancia":1549},{"nome":"Praia do Pepê","distancia":1909}]},{"linha":"2335","descricao_ponto":"Avenida Das Americas próximo ao","sequencia":"87","latitude":"-23.0112","longitude":"-43.4559","pontos_turisticos":[{"nome":"Praia Recreio dos Bandeirantes","distancia":1732}]},{"linha":"2335","descricao_ponto":"Estrada Da Pedra próximo ao 2229","sequencia":"149","latitude":"-22.9497","longitude":"-43.6519","pontos_turisticos":[]},{"linha":"2335","descricao_ponto":"Avenida Das Americas próximo ao 16421","sequencia":"72","latitude":"-23.0148","longitude":"-43.4669","pontos_turisticos":[{"nome":"Praia Recreio dos Bandeirantes","distancia":1512}]},{"linha":"2335","descricao_ponto":"Avenida Das Americas próximo ao 1029","sequencia":"73","latitude":"-23.014","longitude":"-43.4637","pontos_turisticos":[{"nome":"Praia Recreio dos Bandeirantes","distancia":1457}]},{"linha":"2335","descricao_ponto":"Nome do ponto nao identificado","sequencia":"124","latitude":"-22.9862","longitude":"-43.2114","pontos_turisticos":[{"nome":"Casa Laura Alvin","distancia":1246},{"nome":"Casa Laura Alvin","distancia":1246},{"nome":"Centro Cultural Candido Mendes","distancia":666},{"nome":"Fundação Eva Klabin Rapaport","distancia":1771},{"nome":"Lagoa Rodrigo de Freitas","distancia":1656},{"nome":"Praia de Ipanema","distancia":844},{"nome":"Praia do Arpoador","distancia":1930},{"nome":"Praia do Leblon","distancia":1083},