[{"linha":"2343","descricao_ponto":"Estrada Rio Jequia próximo ao 1042","sequencia":"8","latitude":"-22.8196","longitude":"-43.1825","pontos_turisticos":[]},{"linha":"2343","descricao_ponto":"Estrada Do Galeao próximo ao 4001","sequencia":"23","latitude":"-22.8114","longitude":"-43.2176","pontos_turisticos":[]},{"linha":"2343","descricao_ponto":"Estrada Do Galeao próximo ao 54","sequencia":"27","latitude":"-22.8254","longitude":"-43.233","pontos_turisticos":[]},{"linha":"2343","descricao_ponto":"Rua Maldonado próximo ao 470","sequencia":"1","latitude":"-22.825","longitude":"-43.1708","pontos_turisticos":[]},{"linha":"2343","descricao_ponto":"Rua Uca próximo ao 122","sequencia":"25","latitude":"-22.8183","longitude":"-43.2024","pontos_turisticos":[]},{"linha":"2343","descricao_ponto":"Estrada Da Bica próximo ao 584","sequencia":"34","latitude":"-22.8171","longitude":"-43.1876","pontos_turisticos":[]},{"linha":"2343","descricao_ponto":"Rua Cambauba próximo ao 756","sequencia":"21","latitude":"-22.8107","longitude":"-43.2088","pontos_turisticos":[]},{"linha":"2343","descricao_ponto":"Avenida Coronel Luiz Oliveira Sampaio próximo ao 1674","sequencia":"10","latitude":"-22.8165","longitude":"-43.1861","pontos_turisticos":[]},{"linha":"2343","descricao_ponto":"BRS 3, 4 - PASSOS","sequencia":"35","latitude":"-22.9032","longitude":"-43.1844","pontos_turisticos":[{"nome":"Academia Brasileira de Letras","distancia":1449},{"nome":"Arcos da Lapa","distancia":1169},{"nome":"Biblioteca Nacional","distancia":1153},{"nome":"Campo de Santana","distancia":558},{"nome":"Casa França Brasil","distancia":917},{"nome":"Catedral Metropolitana","distancia":934},{"nome":"Centro Cultural Banco do Brasil","distancia":857},{"nome":"Centro Cultural dos Correios","distancia":902},{"nome":"Cidade do Samba","distancia":1625},{"nome":"Confeitaria Colombo","distancia":617},{"nome":"Espaço Cultural da Marinha","distancia":1046},{"nome":"Igreja de São Francisco da Penitência","distancia":669},{"nome":"Igreja e Convento de Santa Teresa","distancia":1447},{"nome":"Igreja Nossa Senhora da Candelária","distancia":744},{"nome":"Igreja Nossa Senhora do Carmo da Antiga Sé","distancia":936},{"nome":"Ilha Fiscal","distancia":1998},{"nome":"Memorial dos Pretos Novos","distancia":1182},{"nome":"Monumento aos Pracinhas","distancia":1819},{"nome":"Mosteiro de São Bento","distancia":980},{"nome":"Museu de Arte do Rio","distancia":828},{"nome":"Museu da Chácara do Céu","distancia":1573},{"nome":"Museu de Arte Moderna","distancia":1646},{"nome":"Museu do Clube Naval","distancia":971},{"nome":"Museu Histórico Nacional","distancia":1554},{"nome":"Museu Nacional de Belas Artes","distancia":1061},{"nome":"Paço Imperial","distancia":1039},{"nome":"Palácio Tiradentes","distancia":1047},{"nome":"Parque das Ruínas","distancia":1609},{"nome":"Praça Paris","distancia":1789},{"nome":"Real Gabinete Português de Leitura","distancia":340},{"nome":"Sala Cecília Meireles","distancia":1391},{"nome":"Sambódromo","distancia":1571},{"nome":"Teatro Carlos Gomes","distancia":487},{"nome":"Teatro Dulcina","distancia":1123},{"nome":"Teatro Glauce Rocha","distancia":907},{"nome":"Teatro João Caetano","distancia":415},{"nome":"Teatro Municipal","distancia":1071},{"nome":"Teatro Rival Petrobras","distancia":1219}]},{"linha":"2343","descricao_ponto":"Rua Cambauba próximo ao 960","sequencia":"23","latitude":"-22.8151","longitude":"-43.2063","pontos_turisticos":[]},{"linha":"2343","descricao_ponto":"BRS 2, 4 - CIDADE NOVA","sequencia":"9","latitude":"-22.9097","longitude":"-43.2061","pontos_turisticos":[{"nome":"Campo de Santana","distancia":1851},{"nome":"Centro Luiz Gonzaga de Tradições Nordestinas","distancia":1973},{"nome":"Cidade do Samba","distancia":1945},{"nome":"Quinta da Boa Vista/Museu Nacional","distancia":1981},{"nome":"Sambódromo","distancia":969},{"nome":"Teatro Mário Lago","distancia":1912}]},{"linha":"2343","descricao_ponto":"Rua Republica Arabe Da Siria próximo ao 2879","sequencia":"18","latitude":"-22.8058","longitude":"-43.2119","pontos_turisticos":[]},{"linha":"2343","descricao_ponto":"Estrada Do Galeao próximo ao 3300","sequencia":"17","latitude":"-22.8075","longitude":"-43.2147","pontos_turisticos":[]},{"linha":"2343","descricao_ponto":"Estrada Rio Jequia próximo ao 692","sequencia":"7","latitude":"-22.8202","longitude":"-43.1793","pontos_turisticos":[]},{"linha":"2343","descricao_ponto":"Estrada Do Galeao próximo ao S/n","sequencia":"29","latitude":"-22.8324","longitude":"-43.2427","pontos_turisticos":[{"nome":"Praia de Ramos","distancia":1055}]},{"linha":"2343","descricao_ponto":"Estrada Do Galeao próximo ao 3300","sequencia":"12","latitude":"-22.8256","longitude":"-43.2329","pontos_turisticos":[]},{"linha":"2343","descricao_ponto":"Estrada Da Bica próximo ao 227","sequencia":"28","latitude":"-22.8185","longitude":"-43.1981","pontos_turisticos":[]},{"linha":"2343","descricao_ponto":"Rua Cambauba próximo ao 1087","sequencia":"18","latitude":"-22.8131","longitude":"-43.2073","pontos_turisticos":[]},{"linha":"2343","descricao_ponto":"Rua Maldonado próximo ao 157","sequencia":"42","latitude":"-22.825","longitude":"-43.1706","pontos_turisticos":[]},{"linha":"2343","descricao_ponto":"Estrada Da Bica próximo ao 72","sequencia":"26","latitude":"-22.819","longitude":"-43.2006","pontos_turisticos":[]},{"linha":"2343","descricao_ponto":"Estrada Da Bica próximo ao 363","sequencia":"15","latitude":"-22.8184","longitude":"-43.1968","pontos_turisticos":[]},{"linha":"2343","descricao_ponto":"Rua Cambauba próximo ao 670","sequencia":"24","latitude":"-22.8174","longitude":"-43.2029","pontos_turisticos":[]},{"linha":"2343","descricao_ponto":"Estrada Da Bica próximo ao 123","sequencia":"31","latitude":"-22.819","longitude":"-43.1932","pontos_turisticos":[]},{"linha":"2343","descricao_ponto":"Praia Jequia próximo ao 1","sequencia":"41","latitude":"-22.8248","longitude":"-43.173","pontos_turisticos":[]},{"linha":"2343","descricao_ponto":"Estrada Da Bica próximo ao 723","sequencia":"29","latitude":"-22.8184","longitude":"-43.1962","pontos_turisticos":[]},{"linha":"2343","descricao_ponto":"Estrada Do Galeao próximo ao 3242","sequencia":"24","latitude":"-22.8153","longitude":"-43.2219","pontos_turisticos":[]},{"linha":"2343","descricao_ponto":"Rua Cambauba próximo ao 1087","sequencia":"22","latitude":"-22.8127","longitude":"-43.2078","pontos_turisticos":[]},{"linha":"2343","descricao_ponto":"Estrada Rio Jequia próximo ao 276","sequencia":"38","latitude":"-22.8219","longitude":"-43.1772","pontos_turisticos":[]},{"linha":"2343","descricao_ponto":"Estrada Da Bica próximo ao 584","sequencia":"11","latitude":"-22.8182","longitude":"-43.188","pontos_turisticos":[]},{"linha":"2343","descricao_ponto":"Rua Cambauba próximo ao 685","sequencia":"19","latitude":"-22.8108","longitude":"-43.2088","pontos_turisticos":[]},{"linha":"2343","descricao_ponto":"Estrada Da Bica próximo ao 110","sequencia":"33","latitude":"-22.8189","longitude":"-43.1884","pontos_turisticos":[]},{"linha":"2343","descricao_ponto":"BRS 2, 4 - CENTRAL","sequencia":"7","latitude":"-22.905","longitude":"-43.1916","pontos_turisticos":[{"nome":"Arcos da Lapa","distancia":1483},{"nome":"Biblioteca Nacional","distancia":1714},{"nome":"Campo de Santana","distancia":383},{"nome":"Casa França Brasil","distancia":1679},{"nome":"Catedral Metropolitana","distancia":1292},{"nome":"Centro Cultural Banco do Brasil","distancia":1620},{"nome":"Centro Cultural dos Correios","distancia":1666},{"nome":"Cidade do Samba","distancia":1309},{"nome":"Confeitaria Colombo","distancia":1311},{"nome":"Espaço Cultural da Marinha","distancia":1810},{"nome":"Igreja de São Francisco da Penitência","distancia":1282},{"nome":"Igreja e Convento de Santa Teresa","distancia":1656},{"nome":"Igreja Nossa Senhora da Candelária","distancia":1506},{"nome":"Igreja Nossa Senhora do Carmo da Antiga Sé","distancia":1685},{"nome":"Memorial dos Pretos Novos","distancia":1003},{"nome":"Mosteiro de São Bento","distancia":1678},{"nome":"Museu de Arte do Rio","distancia":1409},{"nome":"Museu da Chácara do Céu","distancia":1571},{"nome":"Museu do Clube Naval","distancia":1575},{"nome":"Museu Nacional de Belas Artes","distancia":1646},{"nome":"Paço Imperial","distancia":1783},{"nome":"Palácio Tiradentes","distancia":1782},{"nome":"Parque das Ruínas","distancia":1681},{"nome":"Real Gabinete Português de Leitura","distancia":967},{"nome":"Sala Cecília Meireles","distancia":1719},{"nome":"Sambódromo","distancia":897},{"nome":"Teatro Carlos Gomes","distancia":962},{"nome":"Teatro Dulcina","distancia":1619},{"nome":"Teatro Glauce Rocha","distancia":1544},{"nome":"Teatro João Caetano","distancia":966},{"nome":"Teatro Municipal","distancia":1633},{"nome":"Teatro Rival Petrobras","distancia":1715}]},{"linha":"2343","descricao_ponto":"Estrada Rio Jequia próximo ao 1404","sequencia":"36","latitude":"-22.8181","longitude":"-43.1852","pontos_turisticos":[]},{"linha":"2343","descricao_ponto":"Rua Cambauba próximo ao 1301","sequencia":"17","latitude":"-22.8154","longitude":"-43.2062","pontos_turisticos":[]},{"linha":"2343","descricao_ponto":"BRS 4 - PRAÇA ONZE","sequencia":"8","latitude":"-22.9078","longitude":"-43.2004","pontos_turisticos":[{"nome":"Campo de Santana","distancia":1242},{"nome":"Cidade do Samba","distancia":1537},{"nome":"Memorial dos Pretos Novos","distancia":1511},{"nome":"Museu da Chácara do Céu","distancia":1975},{"nome":"Real Gabinete Português de Leitura","distancia":1885},{"nome":"Sambódromo","distancia":547},{"nome":"Teatro Carlos Gomes","distancia":1833},{"nome":"Teatro João Caetano","distancia":1862}]},{"linha":"2343","descricao_ponto":"Rua Cambauba próximo ao 463","sequencia":"20","latitude":"-22.8086","longitude":"-43.2079","pontos_turisticos":[]},{"linha":"2343","descricao_ponto":"Avenida Franklin Roosevelt próximo ao 115","sequencia":"2","latitude":"-22.9094","longitude":"-43.1704","pontos_turisticos":[{"nome":"Academia Brasileira de Letras","distancia":310},{"nome":"Arcos da Lapa","distancia":1047},{"nome":"Biblioteca Nacional","distancia":543},{"nome":"Campo de Santana","distancia":1862},{"nome":"Casa França Brasil","distancia":1153},{"nome":"Catedral Metropolitana","distancia":1071},{"nome":"Centro Cultural Banco do Brasil","distancia":1161},{"nome":"Centro Cultural dos Correios","distancia":1060},{"nome":"Confeitaria Colombo","distancia":977},{"nome":"Espaço Cultural da Marinha","distancia":1013},{"nome":"Igreja de São Francisco da Penitência","distancia":949},{"nome":"Igreja e Convento de Santa Teresa","distancia":1230},{"nome":"Igreja Nossa Senhora da Candelária","distancia":1216},{"nome":"Igreja Nossa Senhora da Glória do Outeiro","distancia":1419},{"nome":"Igreja Nossa Senhora do Carmo da Antiga Sé","distancia":847},{"nome":"Ilha Fiscal","distancia":1453},{"nome":"Monumento aos Pracinhas","distancia":873},{"nome":"Mosteiro de São Bento","distancia":1602},{"nome":"Museu de Arte do Rio","distancia":1874},{"nome":"Museu da Chácara do Céu","distancia":1661},{"nome":"Museu da República","distancia":1933},{"nome":"Museu de Arte Moderna","distancia":569},{"nome":"Museu de Folclore Edison Carneiro","distancia":1951},{"nome":"Museu do Clube Naval","distancia":651},{"nome":"Museu Histórico Nacional","distancia":439},{"nome":"Museu Nacional de Belas Artes","distancia":586},{"nome":"Paço Imperial","distancia":762},{"nome":"Palácio Tiradentes","distancia":707},{"nome":"Parque das Ruínas","distancia":1533},{"nome":"Praça Paris","distancia":1033},{"nome":"Real Gabinete Português de Leitura","distancia":1283},{"nome":"Sala Cecília Meireles","distancia":973},{"nome":"Teatro Carlos Gomes","distancia":1265},{"nome":"Teatro Dulcina","distancia":697},{"nome":"Teatro Glauce Rocha","distancia":690},{"nome":"Teatro Glória","distancia":1527},{"nome":"Teatro João Caetano","distancia":1263},{"nome":"Teatro Municipal","distancia":613},{"nome":"Teatro Rival Petrobras","distancia":633}]},{"linha":"2343","descricao_ponto":"Estrada Do Galeao próximo ao S/n","sequencia":"28","latitude":"-22.833","longitude":"-43.2391","pontos_turisticos":[{"nome":"Praia de Ramos","distancia":1320}]},{"linha":"2343","descricao_ponto":"Estrada Do Galeao próximo ao 5049","sequencia":"14","latitude":"-22.818","longitude":"-43.2247","pontos_turisticos":[]},{"linha":"2343","descricao_ponto":"Rua Cambauba próximo ao 241","sequencia":"19","latitude":"-22.8071","longitude":"-43.2082","pontos_turisticos":[]},{"linha":"2343","descricao_ponto":"Estrada Rio Jequia próximo ao 1216","sequencia":"37","latitude":"-22.8189","longitude":"-43.184","pontos_turisticos":[]},{"linha":"2343","descricao_ponto":"Estrada Rio Jequia próximo ao 496","sequencia":"6","latitude":"-22.8204","longitude":"-43.1777","pontos_turisticos":[]},{"linha":"2343","descricao_ponto":"BRS 3, 4 - CENTRAL","sequencia":"34","latitude":"-22.9059","longitude":"-43.1933","pontos_turisticos":[{"nome":"Arcos da Lapa","distancia":1575},{"nome":"Biblioteca Nacional","distancia":1854},{"nome":"Campo de Santana","distancia":516},{"nome":"Casa França Brasil","distancia":1876},{"nome":"Catedral Metropolitana","distancia":1402},{"nome":"Centro Cultural Banco do Brasil","distancia":1817},{"nome":"Centro Cultural dos Correios","distancia":1860},{"nome":"Cidade do Samba","distancia":1341},{"nome":"Confeitaria Colombo","distancia":1487},{"nome":"Igreja de São Francisco da Penitência","distancia":1442},{"nome":"Igreja e Convento de Santa Teresa","distancia":1717},{"nome":"Igreja Nossa Senhora da Candelária","distancia":1703},{"nome":"Igreja Nossa Senhora do Carmo da Antiga Sé","distancia":1871},{"nome":"Memorial dos Pretos Novos","distancia":1093},{"nome":"Mosteiro de São Bento","distancia":1879},{"nome":"Museu de Arte do Rio","distancia":1604},{"nome":"Museu da Chácara do Céu","distancia":1581},{"nome":"Museu do Clube Naval","distancia":1727},{"nome":"Museu Nacional de Belas Artes","distancia":1793},{"nome":"Paço Imperial","distancia":1967},{"nome":"Palácio Tiradentes","distancia":1964},{"nome":"Parque das Ruínas","distancia":1707},{"nome":"Real Gabinete Português de Leitura","distancia":1141},{"nome":"Sala Cecília Meireles","distancia":1807},{"nome":"Sambódromo","distancia":718},{"nome":"Teatro Carlos Gomes","distancia":1114},{"nome":"Teatro Dulcina","distancia":1747},{"nome":"Teatro Glauce Rocha","distancia":1704},{"nome":"Teatro João Caetano","distancia":1129},{"nome":"Teatro Municipal","distancia":1775},{"nome":"Teatro Rival Petrobras","distancia":1842}]},{"linha":"2343","descricao_ponto":"BRS 1,2,3 - OUVIDOR","sequencia":"4","latitude":"-22.9027","longitude":"-43.1756","pontos_turisticos":[{"nome":"Academia Brasileira de Letras","distancia":948},{"nome":"Arcos da Lapa","distancia":1214},{"nome":"Biblioteca Nacional","distancia":786},{"nome":"Campo de Santana","distancia":1377},{"nome":"Casa França Brasil","distancia":259},{"nome":"Catedral Metropolitana","distancia":1051},{"nome":"Centro Cultural Banco do Brasil","distancia":251},{"nome":"Centro Cultural dos Correios","distancia":159},{"nome":"Confeitaria Colombo","distancia":434},{"nome":"Espaço Cultural da Marinha","distancia":215},{"nome":"Igreja de São Francisco da Penitência","distancia":600},{"nome":"Igreja e Convento de Santa Teresa","distancia":1519},{"nome":"Igreja Nossa Senhora da Candelária","distancia":303},{"nome":"Igreja Nossa Senhora do Carmo da Antiga Sé","distancia":69},{"nome":"Ilha Fiscal","distancia":1164},{"nome":"Memorial dos Pretos Novos","distancia":1925},{"nome":"Monumento aos Pracinhas","distancia":1542},{"nome":"Mosteiro de São Bento","distancia":702},{"nome":"Museu de Arte do Rio","distancia":960},{"nome":"Museu da Chácara do Céu","distancia":1848},{"nome":"Museu de Arte Moderna","distancia":1260},{"nome":"Museu do Clube Naval","distancia":618},{"nome":"Museu Histórico Nacional","distancia":706},{"nome":"Museu Nacional de Belas Artes","distancia":691},{"nome":"Paço Imperial","distancia":166},{"nome":"Palácio Tiradentes","distancia":210},{"nome":"Parque das Ruínas","distancia":1796},{"nome":"Praça Paris","distancia":1615},{"nome":"Real Gabinete Português de Leitura","distancia":740},{"nome":"Sala Cecília Meireles","distancia":1323},{"nome":"Teatro Carlos Gomes","distancia":869},{"nome":"Teatro Dulcina","distancia":902},{"nome":"Teatro Glauce Rocha","distancia":521},{"nome":"Teatro João Caetano","distancia":799},{"nome":"Teatro Municipal","distancia":748},{"nome":"Teatro Rival Petrobras","distancia":947}]},{"linha":"2343","descricao_ponto":"Estrada Da Bica próximo ao 227","sequencia":"27","latitude":"-22.8187","longitude":"-43.1996","pontos_turisticos":[]},{"linha":"2343","descricao_ponto":"Estrada Do Galeao próximo ao 2775","sequencia":"22","latitude":"-22.8056","longitude":"-43.212","pontos_turisticos":[]},{"linha":"2343","descricao_ponto":"Rua Cambauba próximo ao 550","sequencia":"20","latitude":"-22.8095","longitude":"-43.2086","pontos_turisticos":[]},{"linha":"2343","descricao_ponto":"Avenida Coronel Luiz Oliveira Sampaio próximo ao 1674","sequencia":"35","latitude":"-22.8165","longitude":"-43.1862","pontos_turisticos":[]},{"linha":"2343","descricao_ponto":"Praia Jequia próximo ao 198","sequencia":"4","latitude":"-22.8237","longitude":"-43.1749","pontos_turisticos":[]},{"linha":"2343","descricao_ponto":"PTMV TERMINAL AV. CHURCHILL - PLATAFORMA A","sequencia":"1","latitude":"-22.9091","longitude":"-43.1708","pontos_turisticos":[{"nome":"Academia Brasileira de Letras","distancia":297},{"nome":"Arcos da Lapa","distancia":1023},{"nome":"Biblioteca Nacional","distancia":506},{"nome":"Campo de Santana","distancia":1816},{"nome":"Casa França Brasil","distancia":1104},{"nome":"Catedral Metropolitana","distancia":1036},{"nome":"Centro Cultural Banco do Brasil","distancia":1111},{"nome":"Centro Cultural dos Correios","distancia":1010},{"nome":"Confeitaria Colombo","distancia":925},{"nome":"Espaço Cultural da Marinha","distancia":967},{"nome":"Igreja de São Francisco da Penitência","distancia":900},{"nome":"Igreja e Convento de Santa Teresa","distancia":1216},{"nome":"Igreja Nossa Senhora da Candelária","distancia":1165},{"nome":"Igreja Nossa Senhora da Glória do Outeiro","distancia":1437},{"nome":"Igreja Nossa Senhora do Carmo da Antiga Sé","distancia":796},{"nome":"Ilha Fiscal","distancia":1434},{"nome":"Monumento aos Pracinhas","distancia":887},{"nome":"Mosteiro de São Bento","distancia":1554},{"nome":"Museu de Arte do Rio","distancia":1822},{"nome":"Museu da Chácara do Céu","distancia":1645},{"nome":"Museu da República","distancia":1952},{"nome":"Museu de Arte Moderna","distancia":580},{"nome":"Museu de Folclore Edison Carneiro","distancia":1971},{"nome":"Museu do Clube Naval","distancia":605},{"nome":"Museu Histórico Nacional","distancia":418},{"nome":"Museu Nacional de Belas Artes","distancia":543},{"nome":"Paço Imperial","distancia":712},{"nome":"Palácio Tiradentes","distancia":657},{"nome":"Parque das Ruínas","distancia":1520},{"nome":"Praça Paris","distancia":1040},{"nome":"Real Gabinete Português de Leitura","distancia":1233},{"nome":"Sala Cecília Meireles","distancia":959},{"nome":"Teatro Carlos Gomes","distancia":1218},{"nome":"Teatro Dulcina","distancia":665},{"nome":"Teatro Glauce Rocha","distancia":640},{"nome":"Teatro Glória","distancia":1555},{"nome":"Teatro João Caetano","distancia":1215},{"nome":"Teatro Municipal","distancia":573},{"nome":"Teatro Rival Petrobras","distancia":606}]},{"linha":"2343","descricao_ponto":"Estrada Da Bica próximo ao 683","sequencia":"14","latitude":"-22.8188","longitude":"-43.1937","pontos_turisticos":[]},{"linha":"2343","descricao_ponto":"Estrada Da Bica próximo ao 227","sequencia":"16","latitude":"-22.8187","longitude":"-43.1995","pontos_turisticos":[]},{"linha":"2343","descricao_ponto":"Estrada Do Galeao próximo ao 5006","sequencia":"25","latitude":"-22.8181","longitude":"-43.225","pontos_turisticos":[]},{"linha":"2343","descricao_ponto":"Praia Jequia próximo ao 198","sequencia":"40","latitude":"-22.8238","longitude":"-43.1745","pontos_turisticos":[]},{"linha":"2343","descricao_ponto":"Estrada Rio Jequia próximo ao 1460","sequencia":"9","latitude":"-22.8177","longitude":"-43.1853","pontos_turisticos":[]},{"linha":"2343","descricao_ponto":"Rua Cambauba próximo ao 241","sequencia":"21","latitude":"-22.8069","longitude":"-43.2074","pontos_turisticos":[]},{"linha":"2343","descricao_ponto":"Estrada Do Galeao próximo ao 50","sequencia":"26","latitude":"-22.8214","longitude":"-43.2287","pontos_turisticos":[]},{"linha":"2343","descricao_ponto":"Estrada Do Galeao próximo ao 4001","sequencia":"16","latitude":"-22.8116","longitude":"-43.2176","pontos_turisticos":[]},{"linha":"2343","descricao_ponto":"BRS 4A - SETE DE SETEMBRO","sequencia":"37","latitude":"-22.9042","longitude":"-43.178","pontos_turisticos":[{"nome":"Academia Brasileira de Letras","distancia":904},{"nome":"Arcos da Lapa","distancia":983},{"nome":"Biblioteca Nacional","distancia":663},{"nome":"Campo de Santana","distancia":1093},{"nome":"Casa França Brasil","distancia":471},{"nome":"Catedral Metropolitana","distancia":794},{"nome":"Centro Cultural Banco do Brasil","distancia":428},{"nome":"Centro Cultural dos Correios","distancia":392},{"nome":"Confeitaria Colombo","distancia":143},{"nome":"Espaço Cultural da Marinha","distancia":503},{"nome":"Igreja de São Francisco da Penitência","distancia":328},{"nome":"Igreja e Convento de Santa Teresa","distancia":1296},{"nome":"Igreja Nossa Senhora da Candelária","distancia":387},{"nome":"Igreja Nossa Senhora da Glória do Outeiro","distancia":1924},{"nome":"Igreja Nossa Senhora do Carmo da Antiga Sé","distancia":300},{"nome":"Ilha Fiscal","distancia":1461},{"nome":"Memorial dos Pretos Novos","distancia":1779},{"nome":"Monumento aos Pracinhas","distancia":1426},{"nome":"Mosteiro de São Bento","distancia":829},{"nome":"Museu de Arte do Rio","distancia":971},{"nome":"Museu da Chácara do Céu","distancia":1591},{"nome":"Museu de Arte Moderna","distancia":1177},{"nome":"Museu do Clube Naval","distancia":465},{"nome":"Museu Histórico Nacional","distancia":889},{"nome":"Museu Nacional de Belas Artes","distancia":558},{"nome":"Paço Imperial","distancia":389},{"nome":"Palácio Tiradentes","distancia":387},{"nome":"Parque das Ruínas","distancia":1554},{"nome":"Praça Paris","distancia":1465},{"nome":"Real Gabinete Português de Leitura","distancia":450},{"nome":"Sala Cecília Meireles","distancia":1129},{"nome":"Teatro Carlos Gomes","distancia":572},{"nome":"Teatro Dulcina","distancia":729},{"nome":"Teatro Glauce Rocha","distancia":365},{"nome":"Teatro João Caetano","distancia":502},{"nome":"Teatro Municipal","distancia":600},{"nome":"Teatro Rival Petrobras","distancia":798}]},{"linha":"2343","descricao_ponto":"Avenida Francisco Bicalho próximo ao","sequencia":"10","latitude":"-22.9086","longitude":"-43.2093","pontos_turisticos":[{"nome":"Centro Luiz Gonzaga de Tradições Nordestinas","distancia":1666},{"nome":"Quinta da Boa Vista/Museu Nacional","distancia":1634},{"nome":"Sambódromo","distancia":1316},{"nome":"Teatro Mário Lago","distancia":1581}]},{"linha":"2343","descricao_ponto":"Estrada Rio Jequia próximo ao 282","sequencia":"5","latitude":"-22.8221","longitude":"-43.1771","pontos_turisticos":[]},{"linha":"2343","descricao_ponto":"Rua Ipiru próximo ao 270","sequencia":"13","latitude":"-22.8199","longitude":"-43.19","pontos_turisticos":[]},{"linha":"2343","descricao_ponto":"Rua Maldonado próximo ao 14","sequencia":"2","latitude":"-22.8253","longitude":"-43.1721","pontos_turisticos":[]},{"linha":"2343","descricao_ponto":"Estrada Do Galeao próximo ao 5515","sequencia":"13","latitude":"-22.8213","longitude":"-43.2284","pontos_turisticos":[]},{"linha":"2343","descricao_ponto":"Estrada Rio Jequia próximo ao 190","sequencia":"39","latitude":"-22.8235","longitude":"-43.1756","pontos_turisticos":[]},{"linha":"2343","descricao_ponto":"Rua Francisco Eugenio próximo ao 1","sequencia":"30","latitude":"-22.9068","longitude":"-43.211","pontos_turisticos":[{"nome":"Centro Luiz Gonzaga de Tradições Nordestinas","distancia":1401},{"nome":"Cidade do Samba","distancia":1993},{"nome":"Jardim Zoológico (Riozoo)","distancia":1845},{"nome":"Quinta da Boa Vista/Museu Nacional","distancia":1430},{"nome":"Sambódromo","distancia":1541},{"nome":"Teatro Mário Lago","distancia":1318}]},{"linha":"2343","descricao_ponto":"Estrada Da Bica próximo ao 621","sequencia":"30","latitude":"-22.8186","longitude":"-43.1946","pontos_turisticos":[]},{"linha":"2343","descricao_ponto":"Praia Jequia próximo ao 170","sequencia":"3","latitude":"-22.8245","longitude":"-43.1732","pontos_turisticos":[]},{"linha":"2343","descricao_ponto":"Estrada Da Bica próximo ao 110","sequencia":"12","latitude":"-22.8192","longitude":"-43.1884","pontos_turisticos":[]},{"linha":"2343","descricao_ponto":"Avenida Francisco Bicalho próximo ao 344","sequencia":"31","latitude":"-22.9081","longitude":"-43.2099","pontos_turisticos":[{"nome":"Centro Luiz Gonzaga de Tradições Nordestinas","distancia":1585},{"nome":"Jardim Zoológico (Riozoo)","distancia":1981},{"nome":"Quinta da Boa Vista/Museu Nacional","distancia":1563},{"nome":"Sambódromo","distancia":1389},{"nome":"Teatro Mário Lago","distancia":1498}]},{"linha":"2343","descricao_ponto":"Avenida Vinte De Janeiro próximo ao 7311","sequencia":"11","latitude":"-22.8333","longitude":"-43.2388","pontos_turisticos":[{"nome":"Praia de Ramos","distancia":1331}]},{"linha":"2343","descricao_ponto":"BRS 4, 5 - PRAÇA ONZE","sequencia":"33","latitude":"-22.9086","longitude":"-43.2013","pontos_turisticos":[{"nome":"Campo de Santana","distancia":1345},{"nome":"Cidade do Samba","distancia":1645},{"nome":"Memorial dos Pretos Novos","distancia":1634},{"nome":"Real Gabinete Português de Leitura","distancia":1990},{"nome":"Sambódromo","distancia":557},{"nome":"Teatro Carlos Gomes","distancia":1930},{"nome":"Teatro João Caetano","distancia":1963}]}]