[{"linha":"247","descricao_ponto":"BRS 3, 4, 5, 6 - ALICE FIGUEIREDO","sequencia":"19","latitude":"-22.9032","longitude":"-43.2537","pontos_turisticos":[{"nome":"Teatro Noel Rosa","distancia":1848}]},{"linha":"247","descricao_ponto":"Rua Dias Da Cruz próximo ao 349","sequencia":"36","latitude":"-22.9042","longitude":"-43.2862","pontos_turisticos":[{"nome":"Teatro Miguel Falabella","distancia":1891}]},{"linha":"247","descricao_ponto":"Rua Camarista Meier próximo ao 193","sequencia":"1","latitude":"-22.9059","longitude":"-43.2964","pontos_turisticos":[]},{"linha":"247","descricao_ponto":"BRS 3, 4, 5, 6 - VITOR MEIRELES","sequencia":"26","latitude":"-22.9023","longitude":"-43.2574","pontos_turisticos":[]},{"linha":"247","descricao_ponto":"Rua Dias Da Cruz próximo ao 247","sequencia":"6","latitude":"-22.9043","longitude":"-43.2873","pontos_turisticos":[{"nome":"Teatro Miguel Falabella","distancia":1924}]},{"linha":"247","descricao_ponto":"Avenida Maracana próximo ao S/n","sequencia":"32","latitude":"-22.9114","longitude":"-43.2248","pontos_turisticos":[{"nome":"Centro Luiz Gonzaga de Tradições Nordestinas","distancia":1716},{"nome":"Estádio do Maracanã","distancia":687},{"nome":"Jardim Zoológico (Riozoo)","distancia":881},{"nome":"Quinta da Boa Vista/Museu Nacional","distancia":663},{"nome":"Teatro Mário Lago","distancia":1418},{"nome":"Teatro Noel Rosa","distancia":1315},{"nome":"Teatro Odylo Costa Filho","distancia":1049},{"nome":"Teatro Ziembinski","distancia":1065}]},{"linha":"247","descricao_ponto":"Rua Sao Francisco Xavier próximo ao 848","sequencia":"19","latitude":"-22.9057","longitude":"-43.241","pontos_turisticos":[{"nome":"Estádio do Maracanã","distancia":1344},{"nome":"Jardim Zoológico (Riozoo)","distancia":1256},{"nome":"Quinta da Boa Vista/Museu Nacional","distancia":1651},{"nome":"Teatro Noel Rosa","distancia":658},{"nome":"Teatro Odylo Costa Filho","distancia":818}]},{"linha":"247","descricao_ponto":"Rua Venancio Ribeiro próximo ao 120","sequencia":"46","latitude":"-22.9057","longitude":"-43.2992","pontos_turisticos":[]},{"linha":"247","descricao_ponto":"BRS 3, 4, 5, 6 - SOUSA DANTAS","sequencia":"23","latitude":"-22.9044","longitude":"-43.2447","pontos_turisticos":[{"nome":"Estádio do Maracanã","distancia":1731},{"nome":"Jardim Zoológico (Riozoo)","distancia":1627},{"nome":"Teatro Noel Rosa","distancia":1011},{"nome":"Teatro Odylo Costa Filho","distancia":1207}]},{"linha":"247","descricao_ponto":"BRS 4, 5 - RUA DE SANTANA","sequencia":"38","latitude":"-22.9067","longitude":"-43.195","pontos_turisticos":[{"nome":"Arcos da Lapa","distancia":1691},{"nome":"Campo de Santana","distancia":683},{"nome":"Catedral Metropolitana","distancia":1534},{"nome":"Cidade do Samba","distancia":1390},{"nome":"Confeitaria Colombo","distancia":1667},{"nome":"Igreja de São Francisco da Penitência","distancia":1612},{"nome":"Igreja e Convento de Santa Teresa","distancia":1805},{"nome":"Igreja Nossa Senhora da Candelária","distancia":1898},{"nome":"Memorial dos Pretos Novos","distancia":1200},{"nome":"Museu de Arte do Rio","distancia":1793},{"nome":"Museu da Chácara do Céu","distancia":1625},{"nome":"Museu do Clube Naval","distancia":1890},{"nome":"Museu Nacional de Belas Artes","distancia":1952},{"nome":"Parque das Ruínas","distancia":1763},{"nome":"Real Gabinete Português de Leitura","distancia":1321},{"nome":"Sala Cecília Meireles","distancia":1916},{"nome":"Sambódromo","distancia":563},{"nome":"Teatro Carlos Gomes","distancia":1280},{"nome":"Teatro Dulcina","distancia":1891},{"nome":"Teatro Glauce Rocha","distancia":1873},{"nome":"Teatro João Caetano","distancia":1302},{"nome":"Teatro Municipal","distancia":1930},{"nome":"Teatro Rival Petrobras","distancia":1983}]},{"linha":"247","descricao_ponto":"BRS 4 - CENTRAL","sequencia":"39","latitude":"-22.9054","longitude":"-43.1912","pontos_turisticos":[{"nome":"Academia Brasileira de Letras","distancia":1964},{"nome":"Arcos da Lapa","distancia":1424},{"nome":"Biblioteca Nacional","distancia":1661},{"nome":"Campo de Santana","distancia":326},{"nome":"Casa França Brasil","distancia":1655},{"nome":"Catedral Metropolitana","distancia":1234},{"nome":"Centro Cultural Banco do Brasil","distancia":1596},{"nome":"Centro Cultural dos Correios","distancia":1638},{"nome":"Cidade do Samba","distancia":1367},{"nome":"Confeitaria Colombo","distancia":1270},{"nome":"Espaço Cultural da Marinha","distancia":1782},{"nome":"Igreja de São Francisco da Penitência","distancia":1234},{"nome":"Igreja e Convento de Santa Teresa","distancia":1595},{"nome":"Igreja Nossa Senhora da Candelária","distancia":1482},{"nome":"Igreja Nossa Senhora do Carmo da Antiga Sé","distancia":1650},{"nome":"Memorial dos Pretos Novos","distancia":1053},{"nome":"Mosteiro de São Bento","distancia":1669},{"nome":"Museu de Arte do Rio","distancia":1411},{"nome":"Museu da Chácara do Céu","distancia":1513},{"nome":"Museu do Clube Naval","distancia":1525},{"nome":"Museu Nacional de Belas Artes","distancia":1595},{"nome":"Paço Imperial","distancia":1747},{"nome":"Palácio Tiradentes","distancia":1744},{"nome":"Parque das Ruínas","distancia":1621},{"nome":"Real Gabinete Português de Leitura","distancia":925},{"nome":"Sala Cecília Meireles","distancia":1659},{"nome":"Sambódromo","distancia":888},{"nome":"Teatro Carlos Gomes","distancia":912},{"nome":"Teatro Dulcina","distancia":1564},{"nome":"Teatro Glauce Rocha","distancia":1497},{"nome":"Teatro João Caetano","distancia":919},{"nome":"Teatro Municipal","distancia":1581},{"nome":"Teatro Rival Petrobras","distancia":1660}]},{"linha":"247","descricao_ponto":"Rua Sao Francisco Xavier próximo ao 330","sequencia":"15","latitude":"-22.9127","longitude":"-43.2359","pontos_turisticos":[{"nome":"Estádio do Maracanã","distancia":505},{"nome":"Jardim Zoológico (Riozoo)","distancia":1174},{"nome":"Quinta da Boa Vista/Museu Nacional","distancia":1387},{"nome":"Teatro Noel Rosa","distancia":281},{"nome":"Teatro Odylo Costa Filho","distancia":256},{"nome":"Teatro Ziembinski","distancia":1532}]},{"linha":"247","descricao_ponto":"Rua Sao Francisco Xavier próximo ao 24","sequencia":"18","latitude":"-22.9079","longitude":"-43.2387","pontos_turisticos":[{"nome":"Estádio do Maracanã","distancia":1007},{"nome":"Jardim Zoológico (Riozoo)","distancia":1085},{"nome":"Quinta da Boa Vista/Museu Nacional","distancia":1441},{"nome":"Teatro Noel Rosa","distancia":334},{"nome":"Teatro Odylo Costa Filho","distancia":480}]},{"linha":"247","descricao_ponto":"BRS 3, 4, 5, 6 - SÃO JOÃO","sequencia":"23","latitude":"-22.9014","longitude":"-43.2505","pontos_turisticos":[{"nome":"Teatro Noel Rosa","distancia":1679},{"nome":"Teatro Odylo Costa Filho","distancia":1886}]},{"linha":"247","descricao_ponto":"Rua Sao Francisco Xavier próximo ao 577","sequencia":"25","latitude":"-22.9109","longitude":"-43.2379","pontos_turisticos":[{"nome":"Estádio do Maracanã","distancia":762},{"nome":"Jardim Zoológico (Riozoo)","distancia":1178},{"nome":"Quinta da Boa Vista/Museu Nacional","distancia":1465},{"nome":"Teatro Noel Rosa","distancia":35},{"nome":"Teatro Odylo Costa Filho","distancia":299},{"nome":"Teatro Ziembinski","distancia":1816}]},{"linha":"247","descricao_ponto":"BRS 4, 5 - PRAÇA ONZE","sequencia":"37","latitude":"-22.9077","longitude":"-43.1982","pontos_turisticos":[{"nome":"Arcos da Lapa","distancia":1960},{"nome":"Campo de Santana","distancia":1017},{"nome":"Catedral Metropolitana","distancia":1824},{"nome":"Cidade do Samba","distancia":1491},{"nome":"Igreja de São Francisco da Penitência","distancia":1942},{"nome":"Memorial dos Pretos Novos","distancia":1400},{"nome":"Museu da Chácara do Céu","distancia":1796},{"nome":"Parque das Ruínas","distancia":1949},{"nome":"Real Gabinete Português de Leitura","distancia":1660},{"nome":"Sambódromo","distancia":442},{"nome":"Teatro Carlos Gomes","distancia":1607},{"nome":"Teatro João Caetano","distancia":1636}]},{"linha":"247","descricao_ponto":"BRS 3, 4, 5, 6 - SOUSA DANTAS","sequencia":"20","latitude":"-22.9046","longitude":"-43.2428","pontos_turisticos":[{"nome":"Estádio do Maracanã","distancia":1564},{"nome":"Jardim Zoológico (Riozoo)","distancia":1432},{"nome":"Quinta da Boa Vista/Museu Nacional","distancia":1837},{"nome":"Teatro Noel Rosa","distancia":864},{"nome":"Teatro Odylo Costa Filho","distancia":1038}]},{"linha":"247","descricao_ponto":"Rua Camarista Meier próximo ao 15","sequencia":"2","latitude":"-22.9045","longitude":"-43.2954","pontos_turisticos":[]},{"linha":"247","descricao_ponto":"Rua Camarista Meier próximo ao 193","sequencia":"48","latitude":"-22.9059","longitude":"-43.2964","pontos_turisticos":[]},{"linha":"247","descricao_ponto":"Rua Dias Da Cruz próximo ao 348","sequencia":"34","latitude":"-22.9034","longitude":"-43.2837","pontos_turisticos":[{"nome":"Teatro Miguel Falabella","distancia":1775}]},{"linha":"247","descricao_ponto":"BRS 3, 4, 5, 6 - NAZÁRIO","sequencia":"22","latitude":"-22.9031","longitude":"-43.2468","pontos_turisticos":[{"nome":"Estádio do Maracanã","distancia":1990},{"nome":"Jardim Zoológico (Riozoo)","distancia":1847},{"nome":"Teatro Noel Rosa","distancia":1267},{"nome":"Teatro Odylo Costa Filho","distancia":1466}]},{"linha":"247","descricao_ponto":"Rua Dias Da Cruz próximo ao 346","sequencia":"35","latitude":"-22.904","longitude":"-43.2853","pontos_turisticos":[{"nome":"Teatro Miguel Falabella","distancia":1855}]},{"linha":"247","descricao_ponto":"BRS 3, 4, 5, 6 - SÃO JOÃO","sequencia":"20","latitude":"-22.903","longitude":"-43.2507","pontos_turisticos":[{"nome":"Teatro Noel Rosa","distancia":1592},{"nome":"Teatro Odylo Costa Filho","distancia":1814}]},{"linha":"247","descricao_ponto":"Avenida Mem De Sa próximo ao 174","sequencia":"5","latitude":"-22.9123","longitude":"-43.186","pontos_turisticos":[{"nome":"Academia Brasileira de Letras","distancia":1344},{"nome":"Arcos da Lapa","distancia":627},{"nome":"Biblioteca Nacional","distancia":1093},{"nome":"Campo de Santana","distancia":670},{"nome":"Casa França Brasil","distancia":1675},{"nome":"Catedral Metropolitana","distancia":562},{"nome":"Centro Cultural Banco do Brasil","distancia":1623},{"nome":"Centro Cultural dos Correios","distancia":1607},{"nome":"Confeitaria Colombo","distancia":1076},{"nome":"Espaço Cultural da Marinha","distancia":1719},{"nome":"Igreja de São Francisco da Penitência","distancia":914},{"nome":"Igreja e Convento de Santa Teresa","distancia":692},{"nome":"Igreja Nossa Senhora da Candelária","distancia":1545},{"nome":"Igreja Nossa Senhora da Glória do Outeiro","distancia":1483},{"nome":"Igreja Nossa Senhora do Carmo da Antiga Sé","distancia":1491},{"nome":"Memorial dos Pretos Novos","distancia":1940},{"nome":"Monumento aos Pracinhas","distancia":1309},{"nome":"Mosteiro de São Bento","distancia":1919},{"nome":"Museu de Arte do Rio","distancia":1846},{"nome":"Museu da Chácara do Céu","distancia":593},{"nome":"Museu da República","distancia":1798},{"nome":"Museu de Arte Moderna","distancia":1321},{"nome":"Museu de Folclore Edison Carneiro","distancia":1818},{"nome":"Museu do Clube Naval","distancia":1065},{"nome":"Museu Histórico Nacional","distancia":1854},{"nome":"Museu Nacional de Belas Artes","distancia":1083},{"nome":"Paço Imperial","distancia":1547},{"nome":"Palácio Tiradentes","distancia":1511},{"nome":"Parque das Ruínas","distancia":688},{"nome":"Praça Paris","distancia":1176},{"nome":"Real Gabinete Português de Leitura","distancia":855},{"nome":"Sala Cecília Meireles","distancia":827},{"nome":"Sambódromo","distancia":1114},{"nome":"Teatro Carlos Gomes","distancia":668},{"nome":"Teatro Dulcina","distancia":933},{"nome":"Teatro Glauce Rocha","distancia":1103},{"nome":"Teatro Glória","distancia":1807},{"nome":"Teatro João Caetano","distancia":759},{"nome":"Teatro Municipal","distancia":1036},{"nome":"Teatro Rival Petrobras","distancia":1005}]},{"linha":"247","descricao_ponto":"Rua Dias Da Cruz próximo ao 35","sequencia":"7","latitude":"-22.9042","longitude":"-43.2859","pontos_turisticos":[{"nome":"Teatro Miguel Falabella","distancia":1886}]},{"linha":"247","descricao_ponto":"Rua Elpidio Boamorte próximo ao 323","sequencia":"11","latitude":"-22.9104","longitude":"-43.2152","pontos_turisticos":[{"nome":"Centro Luiz Gonzaga de Tradições Nordestinas","distancia":1570},{"nome":"Estádio do Maracanã","distancia":1664},{"nome":"Jardim Zoológico (Riozoo)","distancia":1547},{"nome":"Quinta da Boa Vista/Museu Nacional","distancia":1135},{"nome":"Sambódromo","distancia":1884},{"nome":"Teatro Mário Lago","distancia":1376},{"nome":"Teatro Ziembinski","distancia":1474}]},{"linha":"247","descricao_ponto":"Rua Doutor Bulhoes próximo ao 233","sequencia":"45","latitude":"-22.9038","longitude":"-43.2987","pontos_turisticos":[]},{"linha":"247","descricao_ponto":"BRS 3, 4, 5, 6 - PAIS DE ANDRADE","sequencia":"17","latitude":"-22.9038","longitude":"-43.259","pontos_turisticos":[]},{"linha":"247","descricao_ponto":"Rua Sao Francisco Xavier próximo ao 324","sequencia":"16","latitude":"-22.9116","longitude":"-43.2373","pontos_turisticos":[{"nome":"Estádio do Maracanã","distancia":676},{"nome":"Jardim Zoológico (Riozoo)","distancia":1182},{"nome":"Quinta da Boa Vista/Museu Nacional","distancia":1444},{"nome":"Teatro Noel Rosa","distancia":102},{"nome":"Teatro Odylo Costa Filho","distancia":263},{"nome":"Teatro Ziembinski","distancia":1720}]},{"linha":"247","descricao_ponto":"BRS 3, 4, 5, 6 - SAMUEL GUIMARÃES","sequencia":"21","latitude":"-22.9024","longitude":"-43.2452","pontos_turisticos":[{"nome":"Estádio do Maracanã","distancia":1910},{"nome":"Jardim Zoológico (Riozoo)","distancia":1692},{"nome":"Teatro Noel Rosa","distancia":1209},{"nome":"Teatro Odylo Costa Filho","distancia":1383}]},{"linha":"247","descricao_ponto":"BRS 3, 4, 5, 6 - MANUEL MIRANDA","sequencia":"28","latitude":"-22.9023","longitude":"-43.2649","pontos_turisticos":[]},{"linha":"247","descricao_ponto":"Rua Sao Francisco Xavier próximo ao 679","sequencia":"27","latitude":"-22.9136","longitude":"-43.2345","pontos_turisticos":[{"nome":"Estádio do Maracanã","distancia":352},{"nome":"Jardim Zoológico (Riozoo)","distancia":1178},{"nome":"Quinta da Boa Vista/Museu Nacional","distancia":1339},{"nome":"Teatro Noel Rosa","distancia":451},{"nome":"Teatro Odylo Costa Filho","distancia":342},{"nome":"Teatro Ziembinski","distancia":1357}]},{"linha":"247","descricao_ponto":"Rua Sao Francisco Xavier próximo ao 367","sequencia":"29","latitude":"-22.916","longitude":"-43.2304","pontos_turisticos":[{"nome":"Estádio do Maracanã","distancia":275},{"nome":"Jardim Zoológico (Riozoo)","distancia":1301},{"nome":"Quinta da Boa Vista/Museu Nacional","distancia":1303},{"nome":"Teatro Noel Rosa","distancia":943},{"nome":"Teatro Odylo Costa Filho","distancia":767},{"nome":"Teatro Ziembinski","distancia":862}]},{"linha":"247","descricao_ponto":"Rua Dias Da Cruz próximo ao 685","sequencia":"4","latitude":"-22.9049","longitude":"-43.2937","pontos_turisticos":[]},{"linha":"247","descricao_ponto":"BRS 4, 5 - PRAÇA ONZE","sequencia":"9","latitude":"-22.9077","longitude":"-43.1997","pontos_turisticos":[{"nome":"Campo de Santana","distancia":1170},{"nome":"Catedral Metropolitana","distancia":1975},{"nome":"Cidade do Samba","distancia":1511},{"nome":"Memorial dos Pretos Novos","distancia":1466},{"nome":"Museu da Chácara do Céu","distancia":1921},{"nome":"Real Gabinete Português de Leitura","distancia":1813},{"nome":"Sambódromo","distancia":512},{"nome":"Teatro Carlos Gomes","distancia":1761},{"nome":"Teatro João Caetano","distancia":1789}]},{"linha":"247","descricao_ponto":"Avenida Oswaldo Aranha próximo ao 714","sequencia":"13","latitude":"-22.9106","longitude":"-43.2235","pontos_turisticos":[{"nome":"Centro Luiz Gonzaga de Tradições Nordestinas","distancia":1592},{"nome":"Estádio do Maracanã","distancia":844},{"nome":"Jardim Zoológico (Riozoo)","distancia":879},{"nome":"Quinta da Boa Vista/Museu Nacional","distancia":591},{"nome":"Teatro Mário Lago","distancia":1299},{"nome":"Teatro Noel Rosa","distancia":1446},{"nome":"Teatro Odylo Costa Filho","distancia":1178},{"nome":"Teatro Ziembinski","distancia":1151}]},{"linha":"247","descricao_ponto":"Rua Vinte E Quatro De Maio próximo ao 1291","sequencia":"30","latitude":"-22.9047","longitude":"-43.2734","pontos_turisticos":[]},{"linha":"247","descricao_ponto":"Rua Dias Da Cruz próximo ao 323","sequencia":"43","latitude":"-22.9037","longitude":"-43.2961","pontos_turisticos":[]},{"linha":"247","descricao_ponto":"BRS 3, 4, 5, 6 - GREGÓRIO NEVES","sequencia":"14","latitude":"-22.905","longitude":"-43.268","pontos_turisticos":[]},{"linha":"247","descricao_ponto":"BRS 3, 4, 5, 6 - GENERAL RODRIGUES","sequencia":"21","latitude":"-22.9028","longitude":"-43.2488","pontos_turisticos":[{"nome":"Teatro Noel Rosa","distancia":1446},{"nome":"Teatro Odylo Costa Filho","distancia":1656}]},{"linha":"247","descricao_ponto":"Avenida Maracana próximo ao 467","sequencia":"30","latitude":"-22.9156","longitude":"-43.2291","pontos_turisticos":[{"nome":"Estádio do Maracanã","distancia":300},{"nome":"Jardim Zoológico (Riozoo)","distancia":1246},{"nome":"Quinta da Boa Vista/Museu Nacional","distancia":1209},{"nome":"Teatro Noel Rosa","distancia":1027},{"nome":"Teatro Odylo Costa Filho","distancia":824},{"nome":"Teatro Ziembinski","distancia":797}]},{"linha":"247","descricao_ponto":"Rua Teixeira Soares próximo ao 139","sequencia":"34","latitude":"-22.9107","longitude":"-43.2182","pontos_turisticos":[{"nome":"Centro Luiz Gonzaga de Tradições Nordestinas","distancia":1549},{"nome":"Estádio do Maracanã","distancia":1357},{"nome":"Jardim Zoológico (Riozoo)","distancia":1294},{"nome":"Quinta da Boa Vista/Museu Nacional","distancia":900},{"nome":"Teatro Mário Lago","distancia":1310},{"nome":"Teatro Noel Rosa","distancia":1989},{"nome":"Teatro Odylo Costa Filho","distancia":1721},{"nome":"Teatro Ziembinski","distancia":1281}]},{"linha":"247","descricao_ponto":"Rua Sao Francisco Xavier próximo ao 188","sequencia":"24","latitude":"-22.9092","longitude":"-43.2386","pontos_turisticos":[{"nome":"Estádio do Maracanã","distancia":914},{"nome":"Jardim Zoológico (Riozoo)","distancia":1135},{"nome":"Quinta da Boa Vista/Museu Nacional","distancia":1466},{"nome":"Teatro Noel Rosa","distancia":198},{"nome":"Teatro Odylo Costa Filho","distancia":398},{"nome":"Teatro Ziembinski","distancia":1992}]},{"linha":"247","descricao_ponto":"Rua Dias Da Cruz próximo ao 872","sequencia":"44","latitude":"-22.9032","longitude":"-43.2979","pontos_turisticos":[]},{"linha":"247","descricao_ponto":"Rua Dias Da Cruz próximo ao 588","sequencia":"39","latitude":"-22.905","longitude":"-43.2892","pontos_turisticos":[]},{"linha":"247","descricao_ponto":"Rua Dias Da Cruz próximo ao 421","sequencia":"40","latitude":"-22.9052","longitude":"-43.2916","pontos_turisticos":[]},{"linha":"247","descricao_ponto":"BRS 3, 4, 5, 6 - MANUEL MIRANDA","sequencia":"15","latitude":"-22.9046","longitude":"-43.2648","pontos_turisticos":[]},{"linha":"247","descricao_ponto":"Avenida Professor Manoel De Abreu próximo ao 1","sequencia":"14","latitude":"-22.9117","longitude":"-43.234","pontos_turisticos":[{"nome":"Estádio do Maracanã","distancia":367},{"nome":"Jardim Zoológico (Riozoo)","distancia":970},{"nome":"Quinta da Boa Vista/Museu Nacional","distancia":1165},{"nome":"Teatro Mário Lago","distancia":1937},{"nome":"Teatro Noel Rosa","distancia":386},{"nome":"Teatro Odylo Costa Filho","distancia":163},{"nome":"Teatro Ziembinski","distancia":1457}]},{"linha":"247","descricao_ponto":"Rua Dias Da Cruz próximo ao 23","sequencia":"32","latitude":"-22.9019","longitude":"-43.28","pontos_turisticos":[{"nome":"Teatro Miguel Falabella","distancia":1636}]},{"linha":"247","descricao_ponto":"Rua Sao Francisco Xavier próximo ao 340","sequencia":"26","latitude":"-22.9123","longitude":"-43.2366","pontos_turisticos":[{"nome":"Estádio do Maracanã","distancia":585},{"nome":"Jardim Zoológico (Riozoo)","distancia":1187},{"nome":"Quinta da Boa Vista/Museu Nacional","distancia":1422},{"nome":"Teatro Noel Rosa","distancia":203},{"nome":"Teatro Odylo Costa Filho","distancia":254},{"nome":"Teatro Ziembinski","distancia":1616}]},{"linha":"247","descricao_ponto":"Rua Maria Paula próximo ao 43","sequencia":"47","latitude":"-22.9069","longitude":"-43.2975","pontos_turisticos":[]},{"linha":"247","descricao_ponto":"BRS 3, 4, 5, 6 - MARIA ANTONIA","sequencia":"12","latitude":"-22.9082","longitude":"-43.2739","pontos_turisticos":[]},{"linha":"247","descricao_ponto":"Rua Dias Da Cruz próximo ao 446","sequencia":"38","latitude":"-22.9047","longitude":"-43.2885","pontos_turisticos":[{"nome":"Teatro Miguel Falabella","distancia":1998}]},{"linha":"247","descricao_ponto":"BRS 3, 4, 5, 6 - ALZIRA VALDETARO","sequencia":"16","latitude":"-22.904","longitude":"-43.2629","pontos_turisticos":[]},{"linha":"247","descricao_ponto":"BRS 4, 5 - CIDADE NOVA","sequencia":"10","latitude":"-22.9098","longitude":"-43.2061","pontos_turisticos":[{"nome":"Campo de Santana","distancia":1853},{"nome":"Centro Luiz Gonzaga de Tradições Nordestinas","distancia":1981},{"nome":"Cidade do Samba","distancia":1955},{"nome":"Quinta da Boa Vista/Museu Nacional","distancia":1984},{"nome":"Sambódromo","distancia":967},{"nome":"Teatro Mário Lago","distancia":1918}]},{"linha":"247","descricao_ponto":"Avenida Maracana próximo ao 331","sequencia":"31","latitude":"-22.9132","longitude":"-43.2271","pontos_turisticos":[{"nome":"Centro Luiz Gonzaga de Tradições Nordestinas","distancia":1988},{"nome":"Estádio do Maracanã","distancia":409},{"nome":"Jardim Zoológico (Riozoo)","distancia":995},{"nome":"Quinta da Boa Vista/Museu Nacional","distancia":892},{"nome":"Teatro Mário Lago","distancia":1685},{"nome":"Teatro Noel Rosa","distancia":1112},{"nome":"Teatro Odylo Costa Filho","distancia":861},{"nome":"Teatro Ziembinski","distancia":921}]},{"linha":"247","descricao_ponto":"Rua Teixeira Soares próximo ao 1","sequencia":"35","latitude":"-22.9114","longitude":"-43.2144","pontos_turisticos":[{"nome":"Centro Luiz Gonzaga de Tradições Nordestinas","distancia":1700},{"nome":"Estádio do Maracanã","distancia":1725},{"nome":"Jardim Zoológico (Riozoo)","distancia":1670},{"nome":"Quinta da Boa Vista/Museu Nacional","distancia":1262},{"nome":"Sambódromo","distancia":1799},{"nome":"Teatro Mário Lago","distancia":1511},{"nome":"Teatro Ziembinski","distancia":1441}]},{"linha":"247","descricao_ponto":"Rua Dias Da Cruz próximo ao 683","sequencia":"3","latitude":"-22.9044","longitude":"-43.2948","pontos_turisticos":[]},{"linha":"247","descricao_ponto":"BRS 3, 4, 5, 6 - JOAQUIM MÉIER","sequencia":"9","latitude":"-22.9036","longitude":"-43.2789","pontos_turisticos":[{"nome":"Teatro Miguel Falabella","distancia":1844}]},{"linha":"247","descricao_ponto":"BRS 3, 4, 5, 6 - GENERAL BELEGARDE","sequencia":"13","latitude":"-22.9065","longitude":"-43.2711","pontos_turisticos":[]},{"linha":"247","descricao_ponto":"Rua Dias Da Cruz próximo ao 95","sequencia":"8","latitude":"-22.9027","longitude":"-43.2818","pontos_turisticos":[{"nome":"Teatro Miguel Falabella","distancia":1700}]},{"linha":"247","descricao_ponto":"Rua Sao Francisco Xavier próximo ao 579","sequencia":"28","latitude":"-22.9152","longitude":"-43.2325","pontos_turisticos":[{"nome":"Estádio do Maracanã","distancia":230},{"nome":"Jardim Zoológico (Riozoo)","distancia":1259},{"nome":"Quinta da Boa Vista/Museu Nacional","distancia":1336},{"nome":"Teatro Noel Rosa","distancia":722},{"nome":"Teatro Odylo Costa Filho","distancia":576},{"nome":"Teatro Ziembinski","distancia":1087}]},{"linha":"247","descricao_ponto":"Rua Dias Da Cruz próximo ao 689","sequencia":"41","latitude":"-22.9048","longitude":"-43.2939","pontos_turisticos":[]},{"linha":"247","descricao_ponto":"Rua Dias Da Cruz próximo ao 421","sequencia":"5","latitude":"-22.9052","longitude":"-43.2915","pontos_turisticos":[]},{"linha":"247","descricao_ponto":"Rua Teixeira Soares próximo ao 59","sequencia":"33","latitude":"-22.9104","longitude":"-43.2217","pontos_turisticos":[{"nome":"Centro Luiz Gonzaga de Tradições Nordestinas","distancia":1530},{"nome":"Estádio do Maracanã","distancia":1023},{"nome":"Jardim Zoológico (Riozoo)","distancia":989},{"nome":"Quinta da Boa Vista/Museu Nacional","distancia":641},{"nome":"Teatro Mário Lago","distancia":1251},{"nome":"Teatro Noel Rosa","distancia":1631},{"nome":"Teatro Odylo Costa Filho","distancia":1362},{"nome":"Teatro Ziembinski","distancia":1195}]},{"linha":"247","descricao_ponto":"BRS 3, 4, 5, 6 - GENERAL RODRIGUES","sequencia":"22","latitude":"-22.9014","longitude":"-43.2481","pontos_turisticos":[{"nome":"Teatro Noel Rosa","distancia":1493},{"nome":"Teatro Odylo Costa Filho","distancia":1684}]},{"linha":"247","descricao_ponto":"BRS 4 - CENTRAL","sequencia":"8","latitude":"-22.9053","longitude":"-43.1919","pontos_turisticos":[{"nome":"Arcos da Lapa","distancia":1489},{"nome":"Biblioteca Nacional","distancia":1733},{"nome":"Campo de Santana","distancia":396},{"nome":"Casa França Brasil","distancia":1719},{"nome":"Catedral Metropolitana","distancia":1302},{"nome":"Centro Cultural Banco do Brasil","distancia":1660},{"nome":"Centro Cultural dos Correios","distancia":1704},{"nome":"Cidade do Samba","distancia":1327},{"nome":"Confeitaria Colombo","distancia":1342},{"nome":"Espaço Cultural da Marinha","distancia":1848},{"nome":"Igreja de São Francisco da Penitência","distancia":1307},{"nome":"Igreja e Convento de Santa Teresa","distancia":1654},{"nome":"Igreja Nossa Senhora da Candelária","distancia":1546},{"nome":"Igreja Nossa Senhora do Carmo da Antiga Sé","distancia":1719},{"nome":"Memorial dos Pretos Novos","distancia":1032},{"nome":"Mosteiro de São Bento","distancia":1722},{"nome":"Museu de Arte do Rio","distancia":1454},{"nome":"Museu da Chácara do Céu","distancia":1558},{"nome":"Museu do Clube Naval","distancia":1598},{"nome":"Museu Nacional de Belas Artes","distancia":1667},{"nome":"Paço Imperial","distancia":1817},{"nome":"Palácio Tiradentes","distancia":1815},{"nome":"Parque das Ruínas","distancia":1671},{"nome":"Real Gabinete Português de Leitura","distancia":997},{"nome":"Sala Cecília Meireles","distancia":1724},{"nome":"Sambódromo","distancia":852},{"nome":"Teatro Carlos Gomes","distancia":984},{"nome":"Teatro Dulcina","distancia":1634},{"nome":"Teatro Glauce Rocha","distancia":1570},{"nome":"Teatro João Caetano","distancia":992},{"nome":"Teatro Municipal","distancia":1653},{"nome":"Teatro Rival Petrobras","distancia":1731}]},{"linha":"247","descricao_ponto":"Rua Vinte E Quatro De Maio próximo ao 1181","sequencia":"29","latitude":"-22.9031","longitude":"-43.269","pontos_turisticos":[]},{"linha":"247","descricao_ponto":"Rua Dias Da Cruz próximo ao 183","sequencia":"33","latitude":"-22.9026","longitude":"-43.2817","pontos_turisticos":[{"nome":"Teatro Miguel Falabella","distancia":1690}]},{"linha":"247","descricao_ponto":"Rua Dias Da Cruz próximo ao 768","sequencia":"42","latitude":"-22.9044","longitude":"-43.295","pontos_turisticos":[]},{"linha":"247","descricao_ponto":"BRS 4A - SETE DE SETEMBRO","sequencia":"42","latitude":"-22.9042","longitude":"-43.178","pontos_turisticos":[{"nome":"Academia Brasileira de Letras","distancia":904},{"nome":"Arcos da Lapa","distancia":983},{"nome":"Biblioteca Nacional","distancia":663},{"nome":"Campo de Santana","distancia":1093},{"nome":"Casa França Brasil","distancia":471},{"nome":"Catedral Metropolitana","distancia":794},{"nome":"Centro Cultural Banco do Brasil","distancia":428},{"nome":"Centro Cultural dos Correios","distancia":392},{"nome":"Confeitaria Colombo","distancia":143},{"nome":"Espaço Cultural da Marinha","distancia":503},{"nome":"Igreja de São Francisco da Penitência","distancia":328},{"nome":"Igreja e Convento de Santa Teresa","distancia":1296},{"nome":"Igreja Nossa Senhora da Candelária","distancia":387},{"nome":"Igreja Nossa Senhora da Glória do Outeiro","distancia":1924},{"nome":"Igreja Nossa Senhora do Carmo da Antiga Sé","distancia":300},{"nome":"Ilha Fiscal","distancia":1461},{"nome":"Memorial dos Pretos Novos","distancia":1779},{"nome":"Monumento aos Pracinhas","distancia":1426},{"nome":"Mosteiro de São Bento","distancia":829},{"nome":"Museu de Arte do Rio","distancia":971},{"nome":"Museu da Chácara do Céu","distancia":1591},{"nome":"Museu de Arte Moderna","distancia":1177},{"nome":"Museu do Clube Naval","distancia":465},{"nome":"Museu Histórico Nacional","distancia":889},{"nome":"Museu Nacional de Belas Artes","distancia":558},{"nome":"Paço Imperial","distancia":389},{"nome":"Palácio Tiradentes","distancia":387},{"nome":"Parque das Ruínas","distancia":1554},{"nome":"Praça Paris","distancia":1465},{"nome":"Real Gabinete Português de Leitura","distancia":450},{"nome":"Sala Cecília Meireles","distancia":1129},{"nome":"Teatro Carlos Gomes","distancia":572},{"nome":"Teatro Dulcina","distancia":729},{"nome":"Teatro Glauce Rocha","distancia":365},{"nome":"Teatro João Caetano","distancia":502},{"nome":"Teatro Municipal","distancia":600},{"nome":"Teatro Rival Petrobras","distancia":798}]},{"linha":"247","descricao_ponto":"Avenida Mem De Sa próximo ao 120","sequencia":"4","latitude":"-22.9127","longitude":"-43.1837","pontos_turisticos":[{"nome":"Academia Brasileira de Letras","distancia":1117},{"nome":"Arcos da Lapa","distancia":389},{"nome":"Biblioteca Nacional","distancia":883},{"nome":"Campo de Santana","distancia":822},{"nome":"Casa França Brasil","distancia":1580},{"nome":"Catedral Metropolitana","distancia":365},{"nome":"Centro Cultural Banco do Brasil","distancia":1533},{"nome":"Centro Cultural dos Correios","distancia":1503},{"nome":"Confeitaria Colombo","distancia":969},{"nome":"Espaço Cultural da Marinha","distancia":1602},{"nome":"Igreja de São Francisco da Penitência","distancia":788},{"nome":"Igreja e Convento de Santa Teresa","distancia":478},{"nome":"Igreja Nossa Senhora da Candelária","distancia":1468},{"nome":"Igreja Nossa Senhora da Glória do Outeiro","distancia":1286},{"nome":"Igreja Nossa Senhora do Carmo da Antiga Sé","distancia":1361},{"nome":"Monumento aos Pracinhas","distancia":1074},{"nome":"Mosteiro de São Bento","distancia":1871},{"nome":"Museu de Arte do Rio","distancia":1849},{"nome":"Museu da Chácara do Céu","distancia":518},{"nome":"Museu da República","distancia":1642},{"nome":"Museu de Arte Moderna","distancia":1082},{"nome":"Museu de Folclore Edison Carneiro","distancia":1662},{"nome":"Museu do Clube Naval","distancia":882},{"nome":"Museu Histórico Nacional","distancia":1662},{"nome":"Museu Nacional de Belas Artes","distancia":886},{"nome":"Paço Imperial","distancia":1404},{"nome":"Palácio Tiradentes","distancia":1362},{"nome":"Parque das Ruínas","distancia":555},{"nome":"Praça Paris","distancia":950},{"nome":"Real Gabinete Português de Leitura","distancia":819},{"nome":"Sala Cecília Meireles","distancia":589},{"nome":"Sambódromo","distancia":1353},{"nome":"Teatro Carlos Gomes","distancia":621},{"nome":"Teatro Dulcina","distancia":716},{"nome":"Teatro Glauce Rocha","distancia":936},{"nome":"Teatro Glória","distancia":1604},{"nome":"Teatro João Caetano","distancia":716},{"nome":"Teatro Municipal","distancia":834},{"nome":"Teatro Rival Petrobras","distancia":780}]},{"linha":"247","descricao_ponto":"Avenida Oswaldo Aranha próximo ao 200","sequencia":"12","latitude":"-22.9099","longitude":"-43.221","pontos_turisticos":[{"nome":"Centro Luiz Gonzaga de Tradições Nordestinas","distancia":1466},{"nome":"Estádio do Maracanã","distancia":1110},{"nome":"Jardim Zoológico (Riozoo)","distancia":1008},{"nome":"Quinta da Boa Vista/Museu Nacional","distancia":636},{"nome":"Teatro Mário Lago","distancia":1192},{"nome":"Teatro Noel Rosa","distancia":1704},{"nome":"Teatro Odylo Costa Filho","distancia":1436},{"nome":"Teatro Ziembinski","distancia":1264}]},{"linha":"247","descricao_ponto":"BRS 3, 4, 5, 6 - PADRE ROMA","sequencia":"11","latitude":"-22.9077","longitude":"-43.2757","pontos_turisticos":[]},{"linha":"247","descricao_ponto":"BRS 4 - CIDADE NOVA","sequencia":"36","latitude":"-22.91","longitude":"-43.2052","pontos_turisticos":[{"nome":"Campo de Santana","distancia":1767},{"nome":"Cidade do Samba","distancia":1933},{"nome":"Memorial dos Pretos Novos","distancia":1993},{"nome":"Sambódromo","distancia":872}]},{"linha":"247","descricao_ponto":"BRS 3, 4 - PASSOS","sequencia":"40","latitude":"-22.9032","longitude":"-43.1844","pontos_turisticos":[{"nome":"Academia Brasileira de Letras","distancia":1449},{"nome":"Arcos da Lapa","distancia":1169},{"nome":"Biblioteca Nacional","distancia":1153},{"nome":"Campo de Santana","distancia":558},{"nome":"Casa França Brasil","distancia":917},{"nome":"Catedral Metropolitana","distancia":934},{"nome":"Centro Cultural Banco do Brasil","distancia":857},{"nome":"Centro Cultural dos Correios","distancia":902},{"nome":"Cidade do Samba","distancia":1625},{"nome":"Confeitaria Colombo","distancia":617},{"nome":"Espaço Cultural da Marinha","distancia":1046},{"nome":"Igreja de São Francisco da Penitência","distancia":669},{"nome":"Igreja e Convento de Santa Teresa","distancia":1447},{"nome":"Igreja Nossa Senhora da Candelária","distancia":744},{"nome":"Igreja Nossa Senhora do Carmo da Antiga Sé","distancia":936},{"nome":"Ilha Fiscal","distancia":1998},{"nome":"Memorial dos Pretos Novos","distancia":1182},{"nome":"Monumento aos Pracinhas","distancia":1819},{"nome":"Mosteiro de São Bento","distancia":980},{"nome":"Museu de Arte do Rio","distancia":828},{"nome":"Museu da Chácara do Céu","distancia":1573},{"nome":"Museu de Arte Moderna","distancia":1646},{"nome":"Museu do Clube Naval","distancia":971},{"nome":"Museu Histórico Nacional","distancia":1554},{"nome":"Museu Nacional de Belas Artes","distancia":1061},{"nome":"Paço Imperial","distancia":1039},{"nome":"Palácio Tiradentes","distancia":1047},{"nome":"Parque das Ruínas","distancia":1609},{"nome":"Praça Paris","distancia":1789},{"nome":"Real Gabinete Português de Leitura","distancia":340},{"nome":"Sala Cecília Meireles","distancia":1391},{"nome":"Sambódromo","distancia":1571},{"nome":"Teatro Carlos Gomes","distancia":487},{"nome":"Teatro Dulcina","distancia":1123},{"nome":"Teatro Glauce Rocha","distancia":907},{"nome":"Teatro João Caetano","distancia":415},{"nome":"Teatro Municipal","distancia":1071},{"nome":"Teatro Rival Petrobras","distancia":1219}]},{"linha":"247","descricao_ponto":"BRS 3, 4, 5, 6 - THOMPSON FLORES","sequencia":"10","latitude":"-22.9056","longitude":"-43.2769","pontos_turisticos":[]},{"linha":"247","descricao_ponto":"Praca Da Republica próximo ao111","sequencia":"7","latitude":"-22.9079","longitude":"-43.1898","pontos_turisticos":[{"nome":"Academia Brasileira de Letras","distancia":1755},{"nome":"Arcos da Lapa","distancia":1154},{"nome":"Biblioteca Nacional","distancia":1460},{"nome":"Campo de Santana","distancia":203},{"nome":"Casa França Brasil","distancia":1643},{"nome":"Catedral Metropolitana","distancia":987},{"nome":"Centro Cultural Banco do Brasil","distancia":1584},{"nome":"Centro Cultural dos Correios","distancia":1608},{"nome":"Cidade do Samba","distancia":1679},{"nome":"Confeitaria Colombo","distancia":1164},{"nome":"Espaço Cultural da Marinha","distancia":1746},{"nome":"Igreja de São Francisco da Penitência","distancia":1085},{"nome":"Igreja e Convento de Santa Teresa","distancia":1300},{"nome":"Igreja Nossa Senhora da Candelária","distancia":1478},{"nome":"Igreja Nossa Senhora do Carmo da Antiga Sé","distancia":1576},{"nome":"Memorial dos Pretos Novos","distancia":1355},{"nome":"Monumento aos Pracinhas","distancia":1875},{"nome":"Mosteiro de São Bento","distancia":1740},{"nome":"Museu de Arte do Rio","distancia":1543},{"nome":"Museu da Chácara do Céu","distancia":1200},{"nome":"Museu de Arte Moderna","distancia":1822},{"nome":"Museu do Clube Naval","distancia":1351},{"nome":"Museu Nacional de Belas Artes","distancia":1408},{"nome":"Paço Imperial","distancia":1663},{"nome":"Palácio Tiradentes","distancia":1650},{"nome":"Parque das Ruínas","distancia":1311},{"nome":"Praça Paris","distancia":1767},{"nome":"Real Gabinete Português de Leitura","distancia":827},{"nome":"Sala Cecília Meireles","distancia":1385},{"nome":"Sambódromo","distancia":823},{"nome":"Teatro Carlos Gomes","distancia":750},{"nome":"Teatro Dulcina","distancia":1342},{"nome":"Teatro Glauce Rocha","distancia":1341},{"nome":"Teatro João Caetano","distancia":787},{"nome":"Teatro Municipal","distancia":1384},{"nome":"Teatro Rival Petrobras","distancia":1434}]},{"linha":"247","descricao_ponto":"Rua Sao Francisco Xavier próximo ao 230","sequencia":"17","latitude":"-22.91","longitude":"-43.2382","pontos_turisticos":[{"nome":"Estádio do Maracanã","distancia":833},{"nome":"Jardim Zoológico (Riozoo)","distancia":1145},{"nome":"Quinta da Boa Vista/Museu Nacional","distancia":1455},{"nome":"Teatro Noel Rosa","distancia":101},{"nome":"Teatro Odylo Costa Filho","distancia":334},{"nome":"Teatro Ziembinski","distancia":1903}]},{"linha":"247","descricao_ponto":"Rua Vinte E Quatro De Maio próximo ao 63","sequencia":"31","latitude":"-22.904","longitude":"-43.2759","pontos_turisticos":[{"nome":"Teatro Miguel Falabella","distancia":1979}]},{"linha":"247","descricao_ponto":"Avenida Mem De Sa próximo ao 122","sequencia":"3","latitude":"-22.913","longitude":"-43.1822","pontos_turisticos":[{"nome":"Academia Brasileira de Letras","distancia":974},{"nome":"Arcos da Lapa","distancia":235},{"nome":"Biblioteca Nacional","distancia":757},{"nome":"Campo de Santana","distancia":944},{"nome":"Casa França Brasil","distancia":1539},{"nome":"Catedral Metropolitana","distancia":279},{"nome":"Centro Cultural Banco do Brasil","distancia":1496},{"nome":"Centro Cultural dos Correios","distancia":1456},{"nome":"Confeitaria Colombo","distancia":929},{"nome":"Espaço Cultural da Marinha","distancia":1545},{"nome":"Igreja de São Francisco da Penitência","distancia":741},{"nome":"Igreja e Convento de Santa Teresa","distancia":353},{"nome":"Igreja Nossa Senhora da Candelária","distancia":1441},{"nome":"Igreja Nossa Senhora da Glória do Outeiro","distancia":1162},{"nome":"Igreja Nossa Senhora do Carmo da Antiga Sé","distancia":1297},{"nome":"Monumento aos Pracinhas","distancia":920},{"nome":"Mosteiro de São Bento","distancia":1861},{"nome":"Museu de Arte do Rio","distancia":1872},{"nome":"Museu da Chácara do Céu","distancia":522},{"nome":"Museu da República","distancia":1547},{"nome":"Museu de Arte Moderna","distancia":926},{"nome":"Museu de Folclore Edison Carneiro","distancia":1568},{"nome":"Museu do Clube Naval","distancia":784},{"nome":"Museu Histórico Nacional","distancia":1547},{"nome":"Museu Nacional de Belas Artes","distancia":774},{"nome":"Oi Futuro","distancia":1982},{"nome":"Paço Imperial","distancia":1329},{"nome":"Palácio Tiradentes","distancia":1282},{"nome":"Parque das Ruínas","distancia":508},{"nome":"Praça Paris","distancia":804},{"nome":"Real Gabinete Português de Leitura","distancia":838},{"nome":"Sala Cecília Meireles","distancia":433},{"nome":"Sambódromo","distancia":1509},{"nome":"Teatro Carlos Gomes","distancia":643},{"nome":"Teatro Dulcina","distancia":585},{"nome":"Teatro Glauce Rocha","distancia":849},{"nome":"Teatro Glória","distancia":1475},{"nome":"Teatro João Caetano","distancia":735},{"nome":"Teatro Municipal","distancia":718},{"nome":"Teatro Rival Petrobras","distancia":640}]},{"linha":"247","descricao_ponto":"BRS 3, 4, 5, 6 - ANTUNES GARCIA","sequencia":"27","latitude":"-22.9021","longitude":"-43.2614","pontos_turisticos":[]},{"linha":"247","descricao_ponto":"Rua Dias Da Cruz próximo ao 247","sequencia":"37","latitude":"-22.9044","longitude":"-43.2873","pontos_turisticos":[{"nome":"Teatro Miguel Falabella","distancia":1935}]}]