[{"linha":"292","descricao_ponto":"Estrada Velha Da Pavuna próximo ao 4240","sequencia":"5","latitude":"-22.8654","longitude":"-43.2898","pontos_turisticos":[]},{"linha":"292","descricao_ponto":"Rua Teixeira De Macedo próximo ao 13","sequencia":"11","latitude":"-22.8731","longitude":"-43.2819","pontos_turisticos":[{"nome":"Teatro Miguel Falabella","distancia":1600}]},{"linha":"292","descricao_ponto":"Avenida Itaoca próximo ao 1919","sequencia":"17","latitude":"-22.8672","longitude":"-43.2722","pontos_turisticos":[]},{"linha":"292","descricao_ponto":"Avenida Francisco Bicalho próximo ao 337","sequencia":"37","latitude":"-22.9003","longitude":"-43.2106","pontos_turisticos":[{"nome":"Centro Luiz Gonzaga de Tradições Nordestinas","distancia":976},{"nome":"Cidade do Samba","distancia":1541},{"nome":"Jardim Zoológico (Riozoo)","distancia":1921},{"nome":"Memorial dos Pretos Novos","distancia":1867},{"nome":"Quinta da Boa Vista/Museu Nacional","distancia":1571},{"nome":"Sambódromo","distancia":1879},{"nome":"Teatro Mário Lago","distancia":1058}]},{"linha":"292","descricao_ponto":"Rua Santa Mariana próximo ao 11","sequencia":"25","latitude":"-22.8699","longitude":"-43.2644","pontos_turisticos":[]},{"linha":"292","descricao_ponto":"Estrada Velha Da Pavuna próximo ao 100","sequencia":"35","latitude":"-22.8719","longitude":"-43.2813","pontos_turisticos":[{"nome":"Teatro Miguel Falabella","distancia":1738}]},{"linha":"292","descricao_ponto":"BRS 4 - PRAÇA ONZE","sequencia":"5","latitude":"-22.9078","longitude":"-43.2004","pontos_turisticos":[{"nome":"Campo de Santana","distancia":1242},{"nome":"Cidade do Samba","distancia":1537},{"nome":"Memorial dos Pretos Novos","distancia":1511},{"nome":"Museu da Chácara do Céu","distancia":1975},{"nome":"Real Gabinete Português de Leitura","distancia":1885},{"nome":"Sambódromo","distancia":547},{"nome":"Teatro Carlos Gomes","distancia":1833},{"nome":"Teatro João Caetano","distancia":1862}]},{"linha":"292","descricao_ponto":"Avenida Itaoca próximo ao 1443","sequencia":"28","latitude":"-22.8687","longitude":"-43.2683","pontos_turisticos":[]},{"linha":"292","descricao_ponto":"Estrada Velha Da Pavuna próximo ao 272","sequencia":"38","latitude":"-22.8675","longitude":"-43.2858","pontos_turisticos":[]},{"linha":"292","descricao_ponto":"Estrada Velha Da Pavuna próximo ao 550","sequencia":"21","latitude":"-22.8738","longitude":"-43.2666","pontos_turisticos":[]},{"linha":"292","descricao_ponto":"Estrada Velha Da Pavuna próximo ao 3119","sequencia":"7","latitude":"-22.8673","longitude":"-43.2868","pontos_turisticos":[]},{"linha":"292","descricao_ponto":"Estrada Do Timbo próximo ao S/n","sequencia":"22","latitude":"-22.8723","longitude":"-43.268","pontos_turisticos":[]},{"linha":"292","descricao_ponto":"Avenida Dos Democraticos próximo ao 1806","sequencia":"18","latitude":"-22.8704","longitude":"-43.2584","pontos_turisticos":[]},{"linha":"292","descricao_ponto":"Avenida Itaoca próximo ao 1842","sequencia":"31","latitude":"-22.8671","longitude":"-43.2717","pontos_turisticos":[]},{"linha":"292","descricao_ponto":"Estrada Velha Da Pavuna próximo ao 4275","sequencia":"43","latitude":"-22.8654","longitude":"-43.2961","pontos_turisticos":[]},{"linha":"292","descricao_ponto":"Avenida Itaoca próximo ao 126","sequencia":"29","latitude":"-22.8681","longitude":"-43.2689","pontos_turisticos":[]},{"linha":"292","descricao_ponto":"Avenida Brasil próximo ao 1455","sequencia":"34","latitude":"-22.8871","longitude":"-43.2246","pontos_turisticos":[{"nome":"Centro Luiz Gonzaga de Tradições Nordestinas","distancia":1207},{"nome":"Jardim Zoológico (Riozoo)","distancia":1971},{"nome":"Teatro Mário Lago","distancia":1397}]},{"linha":"292","descricao_ponto":"Avenida Brasil próximo ao 1580","sequencia":"16","latitude":"-22.8751","longitude":"-43.2428","pontos_turisticos":[]},{"linha":"292","descricao_ponto":"Estrada Velha Da Pavuna próximo ao 2565","sequencia":"9","latitude":"-22.8707","longitude":"-43.2837","pontos_turisticos":[{"nome":"Teatro Miguel Falabella","distancia":1864}]},{"linha":"292","descricao_ponto":"Rua Teixeira De Macedo próximo ao 1931","sequencia":"10","latitude":"-22.8721","longitude":"-43.2827","pontos_turisticos":[{"nome":"Teatro Miguel Falabella","distancia":1707}]},{"linha":"292","descricao_ponto":"BRS 2, 4 - CENTRAL","sequencia":"4","latitude":"-22.905","longitude":"-43.1916","pontos_turisticos":[{"nome":"Arcos da Lapa","distancia":1483},{"nome":"Biblioteca Nacional","distancia":1714},{"nome":"Campo de Santana","distancia":383},{"nome":"Casa França Brasil","distancia":1679},{"nome":"Catedral Metropolitana","distancia":1292},{"nome":"Centro Cultural Banco do Brasil","distancia":1620},{"nome":"Centro Cultural dos Correios","distancia":1666},{"nome":"Cidade do Samba","distancia":1309},{"nome":"Confeitaria Colombo","distancia":1311},{"nome":"Espaço Cultural da Marinha","distancia":1810},{"nome":"Igreja de São Francisco da Penitência","distancia":1282},{"nome":"Igreja e Convento de Santa Teresa","distancia":1656},{"nome":"Igreja Nossa Senhora da Candelária","distancia":1506},{"nome":"Igreja Nossa Senhora do Carmo da Antiga Sé","distancia":1685},{"nome":"Memorial dos Pretos Novos","distancia":1003},{"nome":"Mosteiro de São Bento","distancia":1678},{"nome":"Museu de Arte do Rio","distancia":1409},{"nome":"Museu da Chácara do Céu","distancia":1571},{"nome":"Museu do Clube Naval","distancia":1575},{"nome":"Museu Nacional de Belas Artes","distancia":1646},{"nome":"Paço Imperial","distancia":1783},{"nome":"Palácio Tiradentes","distancia":1782},{"nome":"Parque das Ruínas","distancia":1681},{"nome":"Real Gabinete Português de Leitura","distancia":967},{"nome":"Sala Cecília Meireles","distancia":1719},{"nome":"Sambódromo","distancia":897},{"nome":"Teatro Carlos Gomes","distancia":962},{"nome":"Teatro Dulcina","distancia":1619},{"nome":"Teatro Glauce Rocha","distancia":1544},{"nome":"Teatro João Caetano","distancia":966},{"nome":"Teatro Municipal","distancia":1633},{"nome":"Teatro Rival Petrobras","distancia":1715}]},{"linha":"292","descricao_ponto":"Avenida Brasil próximo ao 2482","sequencia":"10","latitude":"-22.8847","longitude":"-43.2265","pontos_turisticos":[{"nome":"Centro Luiz Gonzaga de Tradições Nordestinas","distancia":1533},{"nome":"Teatro Mário Lago","distancia":1710}]},{"linha":"292","descricao_ponto":"Avenida Dos Democraticos próximo ao 1191","sequencia":"23","latitude":"-22.8668","longitude":"-43.2567","pontos_turisticos":[]},{"linha":"292","descricao_ponto":"Avenida Itaoca próximo ao 221","sequencia":"32","latitude":"-22.8685","longitude":"-43.2749","pontos_turisticos":[]},{"linha":"292","descricao_ponto":"Rua Miguel Burnier próximo ao 1818","sequencia":"26","latitude":"-22.8699","longitude":"-43.2612","pontos_turisticos":[]},{"linha":"292","descricao_ponto":"Avenida Brasil próximo ao 2000","sequencia":"9","latitude":"-22.887","longitude":"-43.224","pontos_turisticos":[{"nome":"Centro Luiz Gonzaga de Tradições Nordestinas","distancia":1191},{"nome":"Jardim Zoológico (Riozoo)","distancia":1996},{"nome":"Teatro Mário Lago","distancia":1392}]},{"linha":"292","descricao_ponto":"Avenida Itaoca próximo ao 2532","sequencia":"33","latitude":"-22.8706","longitude":"-43.2764","pontos_turisticos":[{"nome":"Teatro Miguel Falabella","distancia":1993}]},{"linha":"292","descricao_ponto":"Estrada Velha Da Pavuna próximo ao 3497","sequencia":"39","latitude":"-22.866","longitude":"-43.2886","pontos_turisticos":[]},{"linha":"292","descricao_ponto":"Avenida Itaoca próximo ao 958","sequencia":"18","latitude":"-22.8681","longitude":"-43.269","pontos_turisticos":[]},{"linha":"292","descricao_ponto":"Avenida Francisco Bicalho próximo ao 10 (Pista Lateral)","sequencia":"7","latitude":"-22.9072","longitude":"-43.2094","pontos_turisticos":[{"nome":"Centro Luiz Gonzaga de Tradições Nordestinas","distancia":1540},{"nome":"Cidade do Samba","distancia":1912},{"nome":"Quinta da Boa Vista/Museu Nacional","distancia":1598},{"nome":"Sambódromo","distancia":1371},{"nome":"Teatro Mário Lago","distancia":1474}]},{"linha":"292","descricao_ponto":"Estrada Velha Da Pavuna próximo ao 3821","sequencia":"41","latitude":"-22.8654","longitude":"-43.2921","pontos_turisticos":[]},{"linha":"292","descricao_ponto":"Avenida Brasil próximo ao 414","sequencia":"30","latitude":"-22.8859","longitude":"-43.2349","pontos_turisticos":[]},{"linha":"292","descricao_ponto":"Rua Santa Mariana próximo ao 186","sequencia":"26","latitude":"-22.8698","longitude":"-43.2657","pontos_turisticos":[]},{"linha":"292","descricao_ponto":"Avenida Itaoca próximo ao 2481","sequencia":"15","latitude":"-22.8703","longitude":"-43.2763","pontos_turisticos":[]},{"linha":"292","descricao_ponto":"Avenida Brasil próximo ao 3141","sequencia":"29","latitude":"-22.875","longitude":"-43.2435","pontos_turisticos":[]},{"linha":"292","descricao_ponto":"10722","sequencia":"17","latitude":"-22.8718","longitude":"-43.2492","pontos_turisticos":[]},{"linha":"292","descricao_ponto":"Avenida Itaoca próximo ao","sequencia":"21","latitude":"-22.8676","longitude":"-43.2568","pontos_turisticos":[]},{"linha":"292","descricao_ponto":"Estrada Velha Da Pavuna próximo ao 2565","sequencia":"37","latitude":"-22.8701","longitude":"-43.284","pontos_turisticos":[{"nome":"Teatro Miguel Falabella","distancia":1932}]},{"linha":"292","descricao_ponto":"Avenida Itaoca próximo ao 2516","sequencia":"34","latitude":"-22.8731","longitude":"-43.278","pontos_turisticos":[{"nome":"Teatro Miguel Falabella","distancia":1677}]},{"linha":"292","descricao_ponto":"Avenida Brasil próximo ao","sequencia":"32","latitude":"-22.8857","longitude":"-43.2286","pontos_turisticos":[{"nome":"Centro Luiz Gonzaga de Tradições Nordestinas","distancia":1557},{"nome":"Teatro Mário Lago","distancia":1696}]},{"linha":"292","descricao_ponto":"BRS 3, 4 - PASSOS","sequencia":"42","latitude":"-22.9035","longitude":"-43.1859","pontos_turisticos":[{"nome":"Academia Brasileira de Letras","distancia":1558},{"nome":"Arcos da Lapa","distancia":1209},{"nome":"Biblioteca Nacional","distancia":1257},{"nome":"Campo de Santana","distancia":431},{"nome":"Casa França Brasil","distancia":1073},{"nome":"Catedral Metropolitana","distancia":977},{"nome":"Centro Cultural Banco do Brasil","distancia":1014},{"nome":"Centro Cultural dos Correios","distancia":1059},{"nome":"Cidade do Samba","distancia":1528},{"nome":"Confeitaria Colombo","distancia":752},{"nome":"Espaço Cultural da Marinha","distancia":1204},{"nome":"Igreja de São Francisco da Penitência","distancia":778},{"nome":"Igreja e Convento de Santa Teresa","distancia":1468},{"nome":"Igreja Nossa Senhora da Candelária","distancia":900},{"nome":"Igreja Nossa Senhora do Carmo da Antiga Sé","distancia":1090},{"nome":"Memorial dos Pretos Novos","distancia":1098},{"nome":"Monumento aos Pracinhas","distancia":1887},{"nome":"Mosteiro de São Bento","distancia":1113},{"nome":"Museu de Arte do Rio","distancia":920},{"nome":"Museu da Chácara do Céu","distancia":1550},{"nome":"Museu de Arte Moderna","distancia":1734},{"nome":"Museu do Clube Naval","distancia":1084},{"nome":"Museu Histórico Nacional","distancia":1701},{"nome":"Museu Nacional de Belas Artes","distancia":1170},{"nome":"Paço Imperial","distancia":1192},{"nome":"Palácio Tiradentes","distancia":1198},{"nome":"Parque das Ruínas","distancia":1603},{"nome":"Praça Paris","distancia":1842},{"nome":"Real Gabinete Português de Leitura","distancia":440},{"nome":"Sala Cecília Meireles","distancia":1439},{"nome":"Sambódromo","distancia":1428},{"nome":"Teatro Carlos Gomes","distancia":540},{"nome":"Teatro Dulcina","distancia":1209},{"nome":"Teatro Glauce Rocha","distancia":1029},{"nome":"Teatro João Caetano","distancia":490},{"nome":"Teatro Municipal","distancia":1174},{"nome":"Teatro Rival Petrobras","distancia":1306}]},{"linha":"292","descricao_ponto":"Estrada Velha Da Pavuna próximo ao 2518","sequencia":"36","latitude":"-22.8713","longitude":"-43.2828","pontos_turisticos":[{"nome":"Teatro Miguel Falabella","distancia":1796}]},{"linha":"292","descricao_ponto":"Avenida Dos Democraticos próximo ao 408","sequencia":"19","latitude":"-22.8686","longitude":"-43.2583","pontos_turisticos":[]},{"linha":"292","descricao_ponto":"Avenida Brasil próximo ao 1211","sequencia":"35","latitude":"-22.8893","longitude":"-43.2204","pontos_turisticos":[{"nome":"Centro Luiz Gonzaga de Tradições Nordestinas","distancia":842},{"nome":"Jardim Zoológico (Riozoo)","distancia":1887},{"nome":"Quinta da Boa Vista/Museu Nacional","distancia":1853},{"nome":"Teatro Mário Lago","distancia":1099}]},{"linha":"292","descricao_ponto":"Rua Uranos próximo ao 691","sequencia":"22","latitude":"-22.8675","longitude":"-43.2555","pontos_turisticos":[]},{"linha":"292","descricao_ponto":"Avenida Dos Democraticos próximo ao 1157","sequencia":"27","latitude":"-22.87","longitude":"-43.2585","pontos_turisticos":[]},{"linha":"292","descricao_ponto":"Estrada Velha Da Pavuna próximo ao 3559","sequencia":"40","latitude":"-22.8655","longitude":"-43.2897","pontos_turisticos":[]},{"linha":"292","descricao_ponto":"Estrada Velha Da Pavuna próximo ao 4275","sequencia":"3","latitude":"-22.8653","longitude":"-43.2961","pontos_turisticos":[]},{"linha":"292","descricao_ponto":"Avenida Brasil próximo ao 2482","sequencia":"11","latitude":"-22.8854","longitude":"-43.2289","pontos_turisticos":[{"nome":"Centro Luiz Gonzaga de Tradições Nordestinas","distancia":1603},{"nome":"Teatro Mário Lago","distancia":1739}]},{"linha":"292","descricao_ponto":"Rua Santa Mariana próximo ao 290","sequencia":"25","latitude":"-22.87","longitude":"-43.2623","pontos_turisticos":[]},{"linha":"292","descricao_ponto":"Estrada Do Timbo próximo ao 144","sequencia":"27","latitude":"-22.8691","longitude":"-43.268","pontos_turisticos":[]},{"linha":"292","descricao_ponto":"Estrada Do Timbo próximo ao 278","sequencia":"19","latitude":"-22.8702","longitude":"-43.2684","pontos_turisticos":[]},{"linha":"292","descricao_ponto":"Avenida Itaoca próximo ao 2153","sequencia":"16","latitude":"-22.8684","longitude":"-43.2747","pontos_turisticos":[]},{"linha":"292","descricao_ponto":"Praca Vinte E Quatro De Outubro próximo ao 1851","sequencia":"12","latitude":"-22.8731","longitude":"-43.2814","pontos_turisticos":[{"nome":"Teatro Miguel Falabella","distancia":1605}]},{"linha":"292","descricao_ponto":"Rua Santa Mariana próximo ao 163","sequencia":"24","latitude":"-22.8698","longitude":"-43.2675","pontos_turisticos":[]},{"linha":"292","descricao_ponto":"Avenida Brasil próximo ao","sequencia":"13","latitude":"-22.8839","longitude":"-43.2361","pontos_turisticos":[]},{"linha":"292","descricao_ponto":"Avenida Itaoca próximo ao 1826","sequencia":"30","latitude":"-22.8671","longitude":"-43.2701","pontos_turisticos":[]},{"linha":"292","descricao_ponto":"Avenida Itaoca próximo ao 2691","sequencia":"14","latitude":"-22.8719","longitude":"-43.2768","pontos_turisticos":[{"nome":"Teatro Miguel Falabella","distancia":1843}]},{"linha":"292","descricao_ponto":"Avenida Brasil próximo ao 3666","sequencia":"12","latitude":"-22.886","longitude":"-43.2341","pontos_turisticos":[{"nome":"Centro Luiz Gonzaga de Tradições Nordestinas","distancia":1931},{"nome":"Teatro Mário Lago","distancia":1997}]},{"linha":"292","descricao_ponto":"Estrada Do Timbo próximo ao 336","sequencia":"20","latitude":"-22.8725","longitude":"-43.2682","pontos_turisticos":[]},{"linha":"292","descricao_ponto":"BRS 3, 4 - CENTRAL","sequencia":"41","latitude":"-22.9059","longitude":"-43.1933","pontos_turisticos":[{"nome":"Arcos da Lapa","distancia":1575},{"nome":"Biblioteca Nacional","distancia":1854},{"nome":"Campo de Santana","distancia":516},{"nome":"Casa França Brasil","distancia":1876},{"nome":"Catedral Metropolitana","distancia":1402},{"nome":"Centro Cultural Banco do Brasil","distancia":1817},{"nome":"Centro Cultural dos Correios","distancia":1860},{"nome":"Cidade do Samba","distancia":1341},{"nome":"Confeitaria Colombo","distancia":1487},{"nome":"Igreja de São Francisco da Penitência","distancia":1442},{"nome":"Igreja e Convento de Santa Teresa","distancia":1717},{"nome":"Igreja Nossa Senhora da Candelária","distancia":1703},{"nome":"Igreja Nossa Senhora do Carmo da Antiga Sé","distancia":1871},{"nome":"Memorial dos Pretos Novos","distancia":1093},{"nome":"Mosteiro de São Bento","distancia":1879},{"nome":"Museu de Arte do Rio","distancia":1604},{"nome":"Museu da Chácara do Céu","distancia":1581},{"nome":"Museu do Clube Naval","distancia":1727},{"nome":"Museu Nacional de Belas Artes","distancia":1793},{"nome":"Paço Imperial","distancia":1967},{"nome":"Palácio Tiradentes","distancia":1964},{"nome":"Parque das Ruínas","distancia":1707},{"nome":"Real Gabinete Português de Leitura","distancia":1141},{"nome":"Sala Cecília Meireles","distancia":1807},{"nome":"Sambódromo","distancia":718},{"nome":"Teatro Carlos Gomes","distancia":1114},{"nome":"Teatro Dulcina","distancia":1747},{"nome":"Teatro Glauce Rocha","distancia":1704},{"nome":"Teatro João Caetano","distancia":1129},{"nome":"Teatro Municipal","distancia":1775},{"nome":"Teatro Rival Petrobras","distancia":1842}]},{"linha":"292","descricao_ponto":"Avenida Brasil próximo ao 4036","sequencia":"14","latitude":"-22.8813","longitude":"-43.2384","pontos_turisticos":[]},{"linha":"292","descricao_ponto":"Estrada Velha Da Pavuna próximo ao","sequencia":"1","latitude":"-22.8655","longitude":"-43.2998","pontos_turisticos":[]},{"linha":"292","descricao_ponto":"Avenida Dos Democraticos próximo ao 1791","sequencia":"20","latitude":"-22.8681","longitude":"-43.258","pontos_turisticos":[]},{"linha":"292","descricao_ponto":"Avenida Francisco Bicalho próximo ao 344","sequencia":"38","latitude":"-22.9081","longitude":"-43.2099","pontos_turisticos":[{"nome":"Centro Luiz Gonzaga de Tradições Nordestinas","distancia":1585},{"nome":"Jardim Zoológico (Riozoo)","distancia":1981},{"nome":"Quinta da Boa Vista/Museu Nacional","distancia":1563},{"nome":"Sambódromo","distancia":1389},{"nome":"Teatro Mário Lago","distancia":1498}]},{"linha":"292","descricao_ponto":"PONTO FINAL MUNICIPAL (SANTA CRUZ)","sequencia":"2","latitude":"-22.9015","longitude":"-43.1809","pontos_turisticos":[{"nome":"Academia Brasileira de Letras","distancia":1322},{"nome":"Arcos da Lapa","distancia":1268},{"nome":"Biblioteca Nacional","distancia":1063},{"nome":"Campo de Santana","distancia":954},{"nome":"Casa França Brasil","distancia":518},{"nome":"Catedral Metropolitana","distancia":1044},{"nome":"Centro Cultural Banco do Brasil","distancia":460},{"nome":"Centro Cultural dos Correios","distancia":519},{"nome":"Cidade do Samba","distancia":1833},{"nome":"Confeitaria Colombo","distancia":469},{"nome":"Espaço Cultural da Marinha","distancia":663},{"nome":"Igreja de São Francisco da Penitência","distancia":624},{"nome":"Igreja e Convento de Santa Teresa","distancia":1575},{"nome":"Igreja Nossa Senhora da Candelária","distancia":344},{"nome":"Igreja Nossa Senhora do Carmo da Antiga Sé","distancia":609},{"nome":"Ilha Fiscal","distancia":1597},{"nome":"Memorial dos Pretos Novos","distancia":1375},{"nome":"Monumento aos Pracinhas","distancia":1809},{"nome":"Mosteiro de São Bento","distancia":612},{"nome":"Museu de Arte do Rio","distancia":598},{"nome":"Museu da Chácara do Céu","distancia":1793},{"nome":"Museu de Arte Moderna","distancia":1580},{"nome":"Museu do Clube Naval","distancia":863},{"nome":"Museu Histórico Nacional","distancia":1257},{"nome":"Museu Nacional de Belas Artes","distancia":959},{"nome":"Paço Imperial","distancia":717},{"nome":"Palácio Tiradentes","distancia":742},{"nome":"Parque das Ruínas","distancia":1793},{"nome":"Praça Paris","distancia":1824},{"nome":"Real Gabinete Português de Leitura","distancia":460},{"nome":"Sala Cecília Meireles","distancia":1455},{"nome":"Sambódromo","distancia":1973},{"nome":"Teatro Carlos Gomes","distancia":658},{"nome":"Teatro Dulcina","distancia":1096},{"nome":"Teatro Glauce Rocha","distancia":771},{"nome":"Teatro João Caetano","distancia":562},{"nome":"Teatro Municipal","distancia":992},{"nome":"Teatro Rival Petrobras","distancia":1178}]},{"linha":"292","descricao_ponto":"Rua Miguel Burnier próximo ao 106","sequencia":"24","latitude":"-22.8696","longitude":"-43.2594","pontos_turisticos":[]},{"linha":"292","descricao_ponto":"Estrada Velha Da Pavuna próximo ao 4563","sequencia":"44","latitude":"-22.8654","longitude":"-43.2995","pontos_turisticos":[]},{"linha":"292","descricao_ponto":"Estrada Velha Da Pavuna próximo ao 4181","sequencia":"42","latitude":"-22.8651","longitude":"-43.2944","pontos_turisticos":[]},{"linha":"292","descricao_ponto":"Estrada Velha Da Pavuna próximo ao 44","sequencia":"2","latitude":"-22.8653","longitude":"-43.2987","pontos_turisticos":[]},{"linha":"292","descricao_ponto":"Estrada Velha Da Pavuna próximo ao 2825","sequencia":"8","latitude":"-22.869","longitude":"-43.2843","pontos_turisticos":[]},{"linha":"292","descricao_ponto":"Estrada Velha Da Pavuna próximo ao 3864","sequencia":"4","latitude":"-22.8651","longitude":"-43.293","pontos_turisticos":[]},{"linha":"292","descricao_ponto":"Estrada Do Timbo próximo ao 1535","sequencia":"23","latitude":"-22.8703","longitude":"-43.2683","pontos_turisticos":[]},{"linha":"292","descricao_ponto":"6807","sequencia":"28","latitude":"-22.8718","longitude":"-43.2483","pontos_turisticos":[]},{"linha":"292","descricao_ponto":"Avenida Brasil próximo ao 2231","sequencia":"31","latitude":"-22.8872","longitude":"-43.2308","pontos_turisticos":[{"nome":"Centro Luiz Gonzaga de Tradições Nordestinas","distancia":1587},{"nome":"Jardim Zoológico (Riozoo)","distancia":1923},{"nome":"Teatro Mário Lago","distancia":1677}]},{"linha":"292","descricao_ponto":"BRS 2, 4 - CIDADE NOVA","sequencia":"6","latitude":"-22.9097","longitude":"-43.2061","pontos_turisticos":[{"nome":"Campo de Santana","distancia":1851},{"nome":"Centro Luiz Gonzaga de Tradições Nordestinas","distancia":1973},{"nome":"Cidade do Samba","distancia":1945},{"nome":"Quinta da Boa Vista/Museu Nacional","distancia":1981},{"nome":"Sambódromo","distancia":969},{"nome":"Teatro Mário Lago","distancia":1912}]},{"linha":"292","descricao_ponto":"Avenida Francisco Bicalho, próximo a Unidos da Tijuca","sequencia":"8","latitude":"-22.9038","longitude":"-43.2096","pontos_turisticos":[{"nome":"Centro Luiz Gonzaga de Tradições Nordestinas","distancia":1265},{"nome":"Cidade do Samba","distancia":1664},{"nome":"Jardim Zoológico (Riozoo)","distancia":1970},{"nome":"Memorial dos Pretos Novos","distancia":1909},{"nome":"Quinta da Boa Vista/Museu Nacional","distancia":1576},{"nome":"Sambódromo","distancia":1561},{"nome":"Teatro Mário Lago","distancia":1263}]},{"linha":"292","descricao_ponto":"Estrada Velha Da Pavuna próximo ao 1947","sequencia":"13","latitude":"-22.8729","longitude":"-43.2805","pontos_turisticos":[{"nome":"Teatro Miguel Falabella","distancia":1639}]},{"linha":"292","descricao_ponto":"Avenida Brasil próximo ao 1940","sequencia":"33","latitude":"-22.8853","longitude":"-43.2265","pontos_turisticos":[{"nome":"Centro Luiz Gonzaga de Tradições Nordestinas","distancia":1475},{"nome":"Teatro Mário Lago","distancia":1648}]},{"linha":"292","descricao_ponto":"Estrada Velha Da Pavuna próximo ao 3461","sequencia":"6","latitude":"-22.8662","longitude":"-43.2885","pontos_turisticos":[]},{"linha":"292","descricao_ponto":"Avenida Brasil próximo ao 4036","sequencia":"15","latitude":"-22.8777","longitude":"-43.2409","pontos_turisticos":[]}]