[{"linha":"300","descricao_ponto":"Avenida Francisco Bicalho próximo ao 337","sequencia":"41","latitude":"-22.9003","longitude":"-43.2106","pontos_turisticos":[{"nome":"Centro Luiz Gonzaga de Tradições Nordestinas","distancia":976},{"nome":"Cidade do Samba","distancia":1541},{"nome":"Jardim Zoológico (Riozoo)","distancia":1921},{"nome":"Memorial dos Pretos Novos","distancia":1867},{"nome":"Quinta da Boa Vista/Museu Nacional","distancia":1571},{"nome":"Sambódromo","distancia":1879},{"nome":"Teatro Mário Lago","distancia":1058}]},{"linha":"300","descricao_ponto":"Avenida Francisco Bicalho próximo ao 344","sequencia":"43","latitude":"-22.9081","longitude":"-43.2099","pontos_turisticos":[{"nome":"Centro Luiz Gonzaga de Tradições Nordestinas","distancia":1585},{"nome":"Jardim Zoológico (Riozoo)","distancia":1981},{"nome":"Quinta da Boa Vista/Museu Nacional","distancia":1563},{"nome":"Sambódromo","distancia":1389},{"nome":"Teatro Mário Lago","distancia":1498}]},{"linha":"300","descricao_ponto":"Avenida Brasil próximo ao 19003","sequencia":"40","latitude":"-22.8256","longitude":"-43.336","pontos_turisticos":[]},{"linha":"300","descricao_ponto":"Avenida Brasil próximo ao 10857","sequencia":"53","latitude":"-22.8264","longitude":"-43.2755","pontos_turisticos":[]},{"linha":"300","descricao_ponto":"BRS 2 - OUVIDOR","sequencia":"85","latitude":"-22.9035","longitude":"-43.1783","pontos_turisticos":[{"nome":"Academia Brasileira de Letras","distancia":985},{"nome":"Arcos da Lapa","distancia":1055},{"nome":"Biblioteca Nacional","distancia":747},{"nome":"Campo de Santana","distancia":1086},{"nome":"Casa França Brasil","distancia":419},{"nome":"Catedral Metropolitana","distancia":858},{"nome":"Centro Cultural Banco do Brasil","distancia":370},{"nome":"Centro Cultural dos Correios","distancia":352},{"nome":"Confeitaria Colombo","distancia":201},{"nome":"Espaço Cultural da Marinha","distancia":477},{"nome":"Igreja de São Francisco da Penitência","distancia":391},{"nome":"Igreja e Convento de Santa Teresa","distancia":1367},{"nome":"Igreja Nossa Senhora da Candelária","distancia":315},{"nome":"Igreja Nossa Senhora do Carmo da Antiga Sé","distancia":312},{"nome":"Ilha Fiscal","distancia":1446},{"nome":"Memorial dos Pretos Novos","distancia":1714},{"nome":"Monumento aos Pracinhas","distancia":1509},{"nome":"Mosteiro de São Bento","distancia":752},{"nome":"Museu de Arte do Rio","distancia":887},{"nome":"Museu da Chácara do Céu","distancia":1651},{"nome":"Museu de Arte Moderna","distancia":1260},{"nome":"Museu do Clube Naval","distancia":548},{"nome":"Museu Histórico Nacional","distancia":935},{"nome":"Museu Nacional de Belas Artes","distancia":641},{"nome":"Paço Imperial","distancia":413},{"nome":"Palácio Tiradentes","distancia":423},{"nome":"Parque das Ruínas","distancia":1620},{"nome":"Praça Paris","distancia":1547},{"nome":"Real Gabinete Português de Leitura","distancia":453},{"nome":"Sala Cecília Meireles","distancia":1206},{"nome":"Teatro Carlos Gomes","distancia":598},{"nome":"Teatro Dulcina","distancia":811},{"nome":"Teatro Glauce Rocha","distancia":449},{"nome":"Teatro João Caetano","distancia":520},{"nome":"Teatro Municipal","distancia":684},{"nome":"Teatro Rival Petrobras","distancia":881}]},{"linha":"300","descricao_ponto":"Avenida Alberico Diniz próximo ao 196","sequencia":"84","latitude":"-22.8857","longitude":"-43.3974","pontos_turisticos":[{"nome":"Museu Aeroespacial","distancia":954}]},{"linha":"300","descricao_ponto":"Avenida Francisco Bicalho, próximo a Unidos da Tijuca","sequencia":"11","latitude":"-22.9038","longitude":"-43.2096","pontos_turisticos":[{"nome":"Centro Luiz Gonzaga de Tradições Nordestinas","distancia":1265},{"nome":"Cidade do Samba","distancia":1664},{"nome":"Jardim Zoológico (Riozoo)","distancia":1970},{"nome":"Memorial dos Pretos Novos","distancia":1909},{"nome":"Quinta da Boa Vista/Museu Nacional","distancia":1576},{"nome":"Sambódromo","distancia":1561},{"nome":"Teatro Mário Lago","distancia":1263}]},{"linha":"300","descricao_ponto":"Avenida Brasil próximo ao 20971","sequencia":"37","latitude":"-22.834","longitude":"-43.3586","pontos_turisticos":[]},{"linha":"300","descricao_ponto":"BRS 5,I - CENTRAL","sequencia":"87","latitude":"-22.9061","longitude":"-43.1941","pontos_turisticos":[{"nome":"Arcos da Lapa","distancia":1637},{"nome":"Biblioteca Nacional","distancia":1929},{"nome":"Campo de Santana","distancia":594},{"nome":"Casa França Brasil","distancia":1961},{"nome":"Catedral Metropolitana","distancia":1469},{"nome":"Centro Cultural Banco do Brasil","distancia":1902},{"nome":"Centro Cultural dos Correios","distancia":1945},{"nome":"Cidade do Samba","distancia":1342},{"nome":"Confeitaria Colombo","distancia":1570},{"nome":"Igreja de São Francisco da Penitência","distancia":1523},{"nome":"Igreja e Convento de Santa Teresa","distancia":1768},{"nome":"Igreja Nossa Senhora da Candelária","distancia":1788},{"nome":"Igreja Nossa Senhora do Carmo da Antiga Sé","distancia":1955},{"nome":"Memorial dos Pretos Novos","distancia":1121},{"nome":"Mosteiro de São Bento","distancia":1960},{"nome":"Museu de Arte do Rio","distancia":1680},{"nome":"Museu da Chácara do Céu","distancia":1614},{"nome":"Museu do Clube Naval","distancia":1806},{"nome":"Museu Nacional de Belas Artes","distancia":1870},{"nome":"Parque das Ruínas","distancia":1745},{"nome":"Real Gabinete Português de Leitura","distancia":1224},{"nome":"Sala Cecília Meireles","distancia":1866},{"nome":"Sambódromo","distancia":660},{"nome":"Teatro Carlos Gomes","distancia":1193},{"nome":"Teatro Dulcina","distancia":1819},{"nome":"Teatro Glauce Rocha","distancia":1784},{"nome":"Teatro João Caetano","distancia":1210},{"nome":"Teatro Municipal","distancia":1851},{"nome":"Teatro Rival Petrobras","distancia":1913}]},{"linha":"300","descricao_ponto":"Avenida Brasil próximo ao","sequencia":"18","latitude":"-22.8839","longitude":"-43.2361","pontos_turisticos":[]},{"linha":"300","descricao_ponto":"Avenida Brasil próximo ao 12049","sequencia":"34","latitude":"-22.8259","longitude":"-43.2754","pontos_turisticos":[]},{"linha":"300","descricao_ponto":"Viaduto De Deodoro próximo ao S/n","sequencia":"66","latitude":"-22.8548","longitude":"-43.3837","pontos_turisticos":[{"nome":"Teatro Armando Gonzaga","distancia":1634}]},{"linha":"300","descricao_ponto":"Rua Joao Vicente próximo ao 1175","sequencia":"68","latitude":"-22.8585","longitude":"-43.3785","pontos_turisticos":[{"nome":"Teatro Armando Gonzaga","distancia":982}]},{"linha":"300","descricao_ponto":"Estrada Intend Magalhaes próximo ao 262","sequencia":"12","latitude":"-22.8766","longitude":"-43.3716","pontos_turisticos":[{"nome":"Museu Aeroespacial","distancia":1936},{"nome":"Teatro Armando Gonzaga","distancia":1207}]},{"linha":"300","descricao_ponto":"Avenida Brasil próximo ao 19001","sequencia":"39","latitude":"-22.8281","longitude":"-43.3429","pontos_turisticos":[]},{"linha":"300","descricao_ponto":"Avenida Brasil próximo ao","sequencia":"67","latitude":"-22.8716","longitude":"-43.2461","pontos_turisticos":[]},{"linha":"300","descricao_ponto":"Terminal Jamil Amiden (AV. Chile) - Ponto A4","sequencia":"86","latitude":"-22.9089","longitude":"-43.1795","pontos_turisticos":[{"nome":"Academia Brasileira de Letras","distancia":704},{"nome":"Arcos da Lapa","distancia":443},{"nome":"Biblioteca Nacional","distancia":402},{"nome":"Campo de Santana","distancia":938},{"nome":"Casa França Brasil","distancia":1012},{"nome":"Catedral Metropolitana","distancia":254},{"nome":"Centro Cultural Banco do Brasil","distancia":972},{"nome":"Centro Cultural dos Correios","distancia":925},{"nome":"Confeitaria Colombo","distancia":412},{"nome":"Espaço Cultural da Marinha","distancia":1012},{"nome":"Igreja de São Francisco da Penitência","distancia":223},{"nome":"Igreja e Convento de Santa Teresa","distancia":756},{"nome":"Igreja Nossa Senhora da Candelária","distancia":928},{"nome":"Igreja Nossa Senhora da Glória do Outeiro","distancia":1446},{"nome":"Igreja Nossa Senhora do Carmo da Antiga Sé","distancia":764},{"nome":"Ilha Fiscal","distancia":1910},{"nome":"Memorial dos Pretos Novos","distancia":1984},{"nome":"Monumento aos Pracinhas","distancia":1012},{"nome":"Mosteiro de São Bento","distancia":1361},{"nome":"Museu de Arte do Rio","distancia":1433},{"nome":"Museu da Chácara do Céu","distancia":1052},{"nome":"Museu da República","distancia":1912},{"nome":"Museu de Arte Moderna","distancia":845},{"nome":"Museu de Folclore Edison Carneiro","distancia":1934},{"nome":"Museu do Clube Naval","distancia":306},{"nome":"Museu Histórico Nacional","distancia":1095},{"nome":"Museu Nacional de Belas Artes","distancia":349},{"nome":"Paço Imperial","distancia":801},{"nome":"Palácio Tiradentes","distancia":759},{"nome":"Parque das Ruínas","distancia":1010},{"nome":"Praça Paris","distancia":999},{"nome":"Real Gabinete Português de Leitura","distancia":470},{"nome":"Sala Cecília Meireles","distancia":620},{"nome":"Sambódromo","distancia":1799},{"nome":"Teatro Carlos Gomes","distancia":361},{"nome":"Teatro Dulcina","distancia":320},{"nome":"Teatro Glauce Rocha","distancia":337},{"nome":"Teatro Glória","distancia":1713},{"nome":"Teatro João Caetano","distancia":399},{"nome":"Teatro Municipal","distancia":323},{"nome":"Teatro Rival Petrobras","distancia":418}]},{"linha":"300","descricao_ponto":"Avenida Duque De Caxias próximo ao 304","sequencia":"66","latitude":"-22.857","longitude":"-43.3868","pontos_turisticos":[{"nome":"Teatro Armando Gonzaga","distancia":1707}]},{"linha":"300","descricao_ponto":"Avenida Brasil próximo ao 460","sequencia":"19","latitude":"-22.8416","longitude":"-43.3718","pontos_turisticos":[]},{"linha":"300","descricao_ponto":"Rua Joao Vicente próximo ao 2179","sequencia":"24","latitude":"-22.8577","longitude":"-43.3817","pontos_turisticos":[{"nome":"Teatro Armando Gonzaga","distancia":1258}]},{"linha":"300","descricao_ponto":"Avenida Brasil próximo ao","sequencia":"42","latitude":"-22.8294","longitude":"-43.3465","pontos_turisticos":[]},{"linha":"300","descricao_ponto":"Avenida Brasil próximo ao 12211","sequencia":"53","latitude":"-22.8147","longitude":"-43.2938","pontos_turisticos":[]},{"linha":"300","descricao_ponto":"Avenida Brasil próximo ao 23500","sequencia":"63","latitude":"-22.8476","longitude":"-43.3818","pontos_turisticos":[]},{"linha":"300","descricao_ponto":"Avenida Brasil próximo ao 23500","sequencia":"61","latitude":"-22.8476","longitude":"-43.3818","pontos_turisticos":[]},{"linha":"300","descricao_ponto":"Avenida Brasil próximo ao 8191","sequencia":"58","latitude":"-22.8403","longitude":"-43.2537","pontos_turisticos":[{"nome":"Praia de Ramos","distancia":383}]},{"linha":"300","descricao_ponto":"Avenida Brasil próximo ao 12300","sequencia":"34","latitude":"-22.8219","longitude":"-43.2806","pontos_turisticos":[]},{"linha":"300","descricao_ponto":"Rua Xavier Curado próximo ao 670","sequencia":"74","latitude":"-22.8711","longitude":"-43.3753","pontos_turisticos":[{"nome":"Teatro Armando Gonzaga","distancia":623}]},{"linha":"300","descricao_ponto":"Avenida Brasil próximo ao 11288","sequencia":"33","latitude":"-22.83","longitude":"-43.2702","pontos_turisticos":[{"nome":"Igreja Nossa Senhora da Penha","distancia":1889}]},{"linha":"300","descricao_ponto":"Avenida Brasil próximo ao 16700","sequencia":"45","latitude":"-22.8214","longitude":"-43.3243","pontos_turisticos":[]},{"linha":"300","descricao_ponto":"Avenida Brasil próximo ao 21484","sequencia":"53","latitude":"-22.8323","longitude":"-43.3546","pontos_turisticos":[]},{"linha":"300","descricao_ponto":"Rua Xavier Curado próximo ao 1160","sequencia":"74","latitude":"-22.8674","longitude":"-43.3776","pontos_turisticos":[{"nome":"Teatro Armando Gonzaga","distancia":484}]},{"linha":"300","descricao_ponto":"Rua Xavier Curado próximo ao 670","sequencia":"75","latitude":"-22.8711","longitude":"-43.3753","pontos_turisticos":[{"nome":"Teatro Armando Gonzaga","distancia":623}]},{"linha":"300","descricao_ponto":"Avenida Brasil próximo ao 14804","sequencia":"39","latitude":"-22.8177","longitude":"-43.3079","pontos_turisticos":[]},{"linha":"300","descricao_ponto":"Avenida Alberico Diniz próximo ao 1718","sequencia":"82","latitude":"-22.8865","longitude":"-43.3928","pontos_turisticos":[{"nome":"Museu Aeroespacial","distancia":506}]},{"linha":"300","descricao_ponto":"Avenida Alberico Diniz próximo ao 1797","sequencia":"2","latitude":"-22.8861","longitude":"-43.3965","pontos_turisticos":[{"nome":"Museu Aeroespacial","distancia":867}]},{"linha":"300","descricao_ponto":"Avenida Brasil próximo ao 20001","sequencia":"35","latitude":"-22.8325","longitude":"-43.3547","pontos_turisticos":[]},{"linha":"300","descricao_ponto":"BRS 1, 2, 3 - CIDADE NOVA","sequencia":"10","latitude":"-22.9098","longitude":"-43.2064","pontos_turisticos":[{"nome":"Campo de Santana","distancia":1883},{"nome":"Centro Luiz Gonzaga de Tradições Nordestinas","distancia":1961},{"nome":"Cidade do Samba","distancia":1970},{"nome":"Quinta da Boa Vista/Museu Nacional","distancia":1954},{"nome":"Sambódromo","distancia":997},{"nome":"Teatro Mário Lago","distancia":1894}]},{"linha":"300","descricao_ponto":"Avenida Brasil próximo ao 2482","sequencia":"14","latitude":"-22.8847","longitude":"-43.2265","pontos_turisticos":[{"nome":"Centro Luiz Gonzaga de Tradições Nordestinas","distancia":1533},{"nome":"Teatro Mário Lago","distancia":1710}]},{"linha":"300","descricao_ponto":"Avenida Brasil próximo ao 21484","sequencia":"52","latitude":"-22.8323","longitude":"-43.3546","pontos_turisticos":[]},{"linha":"300","descricao_ponto":"BRS 5 - PASSOS","sequencia":"6","latitude":"-22.9034","longitude":"-43.1867","pontos_turisticos":[{"nome":"Academia Brasileira de Letras","distancia":1634},{"nome":"Arcos da Lapa","distancia":1262},{"nome":"Biblioteca Nacional","distancia":1332},{"nome":"Campo de Santana","distancia":400},{"nome":"Casa França Brasil","distancia":1147},{"nome":"Catedral Metropolitana","distancia":1033},{"nome":"Centro Cultural Banco do Brasil","distancia":1088},{"nome":"Centro Cultural dos Correios","distancia":1137},{"nome":"Cidade do Samba","distancia":1460},{"nome":"Confeitaria Colombo","distancia":835},{"nome":"Espaço Cultural da Marinha","distancia":1281},{"nome":"Igreja de São Francisco da Penitência","distancia":856},{"nome":"Igreja e Convento de Santa Teresa","distancia":1512},{"nome":"Igreja Nossa Senhora da Candelária","distancia":974},{"nome":"Igreja Nossa Senhora do Carmo da Antiga Sé","distancia":1172},{"nome":"Memorial dos Pretos Novos","distancia":1037},{"nome":"Monumento aos Pracinhas","distancia":1949},{"nome":"Mosteiro de São Bento","distancia":1167},{"nome":"Museu de Arte do Rio","distancia":951},{"nome":"Museu da Chácara do Céu","distancia":1573},{"nome":"Museu de Arte Moderna","distancia":1803},{"nome":"Museu do Clube Naval","distancia":1162},{"nome":"Museu Histórico Nacional","distancia":1784},{"nome":"Museu Nacional de Belas Artes","distancia":1246},{"nome":"Paço Imperial","distancia":1274},{"nome":"Palácio Tiradentes","distancia":1280},{"nome":"Parque das Ruínas","distancia":1633},{"nome":"Praça Paris","distancia":1898},{"nome":"Real Gabinete Português de Leitura","distancia":518},{"nome":"Sala Cecília Meireles","distancia":1495},{"nome":"Sambódromo","distancia":1372},{"nome":"Teatro Carlos Gomes","distancia":603},{"nome":"Teatro Dulcina","distancia":1278},{"nome":"Teatro Glauce Rocha","distancia":1108},{"nome":"Teatro João Caetano","distancia":561},{"nome":"Teatro Municipal","distancia":1249},{"nome":"Teatro Rival Petrobras","distancia":1376}]},{"linha":"300","descricao_ponto":"Avenida Brasil próximo ao 4500","sequencia":"71","latitude":"-22.8704","longitude":"-43.2469","pontos_turisticos":[]},{"linha":"300","descricao_ponto":"Avenida Brasil próximo ao 20204","sequencia":"52","latitude":"-22.8309","longitude":"-43.3508","pontos_turisticos":[]},{"linha":"300","descricao_ponto":"Estrada Intend Magalhaes próximo ao 1172","sequencia":"82","latitude":"-22.8769","longitude":"-43.3699","pontos_turisticos":[{"nome":"Teatro Armando Gonzaga","distancia":1274}]},{"linha":"300","descricao_ponto":"Rua Pacifico Pereira próximo ao 339","sequencia":"5","latitude":"-22.888","longitude":"-43.3903","pontos_turisticos":[{"nome":"Museu Aeroespacial","distancia":395}]},{"linha":"300","descricao_ponto":"Estrada Camboata próximo ao 350","sequencia":"23","latitude":"-22.8534","longitude":"-43.3847","pontos_turisticos":[{"nome":"Teatro Armando Gonzaga","distancia":1819}]},{"linha":"300","descricao_ponto":"Avenida Brasil próximo ao 20431","sequencia":"34","latitude":"-22.8331","longitude":"-43.3562","pontos_turisticos":[]},{"linha":"300","descricao_ponto":"Avenida Brasil próximo ao","sequencia":"71","latitude":"-22.8857","longitude":"-43.2286","pontos_turisticos":[{"nome":"Centro Luiz Gonzaga de Tradições Nordestinas","distancia":1557},{"nome":"Teatro Mário Lago","distancia":1696}]},{"linha":"300","descricao_ponto":"BRS 5, I - PRAÇA DA REPÚBLICA","sequencia":"83","latitude":"-22.9044","longitude":"-43.1887","pontos_turisticos":[{"nome":"Academia Brasileira de Letras","distancia":1765},{"nome":"Arcos da Lapa","distancia":1303},{"nome":"Biblioteca Nacional","distancia":1460},{"nome":"Campo de Santana","distancia":255},{"nome":"Casa França Brasil","distancia":1376},{"nome":"Catedral Metropolitana","distancia":1090},{"nome":"Centro Cultural Banco do Brasil","distancia":1317},{"nome":"Centro Cultural dos Correios","distancia":1362},{"nome":"Cidade do Samba","distancia":1406},{"nome":"Confeitaria Colombo","distancia":1018},{"nome":"Espaço Cultural da Marinha","distancia":1506},{"nome":"Igreja de São Francisco da Penitência","distancia":1006},{"nome":"Igreja e Convento de Santa Teresa","distancia":1518},{"nome":"Igreja Nossa Senhora da Candelária","distancia":1204},{"nome":"Igreja Nossa Senhora do Carmo da Antiga Sé","distancia":1382},{"nome":"Memorial dos Pretos Novos","distancia":1024},{"nome":"Mosteiro de São Bento","distancia":1397},{"nome":"Museu de Arte do Rio","distancia":1160},{"nome":"Museu da Chácara do Céu","distancia":1513},{"nome":"Museu de Arte Moderna","distancia":1901},{"nome":"Museu do Clube Naval","distancia":1307},{"nome":"Museu Histórico Nacional","distancia":1977},{"nome":"Museu Nacional de Belas Artes","distancia":1385},{"nome":"Paço Imperial","distancia":1482},{"nome":"Palácio Tiradentes","distancia":1483},{"nome":"Parque das Ruínas","distancia":1597},{"nome":"Praça Paris","distancia":1942},{"nome":"Real Gabinete Português de Leitura","distancia":679},{"nome":"Sala Cecília Meireles","distancia":1540},{"nome":"Sambódromo","distancia":1146},{"nome":"Teatro Carlos Gomes","distancia":707},{"nome":"Teatro Dulcina","distancia":1383},{"nome":"Teatro Glauce Rocha","distancia":1267},{"nome":"Teatro João Caetano","distancia":693},{"nome":"Teatro Municipal","distancia":1378},{"nome":"Teatro Rival Petrobras","distancia":1481}]},{"linha":"300","descricao_ponto":"Avenida Brasil próximo ao 16000","sequencia":"43","latitude":"-22.8196","longitude":"-43.3166","pontos_turisticos":[]},{"linha":"300","descricao_ponto":"Viaduto De Deodoro próximo ao S/n","sequencia":"65","latitude":"-22.8548","longitude":"-43.3837","pontos_turisticos":[{"nome":"Teatro Armando Gonzaga","distancia":1634}]},{"linha":"300","descricao_ponto":"Avenida Sao Sebastiao próximo ao 1807","sequencia":"68","latitude":"-22.859","longitude":"-43.3817","pontos_turisticos":[{"nome":"Teatro Armando Gonzaga","distancia":1158}]},{"linha":"300","descricao_ponto":"Rua Joao Vicente próximo ao 1175","sequencia":"69","latitude":"-22.8585","longitude":"-43.3785","pontos_turisticos":[{"nome":"Teatro Armando Gonzaga","distancia":982}]},{"linha":"300","descricao_ponto":"Rua Xavier Curado próximo ao 45","sequencia":"35","latitude":"-22.8754","longitude":"-43.3731","pontos_turisticos":[{"nome":"Museu Aeroespacial","distancia":1877},{"nome":"Teatro Armando Gonzaga","distancia":1062}]},{"linha":"300","descricao_ponto":"Avenida Brasil próximo ao 10857","sequencia":"58","latitude":"-22.8264","longitude":"-43.2755","pontos_turisticos":[]},{"linha":"300","descricao_ponto":"Avenida Brasil próximo ao 6325","sequencia":"68","latitude":"-22.8557","longitude":"-43.2479","pontos_turisticos":[{"nome":"Praia de Ramos","distancia":1906}]},{"linha":"300","descricao_ponto":"Avenida Brasil próximo ao 18476","sequencia":"47","latitude":"-22.8253","longitude":"-43.3362","pontos_turisticos":[]},{"linha":"300","descricao_ponto":"Avenida Brasil próximo ao 23090","sequencia":"57","latitude":"-22.8425","longitude":"-43.3736","pontos_turisticos":[]},{"linha":"300","descricao_ponto":"Avenida Brasil próximo ao 22935","sequencia":"28","latitude":"-22.8448","longitude":"-43.3765","pontos_turisticos":[]},{"linha":"300","descricao_ponto":"BRS 4, 5 - REPÚBLICA DO PARAGUAI","sequencia":"1","latitude":"-22.9088","longitude":"-43.179","pontos_turisticos":[{"nome":"Academia Brasileira de Letras","distancia":659},{"nome":"Arcos da Lapa","distancia":462},{"nome":"Biblioteca Nacional","distancia":356},{"nome":"Campo de Santana","distancia":985},{"nome":"Casa França Brasil","distancia":984},{"nome":"Catedral Metropolitana","distancia":292},{"nome":"Centro Cultural Banco do Brasil","distancia":946},{"nome":"Centro Cultural dos Correios","distancia":896},{"nome":"Confeitaria Colombo","distancia":395},{"nome":"Espaço Cultural da Marinha","distancia":977},{"nome":"Igreja de São Francisco da Penitência","distancia":212},{"nome":"Igreja e Convento de Santa Teresa","distancia":774},{"nome":"Igreja Nossa Senhora da Candelária","distancia":907},{"nome":"Igreja Nossa Senhora da Glória do Outeiro","distancia":1443},{"nome":"Igreja Nossa Senhora do Carmo da Antiga Sé","distancia":727},{"nome":"Ilha Fiscal","distancia":1866},{"nome":"Monumento aos Pracinhas","distancia":994},{"nome":"Mosteiro de São Bento","distancia":1345},{"nome":"Museu de Arte do Rio","distancia":1432},{"nome":"Museu da Chácara do Céu","distancia":1086},{"nome":"Museu da República","distancia":1916},{"nome":"Museu de Arte Moderna","distancia":814},{"nome":"Museu de Folclore Edison Carneiro","distancia":1937},{"nome":"Museu do Clube Naval","distancia":254},{"nome":"Museu Histórico Nacional","distancia":1043},{"nome":"Museu Nacional de Belas Artes","distancia":298},{"nome":"Paço Imperial","distancia":759},{"nome":"Palácio Tiradentes","distancia":715},{"nome":"Parque das Ruínas","distancia":1037},{"nome":"Praça Paris","distancia":991},{"nome":"Real Gabinete Português de Leitura","distancia":493},{"nome":"Sala Cecília Meireles","distancia":622},{"nome":"Sambódromo","distancia":1851},{"nome":"Teatro Carlos Gomes","distancia":401},{"nome":"Teatro Dulcina","distancia":290},{"nome":"Teatro Glauce Rocha","distancia":289},{"nome":"Teatro Glória","distancia":1703},{"nome":"Teatro João Caetano","distancia":430},{"nome":"Teatro Municipal","distancia":276},{"nome":"Teatro Rival Petrobras","distancia":387}]},{"linha":"300","descricao_ponto":"Avenida Brasil próximo ao 16700","sequencia":"44","latitude":"-22.8214","longitude":"-43.3243","pontos_turisticos":[]},{"linha":"300","descricao_ponto":"Estrada Camboata próximo ao S/n","sequencia":"64","latitude":"-22.8533","longitude":"-43.3848","pontos_turisticos":[{"nome":"Teatro Armando Gonzaga","distancia":1834}]},{"linha":"300","descricao_ponto":"Avenida Brasil próximo ao 10590","sequencia":"32","latitude":"-22.8321","longitude":"-43.2665","pontos_turisticos":[{"nome":"Igreja Nossa Senhora da Penha","distancia":1886},{"nome":"Praia de Ramos","distancia":1808}]},{"linha":"300","descricao_ponto":"Rua Joao Vicente próximo ao 1175","sequencia":"70","latitude":"-22.8585","longitude":"-43.3785","pontos_turisticos":[{"nome":"Teatro Armando Gonzaga","distancia":982}]},{"linha":"300","descricao_ponto":"Avenida Brasil próximo ao 5493","sequencia":"20","latitude":"-22.8648","longitude":"-43.2477","pontos_turisticos":[]},{"linha":"300","descricao_ponto":"Rua Xavier Curado próximo ao 670","sequencia":"73","latitude":"-22.8711","longitude":"-43.3753","pontos_turisticos":[{"nome":"Teatro Armando Gonzaga","distancia":623}]},{"linha":"300","descricao_ponto":"Avenida Brasil próximo ao 19405","sequencia":"37","latitude":"-22.83","longitude":"-43.3479","pontos_turisticos":[]},{"linha":"300","descricao_ponto":"Avenida Brasil próximo ao S/n","sequencia":"54","latitude":"-22.8367","longitude":"-43.3639","pontos_turisticos":[]},{"linha":"300","descricao_ponto":"Estrada Camboata próximo ao 601","sequencia":"28","latitude":"-22.8507","longitude":"-43.3841","pontos_turisticos":[]},{"linha":"300","descricao_ponto":"Avenida Brasil próximo ao 20431","sequencia":"38","latitude":"-22.8331","longitude":"-43.3562","pontos_turisticos":[]},{"linha":"300","descricao_ponto":"Avenida Brasil próximo ao 16741","sequencia":"48","latitude":"-22.8224","longitude":"-43.3262","pontos_turisticos":[]},{"linha":"300","descricao_ponto":"BRS 2 - OUVIDOR","sequencia":"90","latitude":"-22.9035","longitude":"-43.1783","pontos_turisticos":[{"nome":"Academia Brasileira de Letras","distancia":985},{"nome":"Arcos da Lapa","distancia":1055},{"nome":"Biblioteca Nacional","distancia":747},{"nome":"Campo de Santana","distancia":1086},{"nome":"Casa França Brasil","distancia":419},{"nome":"Catedral Metropolitana","distancia":858},{"nome":"Centro Cultural Banco do Brasil","distancia":370},{"nome":"Centro Cultural dos Correios","distancia":352},{"nome":"Confeitaria Colombo","distancia":201},{"nome":"Espaço Cultural da Marinha","distancia":477},{"nome":"Igreja de São Francisco da Penitência","distancia":391},{"nome":"Igreja e Convento de Santa Teresa","distancia":1367},{"nome":"Igreja Nossa Senhora da Candelária","distancia":315},{"nome":"Igreja Nossa Senhora do Carmo da Antiga Sé","distancia":312},{"nome":"Ilha Fiscal","distancia":1446},{"nome":"Memorial dos Pretos Novos","distancia":1714},{"nome":"Monumento aos Pracinhas","distancia":1509},{"nome":"Mosteiro de São Bento","distancia":752},{"nome":"Museu de Arte do Rio","distancia":887},{"nome":"Museu da Chácara do Céu","distancia":1651},{"nome":"Museu de Arte Moderna","distancia":1260},{"nome":"Museu do Clube Naval","distancia":548},{"nome":"Museu Histórico Nacional","distancia":935},{"nome":"Museu Nacional de Belas Artes","distancia":641},{"nome":"Paço Imperial","distancia":413},{"nome":"Palácio Tiradentes","distancia":423},{"nome":"Parque das Ruínas","distancia":1620},{"nome":"Praça Paris","distancia":1547},{"nome":"Real Gabinete Português de Leitura","distancia":453},{"nome":"Sala Cecília Meireles","distancia":1206},{"nome":"Teatro Carlos Gomes","distancia":598},{"nome":"Teatro Dulcina","distancia":811},{"nome":"Teatro Glauce Rocha","distancia":449},{"nome":"Teatro João Caetano","distancia":520},{"nome":"Teatro Municipal","distancia":684},{"nome":"Teatro Rival Petrobras","distancia":881}]},{"linha":"300","descricao_ponto":"Estrada Camboata próximo ao S/n","sequencia":"65","latitude":"-22.8533","longitude":"-43.3848","pontos_turisticos":[{"nome":"Teatro Armando Gonzaga","distancia":1834}]},{"linha":"300","descricao_ponto":"Avenida Sao Sebastiao próximo ao 1807","sequencia":"69","latitude":"-22.859","longitude":"-43.3817","pontos_turisticos":[{"nome":"Teatro Armando Gonzaga","distancia":1158}]},{"linha":"300","descricao_ponto":"Estrada Japore próximo ao 660","sequencia":"88","latitude":"-22.886","longitude":"-43.3801","pontos_turisticos":[{"nome":"Museu Aeroespacial","distancia":827}]},{"linha":"300","descricao_ponto":"Avenida Brasil próximo ao S/n","sequencia":"52","latitude":"-22.8354","longitude":"-43.3618","pontos_turisticos":[]},{"linha":"300","descricao_ponto":"Estrada Japore próximo ao 525","sequencia":"79","latitude":"-22.882","longitude":"-43.3756","pontos_turisticos":[{"nome":"Museu Aeroespacial","distancia":1326},{"nome":"Teatro Armando Gonzaga","distancia":1813}]},{"linha":"300","descricao_ponto":"Rua Fernandes Sampaio próximo ao 300","sequencia":"86","latitude":"-22.8879","longitude":"-43.3943","pontos_turisticos":[{"nome":"Museu Aeroespacial","distancia":708}]},{"linha":"300","descricao_ponto":"Avenida Brasil próximo ao 20971","sequencia":"36","latitude":"-22.837","longitude":"-43.3636","pontos_turisticos":[]},{"linha":"300","descricao_ponto":"Avenida Brasil próximo ao 7022","sequencia":"25","latitude":"-22.8536","longitude":"-43.2474","pontos_turisticos":[{"nome":"Praia de Ramos","distancia":1683}]},{"linha":"300","descricao_ponto":"Avenida Brasil próximo ao 21918","sequencia":"57","latitude":"-22.8393","longitude":"-43.3683","pontos_turisticos":[]},{"linha":"300","descricao_ponto":"Avenida Brasil próximo ao 6869","sequencia":"62","latitude":"-22.853","longitude":"-43.2479","pontos_turisticos":[{"nome":"Praia de Ramos","distancia":1609}]},{"linha":"300","descricao_ponto":"Avenida Brasil próximo ao 6892","sequencia":"25","latitude":"-22.8519","longitude":"-43.2474","pontos_turisticos":[{"nome":"Praia de Ramos","distancia":1498}]},{"linha":"300","descricao_ponto":"Rua Xavier Curado próximo ao 121","sequencia":"75","latitude":"-22.8742","longitude":"-43.3736","pontos_turisticos":[{"nome":"Museu Aeroespacial","distancia":1916},{"nome":"Teatro Armando Gonzaga","distancia":930}]},{"linha":"300","descricao_ponto":"Avenida Alberico Diniz próximo ao 1718","sequencia":"42","latitude":"-22.8865","longitude":"-43.3928","pontos_turisticos":[{"nome":"Museu Aeroespacial","distancia":506}]},{"linha":"300","descricao_ponto":"Avenida Alberico Diniz próximo ao 1797","sequencia":"44","latitude":"-22.8861","longitude":"-43.3965","pontos_turisticos":[{"nome":"Museu Aeroespacial","distancia":867}]},{"linha":"300","descricao_ponto":"Estrada Camboata próximo ao 350","sequencia":"27","latitude":"-22.8534","longitude":"-43.3847","pontos_turisticos":[{"nome":"Teatro Armando Gonzaga","distancia":1819}]},{"linha":"300","descricao_ponto":"Avenida Brasil próximo ao 19003","sequencia":"45","latitude":"-22.8256","longitude":"-43.336","pontos_turisticos":[]},{"linha":"300","descricao_ponto":"Avenida Brasil próximo ao","sequencia":"43","latitude":"-22.8196","longitude":"-43.3145","pontos_turisticos":[]},{"linha":"300","descricao_ponto":"Avenida Brasil próximo ao 17810","sequencia":"46","latitude":"-22.8222","longitude":"-43.3267","pontos_turisticos":[]},{"linha":"300","descricao_ponto":"Estrada Camboata próximo ao 91","sequencia":"64","latitude":"-22.8508","longitude":"-43.3842","pontos_turisticos":[]},{"linha":"300","descricao_ponto":"Viaduto De Deodoro próximo ao S/n","sequencia":"64","latitude":"-22.8548","longitude":"-43.3837","pontos_turisticos":[{"nome":"Teatro Armando Gonzaga","distancia":1634}]},{"linha":"300","descricao_ponto":"BRS 5, I - PRAÇA DA REPÚBLICA","sequencia":"47","latitude":"-22.9044","longitude":"-43.1887","pontos_turisticos":[{"nome":"Academia Brasileira de Letras","distancia":1765},{"nome":"Arcos da Lapa","distancia":1303},{"nome":"Biblioteca Nacional","distancia":1460},{"nome":"Campo de Santana","distancia":255},{"nome":"Casa França Brasil","distancia":1376},{"nome":"Catedral Metropolitana","distancia":1090},{"nome":"Centro Cultural Banco do Brasil","distancia":1317},{"nome":"Centro Cultural dos Correios","distancia":1362},{"nome":"Cidade do Samba","distancia":1406},{"nome":"Confeitaria Colombo","distancia":1018},{"nome":"Espaço Cultural da Marinha","distancia":1506},{"nome":"Igreja de São Francisco da Penitência","distancia":1006},{"nome":"Igreja e Convento de Santa Teresa","distancia":1518},{"nome":"Igreja Nossa Senhora da Candelária","distancia":1204},{"nome":"Igreja Nossa Senhora do Carmo da Antiga Sé","distancia":1382},{"nome":"Memorial dos Pretos Novos","distancia":1024},{"nome":"Mosteiro de São Bento","distancia":1397},{"nome":"Museu de Arte do Rio","distancia":1160},{"nome":"Museu da Chácara do Céu","distancia":1513},{"nome":"Museu de Arte Moderna","distancia":1901},{"nome":"Museu do Clube Naval","distancia":1307},{"nome":"Museu Histórico Nacional","distancia":1977},{"nome":"Museu Nacional de Belas Artes","distancia":1385},{"nome":"Paço Imperial","distancia":1482},{"nome":"Palácio Tiradentes","distancia":1483},{"nome":"Parque das Ruínas","distancia":1597},{"nome":"Praça Paris","distancia":1942},{"nome":"Real Gabinete Português de Leitura","distancia":679},{"nome":"Sala Cecília Meireles","distancia":1540},{"nome":"Sambódromo","distancia":1146},{"nome":"Teatro Carlos Gomes","distancia":707},{"nome":"Teatro Dulcina","distancia":1383},{"nome":"Teatro Glauce Rocha","distancia":1267},{"nome":"Teatro João Caetano","distancia":693},{"nome":"Teatro Municipal","distancia":1378},{"nome":"Teatro Rival Petrobras","distancia":1481}]},{"linha":"300","descricao_ponto":"Avenida Brasil próximo ao 21887","sequencia":"30","latitude":"-22.8415","longitude":"-43.3712","pontos_turisticos":[]},{"linha":"300","descricao_ponto":"Avenida Brasil próximo ao 12049","sequencia":"33","latitude":"-22.8259","longitude":"-43.2754","pontos_turisticos":[]},{"linha":"300","descricao_ponto":"Avenida Brasil próximo ao 17241","sequencia":"46","latitude":"-22.8245","longitude":"-43.3325","pontos_turisticos":[]},{"linha":"300","descricao_ponto":"Rua Fernandes Sampaio próximo ao 300","sequencia":"93","latitude":"-22.8879","longitude":"-43.3943","pontos_turisticos":[{"nome":"Museu Aeroespacial","distancia":708}]},{"linha":"300","descricao_ponto":"Avenida Brasil próximo ao 3666","sequencia":"15","latitude":"-22.886","longitude":"-43.2341","pontos_turisticos":[{"nome":"Centro Luiz Gonzaga de Tradições Nordestinas","distancia":1931},{"nome":"Teatro Mário Lago","distancia":1997}]},{"linha":"300","descricao_ponto":"Avenida Brasil próximo ao 6325","sequencia":"63","latitude":"-22.8557","longitude":"-43.2479","pontos_turisticos":[{"nome":"Praia de Ramos","distancia":1906}]},{"linha":"300","descricao_ponto":"Avenida Brasil próximo ao 1940","sequencia":"72","latitude":"-22.8853","longitude":"-43.2265","pontos_turisticos":[{"nome":"Centro Luiz Gonzaga de Tradições Nordestinas","distancia":1475},{"nome":"Teatro Mário Lago","distancia":1648}]},{"linha":"300","descricao_ponto":"Avenida Brasil próximo ao 1455","sequencia":"73","latitude":"-22.8871","longitude":"-43.2246","pontos_turisticos":[{"nome":"Centro Luiz Gonzaga de Tradições Nordestinas","distancia":1207},{"nome":"Jardim Zoológico (Riozoo)","distancia":1971},{"nome":"Teatro Mário Lago","distancia":1397}]},{"linha":"300","descricao_ponto":"Avenida Brasil próximo ao 8382","sequencia":"26","latitude":"-22.8467","longitude":"-43.2475","pontos_turisticos":[{"nome":"Praia de Ramos","distancia":936}]},{"linha":"300","descricao_ponto":"Avenida Brasil próximo ao","sequencia":"39","latitude":"-22.8171","longitude":"-43.3069","pontos_turisticos":[]},{"linha":"300","descricao_ponto":"Avenida Brasil próximo ao 23500","sequencia":"62","latitude":"-22.8476","longitude":"-43.3818","pontos_turisticos":[]},{"linha":"300","descricao_ponto":"Avenida Brasil próximo ao 2373","sequencia":"31","latitude":"-22.8459","longitude":"-43.3783","pontos_turisticos":[]},{"linha":"300","descricao_ponto":"Avenida Brasil próximo ao 21887","sequencia":"34","latitude":"-22.8415","longitude":"-43.3712","pontos_turisticos":[]},{"linha":"300","descricao_ponto":"Avenida Brasil próximo ao 1940","sequencia":"77","latitude":"-22.8853","longitude":"-43.2265","pontos_turisticos":[{"nome":"Centro Luiz Gonzaga de Tradições Nordestinas","distancia":1475},{"nome":"Teatro Mário Lago","distancia":1648}]},{"linha":"300","descricao_ponto":"Avenida Brasil próximo ao 1211","sequencia":"79","latitude":"-22.8893","longitude":"-43.2204","pontos_turisticos":[{"nome":"Centro Luiz Gonzaga de Tradições Nordestinas","distancia":842},{"nome":"Jardim Zoológico (Riozoo)","distancia":1887},{"nome":"Quinta da Boa Vista/Museu Nacional","distancia":1853},{"nome":"Teatro Mário Lago","distancia":1099}]},{"linha":"300","descricao_ponto":"Avenida Brasil próximo ao 16000","sequencia":"44","latitude":"-22.8196","longitude":"-43.3166","pontos_turisticos":[]},{"linha":"300","descricao_ponto":"Avenida Brasil próximo ao 12049","sequencia":"32","latitude":"-22.8259","longitude":"-43.2754","pontos_turisticos":[]},{"linha":"300","descricao_ponto":"Rua Xavier Curado próximo ao 45","sequencia":"75","latitude":"-22.8754","longitude":"-43.3731","pontos_turisticos":[{"nome":"Museu Aeroespacial","distancia":1877},{"nome":"Teatro Armando Gonzaga","distancia":1062}]},{"linha":"300","descricao_ponto":"Estrada Intend Magalhaes próximo ao 1172","sequencia":"11","latitude":"-22.8769","longitude":"-43.3699","pontos_turisticos":[{"nome":"Teatro Armando Gonzaga","distancia":1274}]},{"linha":"300","descricao_ponto":"Avenida Brasil próximo ao 21315","sequencia":"31","latitude":"-22.8395","longitude":"-43.3681","pontos_turisticos":[]},{"linha":"300","descricao_ponto":"Avenida Brasil próximo ao 17719","sequencia":"39","latitude":"-22.8272","longitude":"-43.3401","pontos_turisticos":[]},{"linha":"300","descricao_ponto":"Avenida Brasil próximo ao","sequencia":"25","latitude":"-22.8487","longitude":"-43.3827","pontos_turisticos":[]},{"linha":"300","descricao_ponto":"Avenida Brasil próximo ao 15455","sequencia":"45","latitude":"-22.8196","longitude":"-43.3105","pontos_turisticos":[]},{"linha":"300","descricao_ponto":"Avenida Sao Sebastiao próximo ao 1649","sequencia":"67","latitude":"-22.8593","longitude":"-43.3848","pontos_turisticos":[{"nome":"Teatro Armando Gonzaga","distancia":1395}]},{"linha":"300","descricao_ponto":"Avenida Brasil próximo ao 19850","sequencia":"12","latitude":"-22.8295","longitude":"-43.3471","pontos_turisticos":[]},{"linha":"300","descricao_ponto":"Avenida Sao Sebastiao próximo ao 1649","sequencia":"26","latitude":"-22.8593","longitude":"-43.3848","pontos_turisticos":[{"nome":"Teatro Armando Gonzaga","distancia":1395}]},{"linha":"300","descricao_ponto":"Avenida Rio De Janeiro próximo ao","sequencia":"13","latitude":"-22.8909","longitude":"-43.2152","pontos_turisticos":[{"nome":"Centro Luiz Gonzaga de Tradições Nordestinas","distancia":782},{"nome":"Cidade do Samba","distancia":1902},{"nome":"Quinta da Boa Vista/Museu Nacional","distancia":1897},{"nome":"Teatro Mário Lago","distancia":1088}]},{"linha":"300","descricao_ponto":"Avenida Brasil próximo ao 4036","sequencia":"20","latitude":"-22.8777","longitude":"-43.2409","pontos_turisticos":[]},{"linha":"300","descricao_ponto":"Avenida Brasil próximo ao 6892","sequencia":"26","latitude":"-22.8519","longitude":"-43.2474","pontos_turisticos":[{"nome":"Praia de Ramos","distancia":1498}]},{"linha":"300","descricao_ponto":"Avenida Brasil próximo ao 16000","sequencia":"42","latitude":"-22.8192","longitude":"-43.3106","pontos_turisticos":[]},{"linha":"300","descricao_ponto":"Avenida Brasil próximo ao 4036","sequencia":"18","latitude":"-22.8777","longitude":"-43.2409","pontos_turisticos":[]},{"linha":"300","descricao_ponto":"Avenida Brasil próximo ao 11288","sequencia":"31","latitude":"-22.83","longitude":"-43.2702","pontos_turisticos":[{"nome":"Igreja Nossa Senhora da Penha","distancia":1889}]},{"linha":"300","descricao_ponto":"Rua Joao Vicente próximo ao 2209","sequencia":"21","latitude":"-22.8561","longitude":"-43.3857","pontos_turisticos":[{"nome":"Teatro Armando Gonzaga","distancia":1679}]},{"linha":"300","descricao_ponto":"BRS 5,I - CENTRAL","sequencia":"82","latitude":"-22.9061","longitude":"-43.1941","pontos_turisticos":[{"nome":"Arcos da Lapa","distancia":1637},{"nome":"Biblioteca Nacional","distancia":1929},{"nome":"Campo de Santana","distancia":594},{"nome":"Casa França Brasil","distancia":1961},{"nome":"Catedral Metropolitana","distancia":1469},{"nome":"Centro Cultural Banco do Brasil","distancia":1902},{"nome":"Centro Cultural dos Correios","distancia":1945},{"nome":"Cidade do Samba","distancia":1342},{"nome":"Confeitaria Colombo","distancia":1570},{"nome":"Igreja de São Francisco da Penitência","distancia":1523},{"nome":"Igreja e Convento de Santa Teresa","distancia":1768},{"nome":"Igreja Nossa Senhora da Candelária","distancia":1788},{"nome":"Igreja Nossa Senhora do Carmo da Antiga Sé","distancia":1955},{"nome":"Memorial dos Pretos Novos","distancia":1121},{"nome":"Mosteiro de São Bento","distancia":1960},{"nome":"Museu de Arte do Rio","distancia":1680},{"nome":"Museu da Chácara do Céu","distancia":1614},{"nome":"Museu do Clube Naval","distancia":1806},{"nome":"Museu Nacional de Belas Artes","distancia":1870},{"nome":"Parque das Ruínas","distancia":1745},{"nome":"Real Gabinete Português de Leitura","distancia":1224},{"nome":"Sala Cecília Meireles","distancia":1866},{"nome":"Sambódromo","distancia":660},{"nome":"Teatro Carlos Gomes","distancia":1193},{"nome":"Teatro Dulcina","distancia":1819},{"nome":"Teatro Glauce Rocha","distancia":1784},{"nome":"Teatro João Caetano","distancia":1210},{"nome":"Teatro Municipal","distancia":1851},{"nome":"Teatro Rival Petrobras","distancia":1913}]},{"linha":"300","descricao_ponto":"BRS 3A, 5 - PRAÇA ONZE","sequencia":"9","latitude":"-22.9076","longitude":"-43.1997","pontos_turisticos":[{"nome":"Campo de Santana","distancia":1169},{"nome":"Catedral Metropolitana","distancia":1977},{"nome":"Cidade do Samba","distancia":1500},{"nome":"Memorial dos Pretos Novos","distancia":1456},{"nome":"Museu da Chácara do Céu","distancia":1928},{"nome":"Real Gabinete Português de Leitura","distancia":1811},{"nome":"Sambódromo","distancia":521},{"nome":"Teatro Carlos Gomes","distancia":1760},{"nome":"Teatro João Caetano","distancia":1788}]},{"linha":"300","descricao_ponto":"Avenida Brasil próximo ao 10550","sequencia":"30","latitude":"-22.8347","longitude":"-43.2618","pontos_turisticos":[{"nome":"Praia de Ramos","distancia":1252}]},{"linha":"300","descricao_ponto":"Avenida Brasil próximo ao 18200","sequencia":"46","latitude":"-22.8238","longitude":"-43.3317","pontos_turisticos":[]},{"linha":"300","descricao_ponto":"Rua Fernandes Sampaio próximo ao 300","sequencia":"45","latitude":"-22.8879","longitude":"-43.3943","pontos_turisticos":[{"nome":"Museu Aeroespacial","distancia":708}]},{"linha":"300","descricao_ponto":"Avenida Brasil próximo ao 7971","sequencia":"64","latitude":"-22.8431","longitude":"-43.2511","pontos_turisticos":[{"nome":"Praia de Ramos","distancia":493}]},{"linha":"300","descricao_ponto":"Avenida Brasil próximo ao 9020","sequencia":"27","latitude":"-22.8399","longitude":"-43.2535","pontos_turisticos":[{"nome":"Praia de Ramos","distancia":345}]},{"linha":"300","descricao_ponto":"Avenida Brasil próximo ao 21918","sequencia":"55","latitude":"-22.8393","longitude":"-43.3683","pontos_turisticos":[]},{"linha":"300","descricao_ponto":"Avenida Brasil próximo ao","sequencia":"49","latitude":"-22.8174","longitude":"-43.287","pontos_turisticos":[]},{"linha":"300","descricao_ponto":"Avenida Brasil próximo ao 6288","sequencia":"23","latitude":"-22.8566","longitude":"-43.2475","pontos_turisticos":[]},{"linha":"300","descricao_ponto":"Avenida Brasil próximo ao 14804","sequencia":"40","latitude":"-22.8177","longitude":"-43.3079","pontos_turisticos":[]},{"linha":"300","descricao_ponto":"Avenida Brasil próximo ao 16000","sequencia":"41","latitude":"-22.8192","longitude":"-43.3106","pontos_turisticos":[]},{"linha":"300","descricao_ponto":"Avenida Brasil próximo ao","sequencia":"76","latitude":"-22.8857","longitude":"-43.2286","pontos_turisticos":[{"nome":"Centro Luiz Gonzaga de Tradições Nordestinas","distancia":1557},{"nome":"Teatro Mário Lago","distancia":1696}]},{"linha":"300","descricao_ponto":"Avenida Brasil próximo ao 16000","sequencia":"42","latitude":"-22.8196","longitude":"-43.3166","pontos_turisticos":[]},{"linha":"300","descricao_ponto":"Avenida Brasil próximo ao 19405","sequencia":"36","latitude":"-22.83","longitude":"-43.3479","pontos_turisticos":[]},{"linha":"300","descricao_ponto":"Avenida Brasil próximo ao","sequencia":"51","latitude":"-22.8207","longitude":"-43.2829","pontos_turisticos":[]},{"linha":"300","descricao_ponto":"Avenida Brasil próximo ao 9727","sequencia":"55","latitude":"-22.8336","longitude":"-43.2646","pontos_turisticos":[{"nome":"Igreja Nossa Senhora da Penha","distancia":1892},{"nome":"Praia de Ramos","distancia":1564}]},{"linha":"300","descricao_ponto":"Avenida Francisco Bicalho próximo ao 337","sequencia":"76","latitude":"-22.9003","longitude":"-43.2106","pontos_turisticos":[{"nome":"Centro Luiz Gonzaga de Tradições Nordestinas","distancia":976},{"nome":"Cidade do Samba","distancia":1541},{"nome":"Jardim Zoológico (Riozoo)","distancia":1921},{"nome":"Memorial dos Pretos Novos","distancia":1867},{"nome":"Quinta da Boa Vista/Museu Nacional","distancia":1571},{"nome":"Sambódromo","distancia":1879},{"nome":"Teatro Mário Lago","distancia":1058}]},{"linha":"300","descricao_ponto":"Avenida Brasil próximo ao 18476","sequencia":"48","latitude":"-22.8253","longitude":"-43.3362","pontos_turisticos":[]},{"linha":"300","descricao_ponto":"Rua Xavier Curado próximo ao 45","sequencia":"76","latitude":"-22.8754","longitude":"-43.3731","pontos_turisticos":[{"nome":"Museu Aeroespacial","distancia":1877},{"nome":"Teatro Armando Gonzaga","distancia":1062}]},{"linha":"300","descricao_ponto":"Estrada Japore próximo ao 398","sequencia":"78","latitude":"-22.8794","longitude":"-43.3745","pontos_turisticos":[{"nome":"Museu Aeroespacial","distancia":1530},{"nome":"Teatro Armando Gonzaga","distancia":1513}]},{"linha":"300","descricao_ponto":"Rua Joao Vicente próximo ao 50","sequencia":"29","latitude":"-22.8589","longitude":"-43.3759","pontos_turisticos":[{"nome":"Teatro Armando Gonzaga","distancia":821}]},{"linha":"300","descricao_ponto":"Estrada Japore próximo ao 525","sequencia":"38","latitude":"-22.882","longitude":"-43.3756","pontos_turisticos":[{"nome":"Museu Aeroespacial","distancia":1326},{"nome":"Teatro Armando Gonzaga","distancia":1813}]},{"linha":"300","descricao_ponto":"Avenida Brasil próximo ao 15455","sequencia":"50","latitude":"-22.8196","longitude":"-43.3105","pontos_turisticos":[]},{"linha":"300","descricao_ponto":"Avenida Brasil próximo ao","sequencia":"52","latitude":"-22.8147","longitude":"-43.2963","pontos_turisticos":[]},{"linha":"300","descricao_ponto":"Avenida Brasil próximo ao","sequencia":"40","latitude":"-22.8171","longitude":"-43.3069","pontos_turisticos":[]},{"linha":"300","descricao_ponto":"Avenida Brasil próximo ao 23090","sequencia":"59","latitude":"-22.8425","longitude":"-43.3736","pontos_turisticos":[]},{"linha":"300","descricao_ponto":"Estrada Japore próximo ao 398","sequencia":"85","latitude":"-22.8794","longitude":"-43.3745","pontos_turisticos":[{"nome":"Museu Aeroespacial","distancia":1530},{"nome":"Teatro Armando Gonzaga","distancia":1513}]},{"linha":"300","descricao_ponto":"Avenida Brasil próximo ao 10550","sequencia":"29","latitude":"-22.8347","longitude":"-43.2618","pontos_turisticos":[{"nome":"Praia de Ramos","distancia":1252}]},{"linha":"300","descricao_ponto":"Avenida Brasil próximo ao S/n","sequencia":"53","latitude":"-22.8367","longitude":"-43.3639","pontos_turisticos":[]},{"linha":"300","descricao_ponto":"Rua Olimpio De Castro próximo ao 455","sequencia":"4","latitude":"-22.8877","longitude":"-43.3922","pontos_turisticos":[{"nome":"Museu Aeroespacial","distancia":511}]},{"linha":"300","descricao_ponto":"Avenida Brasil próximo ao 1211","sequencia":"74","latitude":"-22.8893","longitude":"-43.2204","pontos_turisticos":[{"nome":"Centro Luiz Gonzaga de Tradições Nordestinas","distancia":842},{"nome":"Jardim Zoológico (Riozoo)","distancia":1887},{"nome":"Quinta da Boa Vista/Museu Nacional","distancia":1853},{"nome":"Teatro Mário Lago","distancia":1099}]},{"linha":"300","descricao_ponto":"Avenida Brasil próximo ao 3666","sequencia":"16","latitude":"-22.886","longitude":"-43.2341","pontos_turisticos":[{"nome":"Centro Luiz Gonzaga de Tradições Nordestinas","distancia":1931},{"nome":"Teatro Mário Lago","distancia":1997}]},{"linha":"300","descricao_ponto":"Avenida Brasil próximo ao 1580","sequencia":"20","latitude":"-22.8751","longitude":"-43.2428","pontos_turisticos":[]},{"linha":"300","descricao_ponto":"Estrada Japore próximo ao 508","sequencia":"39","latitude":"-22.8842","longitude":"-43.3758","pontos_turisticos":[{"nome":"Museu Aeroespacial","distancia":1265}]},{"linha":"300","descricao_ponto":"Avenida Brasil próximo ao 15555","sequencia":"49","latitude":"-22.8218","longitude":"-43.3241","pontos_turisticos":[]},{"linha":"300","descricao_ponto":"Avenida Brasil próximo ao 8701","sequencia":"59","latitude":"-22.83","longitude":"-43.271","pontos_turisticos":[{"nome":"Igreja Nossa Senhora da Penha","distancia":1856}]},{"linha":"300","descricao_ponto":"Avenida Brasil próximo ao 10550","sequencia":"31","latitude":"-22.8347","longitude":"-43.2618","pontos_turisticos":[{"nome":"Praia de Ramos","distancia":1252}]},{"linha":"300","descricao_ponto":"Avenida Brasil próximo ao 22300","sequencia":"56","latitude":"-22.8378","longitude":"-43.3657","pontos_turisticos":[]},{"linha":"300","descricao_ponto":"Estrada Intend Magalhaes próximo ao 262","sequencia":"83","latitude":"-22.8766","longitude":"-43.3716","pontos_turisticos":[{"nome":"Museu Aeroespacial","distancia":1936},{"nome":"Teatro Armando Gonzaga","distancia":1207}]},{"linha":"300","descricao_ponto":"Avenida Brasil próximo ao 12300","sequencia":"33","latitude":"-22.8219","longitude":"-43.2806","pontos_turisticos":[]},{"linha":"300","descricao_ponto":"Avenida Brasil próximo ao 13768","sequencia":"36","latitude":"-22.8144","longitude":"-43.2933","pontos_turisticos":[]},{"linha":"300","descricao_ponto":"Avenida Brasil próximo ao 22300","sequencia":"54","latitude":"-22.8378","longitude":"-43.3657","pontos_turisticos":[]},{"linha":"300","descricao_ponto":"Estrada Japore próximo ao 398","sequencia":"77","latitude":"-22.8794","longitude":"-43.3745","pontos_turisticos":[{"nome":"Museu Aeroespacial","distancia":1530},{"nome":"Teatro Armando Gonzaga","distancia":1513}]},{"linha":"300","descricao_ponto":"Praca General Aranha próximo ao 264","sequencia":"13","latitude":"-22.876","longitude":"-43.3726","pontos_turisticos":[{"nome":"Museu Aeroespacial","distancia":1882},{"nome":"Teatro Armando Gonzaga","distancia":1131}]},{"linha":"300","descricao_ponto":"Avenida Brasil próximo ao 20971","sequencia":"32","latitude":"-22.8368","longitude":"-43.3637","pontos_turisticos":[]},{"linha":"300","descricao_ponto":"Avenida Brasil próximo ao 21315","sequencia":"31","latitude":"-22.8396","longitude":"-43.368","pontos_turisticos":[]},{"linha":"300","descricao_ponto":"BRS 4, 5 - PRAÇA ONZE","sequencia":"81","latitude":"-22.9086","longitude":"-43.2013","pontos_turisticos":[{"nome":"Campo de Santana","distancia":1345},{"nome":"Cidade do Samba","distancia":1645},{"nome":"Memorial dos Pretos Novos","distancia":1634},{"nome":"Real Gabinete Português de Leitura","distancia":1990},{"nome":"Sambódromo","distancia":557},{"nome":"Teatro Carlos Gomes","distancia":1930},{"nome":"Teatro João Caetano","distancia":1963}]},{"linha":"300","descricao_ponto":"Avenida Brasil próximo ao 4036","sequencia":"19","latitude":"-22.8777","longitude":"-43.2409","pontos_turisticos":[]},{"linha":"300","descricao_ponto":"Avenida Brasil próximo ao 5493","sequencia":"21","latitude":"-22.8648","longitude":"-43.2477","pontos_turisticos":[]},{"linha":"300","descricao_ponto":"Avenida Brasil próximo ao 10590","sequencia":"31","latitude":"-22.8321","longitude":"-43.2665","pontos_turisticos":[{"nome":"Igreja Nossa Senhora da Penha","distancia":1886},{"nome":"Praia de Ramos","distancia":1808}]},{"linha":"300","descricao_ponto":"Avenida Francisco Bicalho próximo ao 234","sequencia":"83","latitude":"-22.9034","longitude":"-43.2104","pontos_turisticos":[{"nome":"Centro Luiz Gonzaga de Tradições Nordestinas","distancia":1173},{"nome":"Cidade do Samba","distancia":1702},{"nome":"Jardim Zoológico (Riozoo)","distancia":1890},{"nome":"Memorial dos Pretos Novos","distancia":1964},{"nome":"Quinta da Boa Vista/Museu Nacional","distancia":1501},{"nome":"Sambódromo","distancia":1654},{"nome":"Teatro Mário Lago","distancia":1170}]},{"linha":"300","descricao_ponto":"Estrada Japore próximo ao 262","sequencia":"84","latitude":"-22.8774","longitude":"-43.3731","pontos_turisticos":[{"nome":"Museu Aeroespacial","distancia":1759},{"nome":"Teatro Armando Gonzaga","distancia":1285}]},{"linha":"300","descricao_ponto":"Avenida Brasil próximo ao 13000","sequencia":"34","latitude":"-22.8198","longitude":"-43.2832","pontos_turisticos":[]},{"linha":"300","descricao_ponto":"Avenida Brasil próximo ao 17810","sequencia":"44","latitude":"-22.8222","longitude":"-43.3267","pontos_turisticos":[]},{"linha":"300","descricao_ponto":"Avenida Brasil próximo ao 20204","sequencia":"50","latitude":"-22.8309","longitude":"-43.3508","pontos_turisticos":[]},{"linha":"300","descricao_ponto":"Estrada Japore próximo ao 1694","sequencia":"81","latitude":"-22.8876","longitude":"-43.386","pontos_turisticos":[{"nome":"Museu Aeroespacial","distancia":355}]},{"linha":"300","descricao_ponto":"Avenida Brasil próximo ao 19001","sequencia":"38","latitude":"-22.8281","longitude":"-43.3429","pontos_turisticos":[]},{"linha":"300","descricao_ponto":"BRS 5,I - CENTRAL","sequencia":"46","latitude":"-22.9061","longitude":"-43.1941","pontos_turisticos":[{"nome":"Arcos da Lapa","distancia":1637},{"nome":"Biblioteca Nacional","distancia":1929},{"nome":"Campo de Santana","distancia":594},{"nome":"Casa França Brasil","distancia":1961},{"nome":"Catedral Metropolitana","distancia":1469},{"nome":"Centro Cultural Banco do Brasil","distancia":1902},{"nome":"Centro Cultural dos Correios","distancia":1945},{"nome":"Cidade do Samba","distancia":1342},{"nome":"Confeitaria Colombo","distancia":1570},{"nome":"Igreja de São Francisco da Penitência","distancia":1523},{"nome":"Igreja e Convento de Santa Teresa","distancia":1768},{"nome":"Igreja Nossa Senhora da Candelária","distancia":1788},{"nome":"Igreja Nossa Senhora do Carmo da Antiga Sé","distancia":1955},{"nome":"Memorial dos Pretos Novos","distancia":1121},{"nome":"Mosteiro de São Bento","distancia":1960},{"nome":"Museu de Arte do Rio","distancia":1680},{"nome":"Museu da Chácara do Céu","distancia":1614},{"nome":"Museu do Clube Naval","distancia":1806},{"nome":"Museu Nacional de Belas Artes","distancia":1870},{"nome":"Parque das Ruínas","distancia":1745},{"nome":"Real Gabinete Português de Leitura","distancia":1224},{"nome":"Sala Cecília Meireles","distancia":1866},{"nome":"Sambódromo","distancia":660},{"nome":"Teatro Carlos Gomes","distancia":1193},{"nome":"Teatro Dulcina","distancia":1819},{"nome":"Teatro Glauce Rocha","distancia":1784},{"nome":"Teatro João Caetano","distancia":1210},{"nome":"Teatro Municipal","distancia":1851},{"nome":"Teatro Rival Petrobras","distancia":1913}]},{"linha":"300","descricao_ponto":"BRS 2 - OUVIDOR","sequencia":"49","latitude":"-22.9035","longitude":"-43.1783","pontos_turisticos":[{"nome":"Academia Brasileira de Letras","distancia":985},{"nome":"Arcos da Lapa","distancia":1055},{"nome":"Biblioteca Nacional","distancia":747},{"nome":"Campo de Santana","distancia":1086},{"nome":"Casa França Brasil","distancia":419},{"nome":"Catedral Metropolitana","distancia":858},{"nome":"Centro Cultural Banco do Brasil","distancia":370},{"nome":"Centro Cultural dos Correios","distancia":352},{"nome":"Confeitaria Colombo","distancia":201},{"nome":"Espaço Cultural da Marinha","distancia":477},{"nome":"Igreja de São Francisco da Penitência","distancia":391},{"nome":"Igreja e Convento de Santa Teresa","distancia":1367},{"nome":"Igreja Nossa Senhora da Candelária","distancia":315},{"nome":"Igreja Nossa Senhora do Carmo da Antiga Sé","distancia":312},{"nome":"Ilha Fiscal","distancia":1446},{"nome":"Memorial dos Pretos Novos","distancia":1714},{"nome":"Monumento aos Pracinhas","distancia":1509},{"nome":"Mosteiro de São Bento","distancia":752},{"nome":"Museu de Arte do Rio","distancia":887},{"nome":"Museu da Chácara do Céu","distancia":1651},{"nome":"Museu de Arte Moderna","distancia":1260},{"nome":"Museu do Clube Naval","distancia":548},{"nome":"Museu Histórico Nacional","distancia":935},{"nome":"Museu Nacional de Belas Artes","distancia":641},{"nome":"Paço Imperial","distancia":413},{"nome":"Palácio Tiradentes","distancia":423},{"nome":"Parque das Ruínas","distancia":1620},{"nome":"Praça Paris","distancia":1547},{"nome":"Real Gabinete Português de Leitura","distancia":453},{"nome":"Sala Cecília Meireles","distancia":1206},{"nome":"Teatro Carlos Gomes","distancia":598},{"nome":"Teatro Dulcina","distancia":811},{"nome":"Teatro Glauce Rocha","distancia":449},{"nome":"Teatro João Caetano","distancia":520},{"nome":"Teatro Municipal","distancia":684},{"nome":"Teatro Rival Petrobras","distancia":881}]},{"linha":"300","descricao_ponto":"Avenida Brasil próximo ao 16741","sequencia":"43","latitude":"-22.8224","longitude":"-43.3262","pontos_turisticos":[]},{"linha":"300","descricao_ponto":"Avenida Brasil próximo ao 11875","sequencia":"50","latitude":"-22.8197","longitude":"-43.2841","pontos_turisticos":[]},{"linha":"300","descricao_ponto":"Avenida Brasil próximo ao 6993","sequencia":"61","latitude":"-22.8499","longitude":"-43.2477","pontos_turisticos":[{"nome":"Praia de Ramos","distancia":1274}]},{"linha":"300","descricao_ponto":"Avenida Brasil próximo ao 13724","sequencia":"36","latitude":"-22.8153","longitude":"-43.29","pontos_turisticos":[]},{"linha":"300","descricao_ponto":"Rua Joao Vicente próximo ao 1175","sequencia":"28","latitude":"-22.8585","longitude":"-43.3785","pontos_turisticos":[{"nome":"Teatro Armando Gonzaga","distancia":982}]},{"linha":"300","descricao_ponto":"Avenida Brasil próximo ao 5575","sequencia":"70","latitude":"-22.8647","longitude":"-43.2481","pontos_turisticos":[]},{"linha":"300","descricao_ponto":"Terminal Jamil Amiden (AV. Chile) - Ponto A4","sequencia":"91","latitude":"-22.9089","longitude":"-43.1795","pontos_turisticos":[{"nome":"Academia Brasileira de Letras","distancia":704},{"nome":"Arcos da Lapa","distancia":443},{"nome":"Biblioteca Nacional","distancia":402},{"nome":"Campo de Santana","distancia":938},{"nome":"Casa França Brasil","distancia":1012},{"nome":"Catedral Metropolitana","distancia":254},{"nome":"Centro Cultural Banco do Brasil","distancia":972},{"nome":"Centro Cultural dos Correios","distancia":925},{"nome":"Confeitaria Colombo","distancia":412},{"nome":"Espaço Cultural da Marinha","distancia":1012},{"nome":"Igreja de São Francisco da Penitência","distancia":223},{"nome":"Igreja e Convento de Santa Teresa","distancia":756},{"nome":"Igreja Nossa Senhora da Candelária","distancia":928},{"nome":"Igreja Nossa Senhora da Glória do Outeiro","distancia":1446},{"nome":"Igreja Nossa Senhora do Carmo da Antiga Sé","distancia":764},{"nome":"Ilha Fiscal","distancia":1910},{"nome":"Memorial dos Pretos Novos","distancia":1984},{"nome":"Monumento aos Pracinhas","distancia":1012},{"nome":"Mosteiro de São Bento","distancia":1361},{"nome":"Museu de Arte do Rio","distancia":1433},{"nome":"Museu da Chácara do Céu","distancia":1052},{"nome":"Museu da República","distancia":1912},{"nome":"Museu de Arte Moderna","distancia":845},{"nome":"Museu de Folclore Edison Carneiro","distancia":1934},{"nome":"Museu do Clube Naval","distancia":306},{"nome":"Museu Histórico Nacional","distancia":1095},{"nome":"Museu Nacional de Belas Artes","distancia":349},{"nome":"Paço Imperial","distancia":801},{"nome":"Palácio Tiradentes","distancia":759},{"nome":"Parque das Ruínas","distancia":1010},{"nome":"Praça Paris","distancia":999},{"nome":"Real Gabinete Português de Leitura","distancia":470},{"nome":"Sala Cecília Meireles","distancia":620},{"nome":"Sambódromo","distancia":1799},{"nome":"Teatro Carlos Gomes","distancia":361},{"nome":"Teatro Dulcina","distancia":320},{"nome":"Teatro Glauce Rocha","distancia":337},{"nome":"Teatro Glória","distancia":1713},{"nome":"Teatro João Caetano","distancia":399},{"nome":"Teatro Municipal","distancia":323},{"nome":"Teatro Rival Petrobras","distancia":418}]},{"linha":"300","descricao_ponto":"Avenida Brasil próximo ao 2000","sequencia":"12","latitude":"-22.887","longitude":"-43.224","pontos_turisticos":[{"nome":"Centro Luiz Gonzaga de Tradições Nordestinas","distancia":1191},{"nome":"Jardim Zoológico (Riozoo)","distancia":1996},{"nome":"Teatro Mário Lago","distancia":1392}]},{"linha":"300","descricao_ponto":"Avenida Brasil próximo ao 4036","sequencia":"17","latitude":"-22.8813","longitude":"-43.2384","pontos_turisticos":[]},{"linha":"300","descricao_ponto":"Avenida Brasil próximo ao 10500","sequencia":"28","latitude":"-22.8368","longitude":"-43.2578","pontos_turisticos":[{"nome":"Praia de Ramos","distancia":789}]},{"linha":"300","descricao_ponto":"Avenida Brasil próximo ao 18200","sequencia":"45","latitude":"-22.8238","longitude":"-43.3317","pontos_turisticos":[]},{"linha":"300","descricao_ponto":"Avenida Brasil próximo ao 2482","sequencia":"15","latitude":"-22.8854","longitude":"-43.2289","pontos_turisticos":[{"nome":"Centro Luiz Gonzaga de Tradições Nordestinas","distancia":1603},{"nome":"Teatro Mário Lago","distancia":1739}]},{"linha":"300","descricao_ponto":"Avenida Brasil próximo ao 7022","sequencia":"24","latitude":"-22.8536","longitude":"-43.2474","pontos_turisticos":[{"nome":"Praia de Ramos","distancia":1683}]},{"linha":"300","descricao_ponto":"Avenida Brasil próximo ao 11288","sequencia":"32","latitude":"-22.83","longitude":"-43.2702","pontos_turisticos":[{"nome":"Igreja Nossa Senhora da Penha","distancia":1889}]},{"linha":"300","descricao_ponto":"Avenida Brasil próximo ao","sequencia":"42","latitude":"-22.8196","longitude":"-43.3145","pontos_turisticos":[]},{"linha":"300","descricao_ponto":"Avenida Brasil próximo ao 19850","sequencia":"50","latitude":"-22.8295","longitude":"-43.3471","pontos_turisticos":[]},{"linha":"300","descricao_ponto":"Avenida Brasil próximo ao 23390","sequencia":"60","latitude":"-22.8444","longitude":"-43.3766","pontos_turisticos":[]},{"linha":"300","descricao_ponto":"Avenida Francisco Bicalho próximo ao 10 (Pista Lateral)","sequencia":"10","latitude":"-22.9072","longitude":"-43.2094","pontos_turisticos":[{"nome":"Centro Luiz Gonzaga de Tradições Nordestinas","distancia":1540},{"nome":"Cidade do Samba","distancia":1912},{"nome":"Quinta da Boa Vista/Museu Nacional","distancia":1598},{"nome":"Sambódromo","distancia":1371},{"nome":"Teatro Mário Lago","distancia":1474}]},{"linha":"300","descricao_ponto":"Avenida Brasil próximo ao 22300","sequencia":"17","latitude":"-22.8378","longitude":"-43.3657","pontos_turisticos":[]},{"linha":"300","descricao_ponto":"Avenida Brasil próximo ao 5493","sequencia":"22","latitude":"-22.8648","longitude":"-43.2477","pontos_turisticos":[]},{"linha":"300","descricao_ponto":"Avenida Brasil próximo ao 5900","sequencia":"23","latitude":"-22.861","longitude":"-43.2476","pontos_turisticos":[]},{"linha":"300","descricao_ponto":"Avenida Brasil próximo ao 10500","sequencia":"30","latitude":"-22.8368","longitude":"-43.2578","pontos_turisticos":[{"nome":"Praia de Ramos","distancia":789}]},{"linha":"300","descricao_ponto":"Avenida Brasil próximo ao 18476","sequencia":"49","latitude":"-22.8253","longitude":"-43.3362","pontos_turisticos":[]},{"linha":"300","descricao_ponto":"Avenida Sao Sebastiao próximo ao 1649","sequencia":"68","latitude":"-22.8593","longitude":"-43.3848","pontos_turisticos":[{"nome":"Teatro Armando Gonzaga","distancia":1395}]},{"linha":"300","descricao_ponto":"Avenida Brasil próximo ao 18508","sequencia":"46","latitude":"-22.8247","longitude":"-43.3342","pontos_turisticos":[]},{"linha":"300","descricao_ponto":"Avenida Brasil próximo ao 23390","sequencia":"59","latitude":"-22.8444","longitude":"-43.3766","pontos_turisticos":[]},{"linha":"300","descricao_ponto":"Avenida Brasil próximo ao 23800","sequencia":"60","latitude":"-22.8457","longitude":"-43.3788","pontos_turisticos":[]},{"linha":"300","descricao_ponto":"Avenida Brasil próximo ao","sequencia":"38","latitude":"-22.8294","longitude":"-43.3465","pontos_turisticos":[]},{"linha":"300","descricao_ponto":"Avenida Francisco Bicalho próximo ao","sequencia":"78","latitude":"-22.9062","longitude":"-43.2102","pontos_turisticos":[{"nome":"Centro Luiz Gonzaga de Tradições Nordestinas","distancia":1403},{"nome":"Cidade do Samba","distancia":1888},{"nome":"Jardim Zoológico (Riozoo)","distancia":1918},{"nome":"Quinta da Boa Vista/Museu Nacional","distancia":1506},{"nome":"Sambódromo","distancia":1489},{"nome":"Teatro Mário Lago","distancia":1342}]},{"linha":"300","descricao_ponto":"Avenida Brasil próximo ao 20204","sequencia":"51","latitude":"-22.8309","longitude":"-43.3508","pontos_turisticos":[]},{"linha":"300","descricao_ponto":"Avenida Brasil próximo ao 19001","sequencia":"43","latitude":"-22.8281","longitude":"-43.3429","pontos_turisticos":[]},{"linha":"300","descricao_ponto":"Avenida Brasil próximo ao 6691","sequencia":"65","latitude":"-22.8472","longitude":"-43.2478","pontos_turisticos":[{"nome":"Praia de Ramos","distancia":980}]},{"linha":"300","descricao_ponto":"Avenida Brasil próximo ao 6288","sequencia":"24","latitude":"-22.8566","longitude":"-43.2475","pontos_turisticos":[]},{"linha":"300","descricao_ponto":"Avenida Duque De Caxias próximo ao 304","sequencia":"67","latitude":"-22.857","longitude":"-43.3868","pontos_turisticos":[{"nome":"Teatro Armando Gonzaga","distancia":1707}]},{"linha":"300","descricao_ponto":"Avenida Brasil próximo ao 6892","sequencia":"24","latitude":"-22.8519","longitude":"-43.2474","pontos_turisticos":[{"nome":"Praia de Ramos","distancia":1498}]},{"linha":"300","descricao_ponto":"Avenida Brasil próximo ao 17091","sequencia":"42","latitude":"-22.8232","longitude":"-43.3285","pontos_turisticos":[]},{"linha":"300","descricao_ponto":"Avenida Brasil próximo ao 4500","sequencia":"66","latitude":"-22.8704","longitude":"-43.2469","pontos_turisticos":[]},{"linha":"300","descricao_ponto":"Avenida Brasil próximo ao 18508","sequencia":"47","latitude":"-22.8247","longitude":"-43.3342","pontos_turisticos":[]},{"linha":"300","descricao_ponto":"Avenida Sao Sebastiao próximo ao 1807","sequencia":"27","latitude":"-22.859","longitude":"-43.3817","pontos_turisticos":[{"nome":"Teatro Armando Gonzaga","distancia":1158}]},{"linha":"300","descricao_ponto":"Avenida Jambeiro próximo ao 31","sequencia":"11","latitude":"-22.8784","longitude":"-43.3697","pontos_turisticos":[{"nome":"Teatro Armando Gonzaga","distancia":1441}]},{"linha":"300","descricao_ponto":"Avenida Brasil próximo ao 3367","sequencia":"30","latitude":"-22.8472","longitude":"-43.3804","pontos_turisticos":[]},{"linha":"300","descricao_ponto":"Avenida Brasil próximo ao 3141","sequencia":"73","latitude":"-22.875","longitude":"-43.2435","pontos_turisticos":[]},{"linha":"300","descricao_ponto":"Avenida Brasil próximo ao 14804","sequencia":"41","latitude":"-22.8177","longitude":"-43.3079","pontos_turisticos":[]},{"linha":"300","descricao_ponto":"Avenida Brasil próximo ao 18508","sequencia":"48","latitude":"-22.8247","longitude":"-43.3342","pontos_turisticos":[]},{"linha":"300","descricao_ponto":"Estrada Japore próximo ao 525","sequencia":"86","latitude":"-22.882","longitude":"-43.3756","pontos_turisticos":[{"nome":"Museu Aeroespacial","distancia":1326},{"nome":"Teatro Armando Gonzaga","distancia":1813}]},{"linha":"300","descricao_ponto":"Estrada Japore próximo ao 1694","sequencia":"89","latitude":"-22.8876","longitude":"-43.386","pontos_turisticos":[{"nome":"Museu Aeroespacial","distancia":355}]},{"linha":"300","descricao_ponto":"Avenida Brasil próximo ao 19850","sequencia":"49","latitude":"-22.8295","longitude":"-43.3471","pontos_turisticos":[]},{"linha":"300","descricao_ponto":"Estrada Japore próximo ao 508","sequencia":"79","latitude":"-22.8842","longitude":"-43.3758","pontos_turisticos":[{"nome":"Museu Aeroespacial","distancia":1265}]},{"linha":"300","descricao_ponto":"Avenida Brasil próximo ao 17241","sequencia":"41","latitude":"-22.8245","longitude":"-43.3325","pontos_turisticos":[]},{"linha":"300","descricao_ponto":"Avenida Brasil próximo ao 5575","sequencia":"65","latitude":"-22.8647","longitude":"-43.2481","pontos_turisticos":[]},{"linha":"300","descricao_ponto":"Avenida Brasil próximo ao 13000","sequencia":"35","latitude":"-22.8198","longitude":"-43.2832","pontos_turisticos":[]},{"linha":"300","descricao_ponto":"Avenida Brasil próximo ao S/n","sequencia":"53","latitude":"-22.8354","longitude":"-43.3618","pontos_turisticos":[]},{"linha":"300","descricao_ponto":"Avenida Brasil próximo ao S/n","sequencia":"16","latitude":"-22.8367","longitude":"-43.3639","pontos_turisticos":[]},{"linha":"300","descricao_ponto":"Avenida Brasil próximo ao S/n","sequencia":"18","latitude":"-22.8394","longitude":"-43.3682","pontos_turisticos":[]},{"linha":"300","descricao_ponto":"Avenida Brasil próximo ao 22935","sequencia":"32","latitude":"-22.8448","longitude":"-43.3765","pontos_turisticos":[]},{"linha":"300","descricao_ponto":"Avenida Brasil próximo ao 21315","sequencia":"35","latitude":"-22.8396","longitude":"-43.368","pontos_turisticos":[]},{"linha":"300","descricao_ponto":"Avenida Brasil próximo ao 3666","sequencia":"17","latitude":"-22.886","longitude":"-43.2341","pontos_turisticos":[{"nome":"Centro Luiz Gonzaga de Tradições Nordestinas","distancia":1931},{"nome":"Teatro Mário Lago","distancia":1997}]},{"linha":"300","descricao_ponto":"Estrada Intend Magalhaes próximo ao 948","sequencia":"80","latitude":"-22.8774","longitude":"-43.3646","pontos_turisticos":[{"nome":"Teatro Armando Gonzaga","distancia":1557}]},{"linha":"300","descricao_ponto":"Avenida Sao Sebastiao próximo ao 1807","sequencia":"67","latitude":"-22.859","longitude":"-43.3817","pontos_turisticos":[{"nome":"Teatro Armando Gonzaga","distancia":1158}]},{"linha":"300","descricao_ponto":"Avenida Brasil próximo ao 20971","sequencia":"32","latitude":"-22.837","longitude":"-43.3636","pontos_turisticos":[]},{"linha":"300","descricao_ponto":"Avenida Brasil próximo ao 11211","sequencia":"52","latitude":"-22.8223","longitude":"-43.2807","pontos_turisticos":[]},{"linha":"300","descricao_ponto":"Avenida Brasil próximo ao","sequencia":"17","latitude":"-22.8839","longitude":"-43.2361","pontos_turisticos":[]},{"linha":"300","descricao_ponto":"Avenida Alberico Diniz próximo ao 196","sequencia":"43","latitude":"-22.8857","longitude":"-43.3974","pontos_turisticos":[{"nome":"Museu Aeroespacial","distancia":954}]},{"linha":"300","descricao_ponto":"Avenida Brasil próximo ao 414","sequencia":"74","latitude":"-22.8859","longitude":"-43.2349","pontos_turisticos":[]},{"linha":"300","descricao_ponto":"Avenida Brasil próximo ao 8382","sequencia":"27","latitude":"-22.8467","longitude":"-43.2475","pontos_turisticos":[{"nome":"Praia de Ramos","distancia":936}]},{"linha":"300","descricao_ponto":"Avenida Brasil próximo ao S/n","sequencia":"54","latitude":"-22.8354","longitude":"-43.3618","pontos_turisticos":[]},{"linha":"300","descricao_ponto":"Avenida Brasil próximo ao 10590","sequencia":"30","latitude":"-22.8321","longitude":"-43.2665","pontos_turisticos":[{"nome":"Igreja Nossa Senhora da Penha","distancia":1886},{"nome":"Praia de Ramos","distancia":1808}]},{"linha":"300","descricao_ponto":"Avenida Brasil próximo ao 532","sequencia":"37","latitude":"-22.8142","longitude":"-43.2963","pontos_turisticos":[]},{"linha":"300","descricao_ponto":"Avenida Brasil próximo ao 16000","sequencia":"40","latitude":"-22.8192","longitude":"-43.3106","pontos_turisticos":[]},{"linha":"300","descricao_ponto":"Rua Xavier Curado próximo ao 732","sequencia":"14","latitude":"-22.8744","longitude":"-43.3735","pontos_turisticos":[{"nome":"Museu Aeroespacial","distancia":1910},{"nome":"Teatro Armando Gonzaga","distancia":952}]},{"linha":"300","descricao_ponto":"Avenida Brasil próximo ao 500","sequencia":"40","latitude":"-22.8946","longitude":"-43.2151","pontos_turisticos":[{"nome":"Centro Luiz Gonzaga de Tradições Nordestinas","distancia":499},{"nome":"Cidade do Samba","distancia":1853},{"nome":"Jardim Zoológico (Riozoo)","distancia":1778},{"nome":"Quinta da Boa Vista/Museu Nacional","distancia":1568},{"nome":"Teatro Mário Lago","distancia":779}]},{"linha":"300","descricao_ponto":"BRS 4, 5 - PRAÇA ONZE","sequencia":"45","latitude":"-22.9086","longitude":"-43.2013","pontos_turisticos":[{"nome":"Campo de Santana","distancia":1345},{"nome":"Cidade do Samba","distancia":1645},{"nome":"Memorial dos Pretos Novos","distancia":1634},{"nome":"Real Gabinete Português de Leitura","distancia":1990},{"nome":"Sambódromo","distancia":557},{"nome":"Teatro Carlos Gomes","distancia":1930},{"nome":"Teatro João Caetano","distancia":1963}]},{"linha":"300","descricao_ponto":"Avenida Brasil próximo ao 5900","sequencia":"22","latitude":"-22.861","longitude":"-43.2476","pontos_turisticos":[]},{"linha":"300","descricao_ponto":"Avenida Brasil próximo ao","sequencia":"49","latitude":"-22.8264","longitude":"-43.339","pontos_turisticos":[]},{"linha":"300","descricao_ponto":"Estrada Japore próximo ao 508","sequencia":"80","latitude":"-22.8842","longitude":"-43.3758","pontos_turisticos":[{"nome":"Museu Aeroespacial","distancia":1265}]},{"linha":"300","descricao_ponto":"BRS 3A, 5 - PRAÇA ONZE","sequencia":"8","latitude":"-22.9076","longitude":"-43.1997","pontos_turisticos":[{"nome":"Campo de Santana","distancia":1169},{"nome":"Catedral Metropolitana","distancia":1977},{"nome":"Cidade do Samba","distancia":1500},{"nome":"Memorial dos Pretos Novos","distancia":1456},{"nome":"Museu da Chácara do Céu","distancia":1928},{"nome":"Real Gabinete Português de Leitura","distancia":1811},{"nome":"Sambódromo","distancia":521},{"nome":"Teatro Carlos Gomes","distancia":1760},{"nome":"Teatro João Caetano","distancia":1788}]},{"linha":"300","descricao_ponto":"Avenida Brasil próximo ao 20204","sequencia":"13","latitude":"-22.8309","longitude":"-43.3508","pontos_turisticos":[]},{"linha":"300","descricao_ponto":"Avenida Brasil próximo ao 11211","sequencia":"57","latitude":"-22.8223","longitude":"-43.2807","pontos_turisticos":[]},{"linha":"300","descricao_ponto":"Avenida Brasil próximo ao 23109","sequencia":"60","latitude":"-22.8439","longitude":"-43.3759","pontos_turisticos":[]},{"linha":"300","descricao_ponto":"Avenida Brasil próximo ao 6288","sequencia":"22","latitude":"-22.8566","longitude":"-43.2475","pontos_turisticos":[]},{"linha":"300","descricao_ponto":"Estrada Japore próximo ao 973","sequencia":"6","latitude":"-22.8879","longitude":"-43.3852","pontos_turisticos":[{"nome":"Museu Aeroespacial","distancia":434}]},{"linha":"300","descricao_ponto":"Avenida Brasil próximo ao 4036","sequencia":"18","latitude":"-22.8813","longitude":"-43.2384","pontos_turisticos":[]},{"linha":"300","descricao_ponto":"Avenida Brasil próximo ao 9020","sequencia":"28","latitude":"-22.8399","longitude":"-43.2535","pontos_turisticos":[{"nome":"Praia de Ramos","distancia":345}]},{"linha":"300","descricao_ponto":"Avenida Brasil próximo ao 12235","sequencia":"51","latitude":"-22.8179","longitude":"-43.3075","pontos_turisticos":[]},{"linha":"300","descricao_ponto":"Avenida Brasil próximo ao 11875","sequencia":"55","latitude":"-22.8197","longitude":"-43.2841","pontos_turisticos":[]},{"linha":"300","descricao_ponto":"Avenida Brasil próximo ao 6993","sequencia":"66","latitude":"-22.8499","longitude":"-43.2477","pontos_turisticos":[{"nome":"Praia de Ramos","distancia":1274}]},{"linha":"300","descricao_ponto":"Avenida Brasil próximo ao","sequencia":"48","latitude":"-22.8264","longitude":"-43.339","pontos_turisticos":[]},{"linha":"300","descricao_ponto":"Avenida Duque De Caxias próximo ao 304","sequencia":"65","latitude":"-22.857","longitude":"-43.3868","pontos_turisticos":[{"nome":"Teatro Armando Gonzaga","distancia":1707}]},{"linha":"300","descricao_ponto":"Avenida Brasil próximo ao 532","sequencia":"38","latitude":"-22.8142","longitude":"-43.2963","pontos_turisticos":[]},{"linha":"300","descricao_ponto":"Avenida Brasil próximo ao 23109","sequencia":"59","latitude":"-22.8439","longitude":"-43.3759","pontos_turisticos":[]},{"linha":"300","descricao_ponto":"Avenida Brasil próximo ao 21484","sequencia":"14","latitude":"-22.8323","longitude":"-43.3546","pontos_turisticos":[]},{"linha":"300","descricao_ponto":"Avenida Brasil próximo ao S/n","sequencia":"15","latitude":"-22.8354","longitude":"-43.3618","pontos_turisticos":[]},{"linha":"300","descricao_ponto":"Rua Xavier Curado próximo ao 670","sequencia":"33","latitude":"-22.8711","longitude":"-43.3753","pontos_turisticos":[{"nome":"Teatro Armando Gonzaga","distancia":623}]},{"linha":"300","descricao_ponto":"Rua Joao Vicente próximo ao 50","sequencia":"71","latitude":"-22.8589","longitude":"-43.3759","pontos_turisticos":[{"nome":"Teatro Armando Gonzaga","distancia":821}]},{"linha":"300","descricao_ponto":"Avenida Brasil próximo ao 460","sequencia":"56","latitude":"-22.8415","longitude":"-43.3718","pontos_turisticos":[]},{"linha":"300","descricao_ponto":"Rua Joao Vicente próximo ao 50","sequencia":"69","latitude":"-22.8589","longitude":"-43.3759","pontos_turisticos":[{"nome":"Teatro Armando Gonzaga","distancia":821}]},{"linha":"300","descricao_ponto":"Avenida Brasil próximo ao 15555","sequencia":"44","latitude":"-22.8218","longitude":"-43.3241","pontos_turisticos":[]},{"linha":"300","descricao_ponto":"Avenida Brasil próximo ao","sequencia":"47","latitude":"-22.8147","longitude":"-43.2963","pontos_turisticos":[]},{"linha":"300","descricao_ponto":"Avenida Brasil próximo ao 17810","sequencia":"45","latitude":"-22.8222","longitude":"-43.3267","pontos_turisticos":[]},{"linha":"300","descricao_ponto":"Estrada Camboata próximo ao 91","sequencia":"63","latitude":"-22.8508","longitude":"-43.3842","pontos_turisticos":[]},{"linha":"300","descricao_ponto":"Avenida Jambeiro próximo ao 445","sequencia":"8","latitude":"-22.8849","longitude":"-43.374","pontos_turisticos":[{"nome":"Museu Aeroespacial","distancia":1446}]},{"linha":"300","descricao_ponto":"Rua Joao Vicente próximo ao 2209","sequencia":"25","latitude":"-22.8561","longitude":"-43.3857","pontos_turisticos":[{"nome":"Teatro Armando Gonzaga","distancia":1679}]},{"linha":"300","descricao_ponto":"Avenida Brasil próximo ao 9201","sequencia":"61","latitude":"-22.8354","longitude":"-43.2614","pontos_turisticos":[{"nome":"Praia de Ramos","distancia":1187}]},{"linha":"300","descricao_ponto":"Avenida Brasil próximo ao 2482","sequencia":"16","latitude":"-22.8854","longitude":"-43.2289","pontos_turisticos":[{"nome":"Centro Luiz Gonzaga de Tradições Nordestinas","distancia":1603},{"nome":"Teatro Mário Lago","distancia":1739}]},{"linha":"300","descricao_ponto":"Avenida Brasil próximo ao 1580","sequencia":"19","latitude":"-22.8751","longitude":"-43.2428","pontos_turisticos":[]},{"linha":"300","descricao_ponto":"Avenida Brasil próximo ao 13724","sequencia":"35","latitude":"-22.8153","longitude":"-43.29","pontos_turisticos":[]},{"linha":"300","descricao_ponto":"Rua Xavier Curado próximo ao 1160","sequencia":"72","latitude":"-22.8674","longitude":"-43.3776","pontos_turisticos":[{"nome":"Teatro Armando Gonzaga","distancia":484}]},{"linha":"300","descricao_ponto":"Viaduto De Deodoro próximo ao 76","sequencia":"22","latitude":"-22.8549","longitude":"-43.3837","pontos_turisticos":[{"nome":"Teatro Armando Gonzaga","distancia":1626}]},{"linha":"300","descricao_ponto":"Estrada Japore próximo ao 660","sequencia":"81","latitude":"-22.886","longitude":"-43.3801","pontos_turisticos":[{"nome":"Museu Aeroespacial","distancia":827}]},{"linha":"300","descricao_ponto":"Estrada Japore próximo ao 1694","sequencia":"82","latitude":"-22.8876","longitude":"-43.386","pontos_turisticos":[{"nome":"Museu Aeroespacial","distancia":355}]},{"linha":"300","descricao_ponto":"Estrada Camboata próximo ao S/n","sequencia":"23","latitude":"-22.8533","longitude":"-43.3848","pontos_turisticos":[{"nome":"Teatro Armando Gonzaga","distancia":1834}]},{"linha":"300","descricao_ponto":"Viaduto De Deodoro próximo ao 76","sequencia":"26","latitude":"-22.8549","longitude":"-43.3837","pontos_turisticos":[{"nome":"Teatro Armando Gonzaga","distancia":1626}]},{"linha":"300","descricao_ponto":"Avenida Brasil próximo ao 20001","sequencia":"40","latitude":"-22.8314","longitude":"-43.3512","pontos_turisticos":[]},{"linha":"300","descricao_ponto":"Avenida Brasil próximo ao","sequencia":"56","latitude":"-22.8207","longitude":"-43.2829","pontos_turisticos":[]},{"linha":"300","descricao_ponto":"Avenida Brasil próximo ao 2231","sequencia":"75","latitude":"-22.8872","longitude":"-43.2308","pontos_turisticos":[{"nome":"Centro Luiz Gonzaga de Tradições Nordestinas","distancia":1587},{"nome":"Jardim Zoológico (Riozoo)","distancia":1923},{"nome":"Teatro Mário Lago","distancia":1677}]},{"linha":"300","descricao_ponto":"Avenida Brasil próximo ao 532","sequencia":"39","latitude":"-22.8142","longitude":"-43.2963","pontos_turisticos":[]},{"linha":"300","descricao_ponto":"Avenida Alberico Diniz próximo ao 196","sequencia":"91","latitude":"-22.8857","longitude":"-43.3974","pontos_turisticos":[{"nome":"Museu Aeroespacial","distancia":954}]},{"linha":"300","descricao_ponto":"Avenida Alberico Diniz próximo ao 1797","sequencia":"92","latitude":"-22.8861","longitude":"-43.3965","pontos_turisticos":[{"nome":"Museu Aeroespacial","distancia":867}]},{"linha":"300","descricao_ponto":"Avenida Brasil próximo ao 21484","sequencia":"51","latitude":"-22.8323","longitude":"-43.3546","pontos_turisticos":[]},{"linha":"300","descricao_ponto":"Rua Joao Vicente próximo ao 2150","sequencia":"19","latitude":"-22.859","longitude":"-43.3752","pontos_turisticos":[{"nome":"Teatro Armando Gonzaga","distancia":789}]},{"linha":"300","descricao_ponto":"Avenida Brasil próximo ao 23090","sequencia":"58","latitude":"-22.8425","longitude":"-43.3736","pontos_turisticos":[]},{"linha":"300","descricao_ponto":"Rua Xavier Curado próximo ao 1160","sequencia":"73","latitude":"-22.8674","longitude":"-43.3776","pontos_turisticos":[{"nome":"Teatro Armando Gonzaga","distancia":484}]},{"linha":"300","descricao_ponto":"Estrada Camboata próximo ao 91","sequencia":"22","latitude":"-22.8508","longitude":"-43.3842","pontos_turisticos":[]},{"linha":"300","descricao_ponto":"Rua Xavier Curado próximo ao 1160","sequencia":"32","latitude":"-22.8674","longitude":"-43.3776","pontos_turisticos":[{"nome":"Teatro Armando Gonzaga","distancia":484}]},{"linha":"300","descricao_ponto":"Estrada Japore próximo ao 1694","sequencia":"41","latitude":"-22.8876","longitude":"-43.386","pontos_turisticos":[{"nome":"Museu Aeroespacial","distancia":355}]},{"linha":"300","descricao_ponto":"Estrada Intend Magalhaes próximo ao 106","sequencia":"13","latitude":"-22.8775","longitude":"-43.3645","pontos_turisticos":[{"nome":"Teatro Armando Gonzaga","distancia":1572}]},{"linha":"300","descricao_ponto":"Rua Das Cravinas próximo ao 27","sequencia":"14","latitude":"-22.8782","longitude":"-43.3631","pontos_turisticos":[{"nome":"Teatro Armando Gonzaga","distancia":1719}]},{"linha":"300","descricao_ponto":"Avenida Brasil próximo ao 23800","sequencia":"62","latitude":"-22.8457","longitude":"-43.3788","pontos_turisticos":[]},{"linha":"300","descricao_ponto":"Estrada Camboata próximo ao S/n","sequencia":"63","latitude":"-22.8533","longitude":"-43.3848","pontos_turisticos":[{"nome":"Teatro Armando Gonzaga","distancia":1834}]},{"linha":"300","descricao_ponto":"Estrada Japore próximo ao 525","sequencia":"78","latitude":"-22.882","longitude":"-43.3756","pontos_turisticos":[{"nome":"Museu Aeroespacial","distancia":1326},{"nome":"Teatro Armando Gonzaga","distancia":1813}]},{"linha":"300","descricao_ponto":"Avenida Alberico Diniz próximo ao 196","sequencia":"83","latitude":"-22.8857","longitude":"-43.3974","pontos_turisticos":[{"nome":"Museu Aeroespacial","distancia":954}]},{"linha":"300","descricao_ponto":"Rua Xavier Curado próximo ao 285","sequencia":"15","latitude":"-22.8708","longitude":"-43.3754","pontos_turisticos":[{"nome":"Teatro Armando Gonzaga","distancia":596}]},{"linha":"300","descricao_ponto":"Alca Avenida Brasil próximo ao 99","sequencia":"25","latitude":"-22.8489","longitude":"-43.3831","pontos_turisticos":[]},{"linha":"300","descricao_ponto":"Avenida Brasil próximo ao 22253","sequencia":"29","latitude":"-22.843","longitude":"-43.3738","pontos_turisticos":[]},{"linha":"300","descricao_ponto":"Avenida Brasil próximo ao 6011","sequencia":"64","latitude":"-22.8606","longitude":"-43.2481","pontos_turisticos":[]},{"linha":"300","descricao_ponto":"Avenida Brasil próximo ao 3141","sequencia":"68","latitude":"-22.875","longitude":"-43.2435","pontos_turisticos":[]},{"linha":"300","descricao_ponto":"Avenida Brasil próximo ao 460","sequencia":"57","latitude":"-22.8415","longitude":"-43.3718","pontos_turisticos":[]},{"linha":"300","descricao_ponto":"Estrada Japore próximo ao 262","sequencia":"36","latitude":"-22.8774","longitude":"-43.3731","pontos_turisticos":[{"nome":"Museu Aeroespacial","distancia":1759},{"nome":"Teatro Armando Gonzaga","distancia":1285}]},{"linha":"300","descricao_ponto":"Avenida Jambeiro próximo ao 445","sequencia":"9","latitude":"-22.8818","longitude":"-43.371","pontos_turisticos":[{"nome":"Museu Aeroespacial","distancia":1790},{"nome":"Teatro Armando Gonzaga","distancia":1788}]},{"linha":"300","descricao_ponto":"Rua Xavier Curado próximo ao 285","sequencia":"19","latitude":"-22.8708","longitude":"-43.3754","pontos_turisticos":[{"nome":"Teatro Armando Gonzaga","distancia":596}]},{"linha":"300","descricao_ponto":"Avenida Brasil próximo ao 8883","sequencia":"62","latitude":"-22.837","longitude":"-43.2582","pontos_turisticos":[{"nome":"Praia de Ramos","distancia":823}]},{"linha":"300","descricao_ponto":"Avenida Brasil próximo ao","sequencia":"72","latitude":"-22.8716","longitude":"-43.2461","pontos_turisticos":[]},{"linha":"300","descricao_ponto":"Avenida Brasil próximo ao 2482","sequencia":"15","latitude":"-22.8847","longitude":"-43.2265","pontos_turisticos":[{"nome":"Centro Luiz Gonzaga de Tradições Nordestinas","distancia":1533},{"nome":"Teatro Mário Lago","distancia":1710}]},{"linha":"300","descricao_ponto":"Avenida Brasil próximo ao 12300","sequencia":"35","latitude":"-22.8219","longitude":"-43.2806","pontos_turisticos":[]},{"linha":"300","descricao_ponto":"Avenida Brasil próximo ao 19850","sequencia":"51","latitude":"-22.8295","longitude":"-43.3471","pontos_turisticos":[]},{"linha":"300","descricao_ponto":"Avenida Sao Sebastiao próximo ao 1649","sequencia":"66","latitude":"-22.8593","longitude":"-43.3848","pontos_turisticos":[{"nome":"Teatro Armando Gonzaga","distancia":1395}]},{"linha":"300","descricao_ponto":"Avenida Brasil próximo ao 7836","sequencia":"27","latitude":"-22.843","longitude":"-43.2506","pontos_turisticos":[{"nome":"Praia de Ramos","distancia":477}]},{"linha":"300","descricao_ponto":"Avenida Brasil próximo ao 10500","sequencia":"29","latitude":"-22.8368","longitude":"-43.2578","pontos_turisticos":[{"nome":"Praia de Ramos","distancia":789}]},{"linha":"300","descricao_ponto":"BRS 1, 3, 5 - CENTRAL","sequencia":"7","latitude":"-22.9055","longitude":"-43.193","pontos_turisticos":[{"nome":"Arcos da Lapa","distancia":1571},{"nome":"Biblioteca Nacional","distancia":1836},{"nome":"Campo de Santana","distancia":495},{"nome":"Casa França Brasil","distancia":1833},{"nome":"Catedral Metropolitana","distancia":1392},{"nome":"Centro Cultural Banco do Brasil","distancia":1774},{"nome":"Centro Cultural dos Correios","distancia":1819},{"nome":"Cidade do Samba","distancia":1308},{"nome":"Confeitaria Colombo","distancia":1454},{"nome":"Espaço Cultural da Marinha","distancia":1963},{"nome":"Igreja de São Francisco da Penitência","distancia":1416},{"nome":"Igreja e Convento de Santa Teresa","distancia":1722},{"nome":"Igreja Nossa Senhora da Candelária","distancia":1660},{"nome":"Igreja Nossa Senhora do Carmo da Antiga Sé","distancia":1834},{"nome":"Memorial dos Pretos Novos","distancia":1048},{"nome":"Mosteiro de São Bento","distancia":1829},{"nome":"Museu de Arte do Rio","distancia":1551},{"nome":"Museu da Chácara do Céu","distancia":1600},{"nome":"Museu do Clube Naval","distancia":1704},{"nome":"Museu Nacional de Belas Artes","distancia":1772},{"nome":"Paço Imperial","distancia":1931},{"nome":"Palácio Tiradentes","distancia":1929},{"nome":"Parque das Ruínas","distancia":1721},{"nome":"Real Gabinete Português de Leitura","distancia":1109},{"nome":"Sala Cecília Meireles","distancia":1804},{"nome":"Sambódromo","distancia":771},{"nome":"Teatro Carlos Gomes","distancia":1090},{"nome":"Teatro Dulcina","distancia":1732},{"nome":"Teatro Glauce Rocha","distancia":1678},{"nome":"Teatro João Caetano","distancia":1102},{"nome":"Teatro Municipal","distancia":1756},{"nome":"Teatro Rival Petrobras","distancia":1827}]},{"linha":"300","descricao_ponto":"Rua Xavier Curado próximo ao 121","sequencia":"34","latitude":"-22.8742","longitude":"-43.3736","pontos_turisticos":[{"nome":"Museu Aeroespacial","distancia":1916},{"nome":"Teatro Armando Gonzaga","distancia":930}]},{"linha":"300","descricao_ponto":"Avenida Brasil próximo ao 1580","sequencia":"21","latitude":"-22.8751","longitude":"-43.2428","pontos_turisticos":[]},{"linha":"300","descricao_ponto":"Avenida Brasil próximo ao 7836","sequencia":"28","latitude":"-22.843","longitude":"-43.2506","pontos_turisticos":[{"nome":"Praia de Ramos","distancia":477}]},{"linha":"300","descricao_ponto":"Avenida Brasil próximo ao 9020","sequencia":"29","latitude":"-22.8399","longitude":"-43.2535","pontos_turisticos":[{"nome":"Praia de Ramos","distancia":345}]},{"linha":"300","descricao_ponto":"Estrada Intend Magalhaes próximo ao 1041","sequencia":"81","latitude":"-22.877","longitude":"-43.3676","pontos_turisticos":[{"nome":"Teatro Armando Gonzaga","distancia":1366}]},{"linha":"300","descricao_ponto":"Terminal Jamil Amiden (AV. Chile) - Ponto A4","sequencia":"50","latitude":"-22.9089","longitude":"-43.1795","pontos_turisticos":[{"nome":"Academia Brasileira de Letras","distancia":704},{"nome":"Arcos da Lapa","distancia":443},{"nome":"Biblioteca Nacional","distancia":402},{"nome":"Campo de Santana","distancia":938},{"nome":"Casa França Brasil","distancia":1012},{"nome":"Catedral Metropolitana","distancia":254},{"nome":"Centro Cultural Banco do Brasil","distancia":972},{"nome":"Centro Cultural dos Correios","distancia":925},{"nome":"Confeitaria Colombo","distancia":412},{"nome":"Espaço Cultural da Marinha","distancia":1012},{"nome":"Igreja de São Francisco da Penitência","distancia":223},{"nome":"Igreja e Convento de Santa Teresa","distancia":756},{"nome":"Igreja Nossa Senhora da Candelária","distancia":928},{"nome":"Igreja Nossa Senhora da Glória do Outeiro","distancia":1446},{"nome":"Igreja Nossa Senhora do Carmo da Antiga Sé","distancia":764},{"nome":"Ilha Fiscal","distancia":1910},{"nome":"Memorial dos Pretos Novos","distancia":1984},{"nome":"Monumento aos Pracinhas","distancia":1012},{"nome":"Mosteiro de São Bento","distancia":1361},{"nome":"Museu de Arte do Rio","distancia":1433},{"nome":"Museu da Chácara do Céu","distancia":1052},{"nome":"Museu da República","distancia":1912},{"nome":"Museu de Arte Moderna","distancia":845},{"nome":"Museu de Folclore Edison Carneiro","distancia":1934},{"nome":"Museu do Clube Naval","distancia":306},{"nome":"Museu Histórico Nacional","distancia":1095},{"nome":"Museu Nacional de Belas Artes","distancia":349},{"nome":"Paço Imperial","distancia":801},{"nome":"Palácio Tiradentes","distancia":759},{"nome":"Parque das Ruínas","distancia":1010},{"nome":"Praça Paris","distancia":999},{"nome":"Real Gabinete Português de Leitura","distancia":470},{"nome":"Sala Cecília Meireles","distancia":620},{"nome":"Sambódromo","distancia":1799},{"nome":"Teatro Carlos Gomes","distancia":361},{"nome":"Teatro Dulcina","distancia":320},{"nome":"Teatro Glauce Rocha","distancia":337},{"nome":"Teatro Glória","distancia":1713},{"nome":"Teatro João Caetano","distancia":399},{"nome":"Teatro Municipal","distancia":323},{"nome":"Teatro Rival Petrobras","distancia":418}]},{"linha":"300","descricao_ponto":"Avenida Brasil próximo ao 22253","sequencia":"29","latitude":"-22.843","longitude":"-43.3736","pontos_turisticos":[]},{"linha":"300","descricao_ponto":"Avenida Brasil próximo ao 6691","sequencia":"60","latitude":"-22.8472","longitude":"-43.2478","pontos_turisticos":[{"nome":"Praia de Ramos","distancia":980}]},{"linha":"300","descricao_ponto":"Avenida Brasil próximo ao 2231","sequencia":"70","latitude":"-22.8872","longitude":"-43.2308","pontos_turisticos":[{"nome":"Centro Luiz Gonzaga de Tradições Nordestinas","distancia":1587},{"nome":"Jardim Zoológico (Riozoo)","distancia":1923},{"nome":"Teatro Mário Lago","distancia":1677}]},{"linha":"300","descricao_ponto":"Avenida Francisco Bicalho próximo ao 10 (Pista Lateral)","sequencia":"11","latitude":"-22.9072","longitude":"-43.2094","pontos_turisticos":[{"nome":"Centro Luiz Gonzaga de Tradições Nordestinas","distancia":1540},{"nome":"Cidade do Samba","distancia":1912},{"nome":"Quinta da Boa Vista/Museu Nacional","distancia":1598},{"nome":"Sambódromo","distancia":1371},{"nome":"Teatro Mário Lago","distancia":1474}]},{"linha":"300","descricao_ponto":"Avenida Francisco Bicalho, próximo a Unidos da Tijuca","sequencia":"12","latitude":"-22.9038","longitude":"-43.2096","pontos_turisticos":[{"nome":"Centro Luiz Gonzaga de Tradições Nordestinas","distancia":1265},{"nome":"Cidade do Samba","distancia":1664},{"nome":"Jardim Zoológico (Riozoo)","distancia":1970},{"nome":"Memorial dos Pretos Novos","distancia":1909},{"nome":"Quinta da Boa Vista/Museu Nacional","distancia":1576},{"nome":"Sambódromo","distancia":1561},{"nome":"Teatro Mário Lago","distancia":1263}]},{"linha":"300","descricao_ponto":"Avenida Brasil próximo ao 2000","sequencia":"13","latitude":"-22.887","longitude":"-43.224","pontos_turisticos":[{"nome":"Centro Luiz Gonzaga de Tradições Nordestinas","distancia":1191},{"nome":"Jardim Zoológico (Riozoo)","distancia":1996},{"nome":"Teatro Mário Lago","distancia":1392}]},{"linha":"300","descricao_ponto":"Viaduto De Deodoro próximo ao S/n","sequencia":"24","latitude":"-22.8548","longitude":"-43.3837","pontos_turisticos":[{"nome":"Teatro Armando Gonzaga","distancia":1634}]},{"linha":"300","descricao_ponto":"Estrada Japore próximo ao 660","sequencia":"40","latitude":"-22.886","longitude":"-43.3801","pontos_turisticos":[{"nome":"Museu Aeroespacial","distancia":827}]},{"linha":"300","descricao_ponto":"Avenida Brasil próximo ao 2000","sequencia":"14","latitude":"-22.887","longitude":"-43.224","pontos_turisticos":[{"nome":"Centro Luiz Gonzaga de Tradições Nordestinas","distancia":1191},{"nome":"Jardim Zoológico (Riozoo)","distancia":1996},{"nome":"Teatro Mário Lago","distancia":1392}]},{"linha":"300","descricao_ponto":"Avenida Brasil próximo ao 13724","sequencia":"37","latitude":"-22.8153","longitude":"-43.29","pontos_turisticos":[]},{"linha":"300","descricao_ponto":"Avenida Brasil próximo ao 13768","sequencia":"38","latitude":"-22.8144","longitude":"-43.2933","pontos_turisticos":[]},{"linha":"300","descricao_ponto":"Avenida Brasil próximo ao 23390","sequencia":"61","latitude":"-22.8444","longitude":"-43.3766","pontos_turisticos":[]},{"linha":"300","descricao_ponto":"Avenida Alberico Diniz próximo ao 1797","sequencia":"84","latitude":"-22.8861","longitude":"-43.3965","pontos_turisticos":[{"nome":"Museu Aeroespacial","distancia":867}]},{"linha":"300","descricao_ponto":"Avenida Brasil próximo ao 21918","sequencia":"56","latitude":"-22.8393","longitude":"-43.3683","pontos_turisticos":[]},{"linha":"300","descricao_ponto":"Avenida Brasil próximo ao 19405","sequencia":"41","latitude":"-22.83","longitude":"-43.3479","pontos_turisticos":[]},{"linha":"300","descricao_ponto":"Avenida Brasil próximo ao 6011","sequencia":"69","latitude":"-22.8606","longitude":"-43.2481","pontos_turisticos":[]},{"linha":"300","descricao_ponto":"Avenida Brasil próximo ao 13000","sequencia":"36","latitude":"-22.8198","longitude":"-43.2832","pontos_turisticos":[]},{"linha":"300","descricao_ponto":"Avenida Brasil próximo ao 5900","sequencia":"21","latitude":"-22.861","longitude":"-43.2476","pontos_turisticos":[]},{"linha":"300","descricao_ponto":"Avenida Brasil próximo ao","sequencia":"38","latitude":"-22.8171","longitude":"-43.3069","pontos_turisticos":[]},{"linha":"300","descricao_ponto":"Avenida Brasil próximo ao","sequencia":"41","latitude":"-22.8196","longitude":"-43.3145","pontos_turisticos":[]},{"linha":"300","descricao_ponto":"Avenida Brasil próximo ao 21887","sequencia":"30","latitude":"-22.8415","longitude":"-43.3713","pontos_turisticos":[]},{"linha":"300","descricao_ponto":"Avenida Brasil próximo ao 12211","sequencia":"48","latitude":"-22.8147","longitude":"-43.2938","pontos_turisticos":[]},{"linha":"300","descricao_ponto":"Avenida Brasil próximo ao 9201","sequencia":"56","latitude":"-22.8354","longitude":"-43.2614","pontos_turisticos":[{"nome":"Praia de Ramos","distancia":1187}]},{"linha":"300","descricao_ponto":"Avenida Duque De Caxias próximo ao 304","sequencia":"25","latitude":"-22.857","longitude":"-43.3868","pontos_turisticos":[{"nome":"Teatro Armando Gonzaga","distancia":1707}]},{"linha":"300","descricao_ponto":"Avenida Jambeiro próximo ao 61","sequencia":"10","latitude":"-22.88","longitude":"-43.3701","pontos_turisticos":[{"nome":"Museu Aeroespacial","distancia":1929},{"nome":"Teatro Armando Gonzaga","distancia":1605}]},{"linha":"300","descricao_ponto":"Avenida Brasil próximo ao 9727","sequencia":"60","latitude":"-22.8336","longitude":"-43.2646","pontos_turisticos":[{"nome":"Igreja Nossa Senhora da Penha","distancia":1892},{"nome":"Praia de Ramos","distancia":1564}]},{"linha":"300","descricao_ponto":"Avenida Francisco Bicalho próximo ao 344","sequencia":"84","latitude":"-22.9081","longitude":"-43.2099","pontos_turisticos":[{"nome":"Centro Luiz Gonzaga de Tradições Nordestinas","distancia":1585},{"nome":"Jardim Zoológico (Riozoo)","distancia":1981},{"nome":"Quinta da Boa Vista/Museu Nacional","distancia":1563},{"nome":"Sambódromo","distancia":1389},{"nome":"Teatro Mário Lago","distancia":1498}]},{"linha":"300","descricao_ponto":"BRS 4, 5 - PRAÇA ONZE","sequencia":"86","latitude":"-22.9086","longitude":"-43.2013","pontos_turisticos":[{"nome":"Campo de Santana","distancia":1345},{"nome":"Cidade do Samba","distancia":1645},{"nome":"Memorial dos Pretos Novos","distancia":1634},{"nome":"Real Gabinete Português de Leitura","distancia":1990},{"nome":"Sambódromo","distancia":557},{"nome":"Teatro Carlos Gomes","distancia":1930},{"nome":"Teatro João Caetano","distancia":1963}]},{"linha":"300","descricao_ponto":"Avenida Brasil próximo ao S/n","sequencia":"55","latitude":"-22.8367","longitude":"-43.3639","pontos_turisticos":[]},{"linha":"300","descricao_ponto":"Avenida Brasil próximo ao","sequencia":"37","latitude":"-22.8294","longitude":"-43.3465","pontos_turisticos":[]},{"linha":"300","descricao_ponto":"Avenida Brasil próximo ao 12235","sequencia":"46","latitude":"-22.8179","longitude":"-43.3075","pontos_turisticos":[]},{"linha":"300","descricao_ponto":"Avenida Brasil próximo ao 8883","sequencia":"57","latitude":"-22.837","longitude":"-43.2582","pontos_turisticos":[{"nome":"Praia de Ramos","distancia":823}]},{"linha":"300","descricao_ponto":"Avenida Alberico Diniz próximo ao 1718","sequencia":"83","latitude":"-22.8865","longitude":"-43.3928","pontos_turisticos":[{"nome":"Museu Aeroespacial","distancia":506}]},{"linha":"300","descricao_ponto":"Avenida Brasil próximo ao 23090","sequencia":"20","latitude":"-22.8426","longitude":"-43.3735","pontos_turisticos":[]},{"linha":"300","descricao_ponto":"Avenida Brasil próximo ao 23109","sequencia":"21","latitude":"-22.844","longitude":"-43.3758","pontos_turisticos":[]},{"linha":"300","descricao_ponto":"BRS 5, I - PRAÇA DA REPÚBLICA","sequencia":"88","latitude":"-22.9044","longitude":"-43.1887","pontos_turisticos":[{"nome":"Academia Brasileira de Letras","distancia":1765},{"nome":"Arcos da Lapa","distancia":1303},{"nome":"Biblioteca Nacional","distancia":1460},{"nome":"Campo de Santana","distancia":255},{"nome":"Casa França Brasil","distancia":1376},{"nome":"Catedral Metropolitana","distancia":1090},{"nome":"Centro Cultural Banco do Brasil","distancia":1317},{"nome":"Centro Cultural dos Correios","distancia":1362},{"nome":"Cidade do Samba","distancia":1406},{"nome":"Confeitaria Colombo","distancia":1018},{"nome":"Espaço Cultural da Marinha","distancia":1506},