[{"linha":"306","descricao_ponto":"Rua Candido Benicio próximo ao 1634","sequencia":"8","latitude":"-22.8949","longitude":"-43.3499","pontos_turisticos":[]},{"linha":"306","descricao_ponto":"BRS 5 - CENTRAL","sequencia":"76","latitude":"-22.9056","longitude":"-43.1917","pontos_turisticos":[{"nome":"Arcos da Lapa","distancia":1453},{"nome":"Biblioteca Nacional","distancia":1704},{"nome":"Campo de Santana","distancia":365},{"nome":"Casa França Brasil","distancia":1711},{"nome":"Catedral Metropolitana","distancia":1268},{"nome":"Centro Cultural Banco do Brasil","distancia":1651},{"nome":"Centro Cultural dos Correios","distancia":1694},{"nome":"Cidade do Samba","distancia":1366},{"nome":"Confeitaria Colombo","distancia":1322},{"nome":"Espaço Cultural da Marinha","distancia":1837},{"nome":"Igreja de São Francisco da Penitência","distancia":1282},{"nome":"Igreja e Convento de Santa Teresa","distancia":1616},{"nome":"Igreja Nossa Senhora da Candelária","distancia":1538},{"nome":"Igreja Nossa Senhora do Carmo da Antiga Sé","distancia":1704},{"nome":"Memorial dos Pretos Novos","distancia":1067},{"nome":"Mosteiro de São Bento","distancia":1724},{"nome":"Museu de Arte do Rio","distancia":1463},{"nome":"Museu da Chácara do Céu","distancia":1519},{"nome":"Museu do Clube Naval","distancia":1571},{"nome":"Museu Nacional de Belas Artes","distancia":1640},{"nome":"Paço Imperial","distancia":1800},{"nome":"Palácio Tiradentes","distancia":1797},{"nome":"Parque das Ruínas","distancia":1632},{"nome":"Real Gabinete Português de Leitura","distancia":976},{"nome":"Sala Cecília Meireles","distancia":1688},{"nome":"Sambódromo","distancia":838},{"nome":"Teatro Carlos Gomes","distancia":958},{"nome":"Teatro Dulcina","distancia":1603},{"nome":"Teatro Glauce Rocha","distancia":1545},{"nome":"Teatro João Caetano","distancia":968},{"nome":"Teatro Municipal","distancia":1624},{"nome":"Teatro Rival Petrobras","distancia":1699}]},{"linha":"306","descricao_ponto":"Estrada Dos Tres Rios próximo ao 2782","sequencia":"36","latitude":"-22.9286","longitude":"-43.3191","pontos_turisticos":[]},{"linha":"306","descricao_ponto":"Rua Araujo Porto Alegre próximo ao 71","sequencia":"82","latitude":"-22.9089","longitude":"-43.1748","pontos_turisticos":[{"nome":"Academia Brasileira de Letras","distancia":289},{"nome":"Arcos da Lapa","distancia":684},{"nome":"Biblioteca Nacional","distancia":133},{"nome":"Campo de Santana","distancia":1408},{"nome":"Casa França Brasil","distancia":954},{"nome":"Catedral Metropolitana","distancia":646},{"nome":"Centro Cultural Banco do Brasil","distancia":939},{"nome":"Centro Cultural dos Correios","distancia":853},{"nome":"Confeitaria Colombo","distancia":577},{"nome":"Espaço Cultural da Marinha","distancia":870},{"nome":"Igreja de São Francisco da Penitência","distancia":508},{"nome":"Igreja e Convento de Santa Teresa","distancia":939},{"nome":"Igreja Nossa Senhora da Candelária","distancia":953},{"nome":"Igreja Nossa Senhora da Glória do Outeiro","distancia":1383},{"nome":"Igreja Nossa Senhora do Carmo da Antiga Sé","distancia":631},{"nome":"Ilha Fiscal","distancia":1600},{"nome":"Monumento aos Pracinhas","distancia":848},{"nome":"Mosteiro de São Bento","distancia":1388},{"nome":"Museu de Arte do Rio","distancia":1583},{"nome":"Museu da Chácara do Céu","distancia":1340},{"nome":"Museu da República","distancia":1894},{"nome":"Museu de Arte Moderna","distancia":571},{"nome":"Museu de Folclore Edison Carneiro","distancia":1915},{"nome":"Museu do Clube Naval","distancia":203},{"nome":"Museu Histórico Nacional","distancia":663},{"nome":"Museu Nacional de Belas Artes","distancia":133},{"nome":"Paço Imperial","distancia":598},{"nome":"Palácio Tiradentes","distancia":536},{"nome":"Parque das Ruínas","distancia":1242},{"nome":"Praça Paris","distancia":931},{"nome":"Real Gabinete Português de Leitura","distancia":846},{"nome":"Sala Cecília Meireles","distancia":700},{"nome":"Teatro Carlos Gomes","distancia":812},{"nome":"Teatro Dulcina","distancia":306},{"nome":"Teatro Glauce Rocha","distancia":268},{"nome":"Teatro Glória","distancia":1579},{"nome":"Teatro João Caetano","distancia":816},{"nome":"Teatro Municipal","distancia":172},{"nome":"Teatro Rival Petrobras","distancia":296}]},{"linha":"306","descricao_ponto":"Rua Araujo Porto Alegre próximo ao 27","sequencia":"84","latitude":"-22.9083","longitude":"-43.1731","pontos_turisticos":[{"nome":"Academia Brasileira de Letras","distancia":287},{"nome":"Arcos da Lapa","distancia":863},{"nome":"Biblioteca Nacional","distancia":312},{"nome":"Campo de Santana","distancia":1571},{"nome":"Casa França Brasil","distancia":927},{"nome":"Catedral Metropolitana","distancia":833},{"nome":"Centro Cultural Banco do Brasil","distancia":924},{"nome":"Centro Cultural dos Correios","distancia":828},{"nome":"Confeitaria Colombo","distancia":676},{"nome":"Espaço Cultural da Marinha","distancia":814},{"nome":"Igreja de São Francisco da Penitência","distancia":650},{"nome":"Igreja e Convento de Santa Teresa","distancia":1102},{"nome":"Igreja Nossa Senhora da Candelária","distancia":961},{"nome":"Igreja Nossa Senhora da Glória do Outeiro","distancia":1467},{"nome":"Igreja Nossa Senhora do Carmo da Antiga Sé","distancia":605},{"nome":"Ilha Fiscal","distancia":1452},{"nome":"Monumento aos Pracinhas","distancia":916},{"nome":"Mosteiro de São Bento","distancia":1375},{"nome":"Museu de Arte do Rio","distancia":1613},{"nome":"Museu da Chácara do Céu","distancia":1513},{"nome":"Museu da República","distancia":1983},{"nome":"Museu de Arte Moderna","distancia":614},{"nome":"Museu do Clube Naval","distancia":360},{"nome":"Museu Histórico Nacional","distancia":483},{"nome":"Museu Nacional de Belas Artes","distancia":314},{"nome":"Paço Imperial","distancia":542},{"nome":"Palácio Tiradentes","distancia":480},{"nome":"Parque das Ruínas","distancia":1407},{"nome":"Praça Paris","distancia":1031},{"nome":"Real Gabinete Português de Leitura","distancia":981},{"nome":"Sala Cecília Meireles","distancia":854},{"nome":"Teatro Carlos Gomes","distancia":972},{"nome":"Teatro Dulcina","distancia":485},{"nome":"Teatro Glauce Rocha","distancia":389},{"nome":"Teatro Glória","distancia":1632},{"nome":"Teatro João Caetano","distancia":965},{"nome":"Teatro Municipal","distancia":358},{"nome":"Teatro Rival Petrobras","distancia":457}]},{"linha":"306","descricao_ponto":"Rua Candido Benicio, próximo a Estação Praça Seca - PONTO C","sequencia":"78","latitude":"-22.8974","longitude":"-43.352","pontos_turisticos":[]},{"linha":"306","descricao_ponto":"Rua Candido Benicio próximo ao 2778","sequencia":"13","latitude":"-22.9063","longitude":"-43.3577","pontos_turisticos":[]},{"linha":"306","descricao_ponto":"Nome do ponto nao identificado","sequencia":"53","latitude":"-22.9196","longitude":"-43.2565","pontos_turisticos":[]},{"linha":"306","descricao_ponto":"BRS 3, 4 - CENTRAL","sequencia":"6","latitude":"-22.9058","longitude":"-43.1934","pontos_turisticos":[{"nome":"Arcos da Lapa","distancia":1590},{"nome":"Biblioteca Nacional","distancia":1867},{"nome":"Campo de Santana","distancia":528},{"nome":"Casa França Brasil","distancia":1882},{"nome":"Catedral Metropolitana","distancia":1416},{"nome":"Centro Cultural Banco do Brasil","distancia":1823},{"nome":"Centro Cultural dos Correios","distancia":1867},{"nome":"Cidade do Samba","distancia":1327},{"nome":"Confeitaria Colombo","distancia":1496},{"nome":"Igreja de São Francisco da Penitência","distancia":1453},{"nome":"Igreja e Convento de Santa Teresa","distancia":1732},{"nome":"Igreja Nossa Senhora da Candelária","distancia":1709},{"nome":"Igreja Nossa Senhora do Carmo da Antiga Sé","distancia":1879},{"nome":"Memorial dos Pretos Novos","distancia":1083},{"nome":"Mosteiro de São Bento","distancia":1881},{"nome":"Museu de Arte do Rio","distancia":1604},{"nome":"Museu da Chácara do Céu","distancia":1596},{"nome":"Museu do Clube Naval","distancia":1739},{"nome":"Museu Nacional de Belas Artes","distancia":1806},{"nome":"Paço Imperial","distancia":1976},{"nome":"Palácio Tiradentes","distancia":1973},{"nome":"Parque das Ruínas","distancia":1722},{"nome":"Real Gabinete Português de Leitura","distancia":1151},{"nome":"Sala Cecília Meireles","distancia":1821},{"nome":"Sambódromo","distancia":722},{"nome":"Teatro Carlos Gomes","distancia":1126},{"nome":"Teatro Dulcina","distancia":1760},{"nome":"Teatro Glauce Rocha","distancia":1716},{"nome":"Teatro João Caetano","distancia":1140},{"nome":"Teatro Municipal","distancia":1788},{"nome":"Teatro Rival Petrobras","distancia":1855}]},{"linha":"306","descricao_ponto":"Nome do ponto nao identificado","sequencia":"18","latitude":"-22.9163","longitude":"-43.2523","pontos_turisticos":[{"nome":"Teatro Noel Rosa","distancia":1626},{"nome":"Teatro Odylo Costa Filho","distancia":1883}]},{"linha":"306","descricao_ponto":"Avenida Menezes Cortes próximo ao 37","sequencia":"29","latitude":"-22.9165","longitude":"-43.2761","pontos_turisticos":[]},{"linha":"306","descricao_ponto":"Avenida Menezes Cortes próximo ao 832","sequencia":"31","latitude":"-22.9172","longitude":"-43.2821","pontos_turisticos":[]},{"linha":"306","descricao_ponto":"Estrada Do Pau Ferro próximo ao 295","sequencia":"49","latitude":"-22.9266","longitude":"-43.3459","pontos_turisticos":[]},{"linha":"306","descricao_ponto":"Avenida Geremario Dantas próximo ao 615","sequencia":"53","latitude":"-22.9279","longitude":"-43.3555","pontos_turisticos":[]},{"linha":"306","descricao_ponto":"Avenida Geremario Dantas próximo ao 293","sequencia":"55","latitude":"-22.9249","longitude":"-43.3584","pontos_turisticos":[]},{"linha":"306","descricao_ponto":"Avenida Nelson Cardoso próximo ao 373","sequencia":"69","latitude":"-22.9184","longitude":"-43.3651","pontos_turisticos":[]},{"linha":"306","descricao_ponto":"Rua Candido Benicio próximo ao 2778","sequencia":"75","latitude":"-22.9062","longitude":"-43.3576","pontos_turisticos":[]},{"linha":"306","descricao_ponto":"Rua Godofredo Viana próximo ao 948","sequencia":"18","latitude":"-22.9195","longitude":"-43.3687","pontos_turisticos":[]},{"linha":"306","descricao_ponto":"Avenida Menezes Cortes próximo ao 37","sequencia":"41","latitude":"-22.9228","longitude":"-43.2824","pontos_turisticos":[]},{"linha":"306","descricao_ponto":"Avenida Menezes Cortes próximo ao 37","sequencia":"42","latitude":"-22.9176","longitude":"-43.2824","pontos_turisticos":[]},{"linha":"306","descricao_ponto":"Avenida Menezes Cortes próximo ao 37","sequencia":"47","latitude":"-22.9156","longitude":"-43.2674","pontos_turisticos":[]},{"linha":"306","descricao_ponto":"BRS 5 - TOMÉ DE SOUSA","sequencia":"5","latitude":"-22.904","longitude":"-43.1879","pontos_turisticos":[{"nome":"Academia Brasileira de Letras","distancia":1710},{"nome":"Arcos da Lapa","distancia":1281},{"nome":"Biblioteca Nacional","distancia":1406},{"nome":"Campo de Santana","distancia":300},{"nome":"Casa França Brasil","distancia":1285},{"nome":"Catedral Metropolitana","distancia":1061},{"nome":"Centro Cultural Banco do Brasil","distancia":1226},{"nome":"Centro Cultural dos Correios","distancia":1272},{"nome":"Cidade do Samba","distancia":1423},{"nome":"Confeitaria Colombo","distancia":942},{"nome":"Espaço Cultural da Marinha","distancia":1416},{"nome":"Igreja de São Francisco da Penitência","distancia":942},{"nome":"Igreja e Convento de Santa Teresa","distancia":1512},{"nome":"Igreja Nossa Senhora da Candelária","distancia":1112},{"nome":"Igreja Nossa Senhora do Carmo da Antiga Sé","distancia":1297},{"nome":"Memorial dos Pretos Novos","distancia":1023},{"nome":"Monumento aos Pracinhas","distancia":1985},{"nome":"Mosteiro de São Bento","distancia":1305},{"nome":"Museu de Arte do Rio","distancia":1075},{"nome":"Museu da Chácara do Céu","distancia":1533},{"nome":"Museu de Arte Moderna","distancia":1859},{"nome":"Museu do Clube Naval","distancia":1246},{"nome":"Museu Histórico Nacional","distancia":1898},{"nome":"Museu Nacional de Belas Artes","distancia":1326},{"nome":"Paço Imperial","distancia":1398},{"nome":"Palácio Tiradentes","distancia":1401},{"nome":"Parque das Ruínas","distancia":1607},{"nome":"Praça Paris","distancia":1921},{"nome":"Real Gabinete Português de Leitura","distancia":609},{"nome":"Sala Cecília Meireles","distancia":1518},{"nome":"Sambódromo","distancia":1236},{"nome":"Teatro Carlos Gomes","distancia":657},{"nome":"Teatro Dulcina","distancia":1337},{"nome":"Teatro Glauce Rocha","distancia":1201},{"nome":"Teatro João Caetano","distancia":633},{"nome":"Teatro Municipal","distancia":1323},{"nome":"Teatro Rival Petrobras","distancia":1435}]},{"linha":"306","descricao_ponto":"Avenida Nelson Cardoso próximo ao 1125","sequencia":"65","latitude":"-22.9221","longitude":"-43.3717","pontos_turisticos":[]},{"linha":"306","descricao_ponto":"Estrada Dos Tres Rios próximo ao 2516","sequencia":"40","latitude":"-22.9295","longitude":"-43.322","pontos_turisticos":[]},{"linha":"306","descricao_ponto":"Estrada Do Pau Ferro próximo ao 295","sequencia":"29","latitude":"-22.9266","longitude":"-43.3458","pontos_turisticos":[]},{"linha":"306","descricao_ponto":"Rua Candido Benicio próximo ao 2758","sequencia":"12","latitude":"-22.904","longitude":"-43.3567","pontos_turisticos":[]},{"linha":"306","descricao_ponto":"Rua Sao Francisco Xavier próximo ao 579","sequencia":"65","latitude":"-22.9152","longitude":"-43.2325","pontos_turisticos":[{"nome":"Estádio do Maracanã","distancia":230},{"nome":"Jardim Zoológico (Riozoo)","distancia":1259},{"nome":"Quinta da Boa Vista/Museu Nacional","distancia":1336},{"nome":"Teatro Noel Rosa","distancia":722},{"nome":"Teatro Odylo Costa Filho","distancia":576},{"nome":"Teatro Ziembinski","distancia":1087}]},{"linha":"306","descricao_ponto":"Estrada Do Pau Ferro próximo ao 749","sequencia":"46","latitude":"-22.9275","longitude":"-43.3374","pontos_turisticos":[]},{"linha":"306","descricao_ponto":"Estrada Do Pau Ferro próximo ao 541","sequencia":"47","latitude":"-22.9276","longitude":"-43.3409","pontos_turisticos":[]},{"linha":"306","descricao_ponto":"Estrada Do Pau Ferro próximo ao 1050","sequencia":"30","latitude":"-22.9277","longitude":"-43.34","pontos_turisticos":[]},{"linha":"306","descricao_ponto":"Rua Sao Francisco Xavier próximo ao 367","sequencia":"66","latitude":"-22.916","longitude":"-43.2304","pontos_turisticos":[{"nome":"Estádio do Maracanã","distancia":275},{"nome":"Jardim Zoológico (Riozoo)","distancia":1301},{"nome":"Quinta da Boa Vista/Museu Nacional","distancia":1303},{"nome":"Teatro Noel Rosa","distancia":943},{"nome":"Teatro Odylo Costa Filho","distancia":767},{"nome":"Teatro Ziembinski","distancia":862}]},{"linha":"306","descricao_ponto":"Avenida Menezes Cortes próximo ao 835","sequencia":"28","latitude":"-22.9161","longitude":"-43.2745","pontos_turisticos":[]},{"linha":"306","descricao_ponto":"Avenida Menezes Cortes próximo ao 37","sequencia":"30","latitude":"-22.9171","longitude":"-43.2789","pontos_turisticos":[]},{"linha":"306","descricao_ponto":"Estrada Do Pau Ferro próximo ao 146","sequencia":"27","latitude":"-22.9278","longitude":"-43.3511","pontos_turisticos":[]},{"linha":"306","descricao_ponto":"Rua Jose Do Patrocinio próximo ao 290","sequencia":"48","latitude":"-22.9182","longitude":"-43.263","pontos_turisticos":[]},{"linha":"306","descricao_ponto":"BRS 4, 5, I - BARÃO DE SÃO FRANCISCO","sequencia":"56","latitude":"-22.9187","longitude":"-43.2518","pontos_turisticos":[{"nome":"Teatro Noel Rosa","distancia":1702},{"nome":"Teatro Odylo Costa Filho","distancia":1944}]},{"linha":"306","descricao_ponto":"Avenida Menezes Cortes próximo ao 211","sequencia":"24","latitude":"-22.9149","longitude":"-43.2657","pontos_turisticos":[]},{"linha":"306","descricao_ponto":"Avenida Menezes Cortes próximo ao 2426","sequencia":"35","latitude":"-22.924","longitude":"-43.2838","pontos_turisticos":[]},{"linha":"306","descricao_ponto":"Rua Candido Benicio próximo ao 2298","sequencia":"11","latitude":"-22.9009","longitude":"-43.3545","pontos_turisticos":[]},{"linha":"306","descricao_ponto":"Rua Elpidio Boamorte próximo ao 323","sequencia":"9","latitude":"-22.9104","longitude":"-43.2152","pontos_turisticos":[{"nome":"Centro Luiz Gonzaga de Tradições Nordestinas","distancia":1570},{"nome":"Estádio do Maracanã","distancia":1664},{"nome":"Jardim Zoológico (Riozoo)","distancia":1547},{"nome":"Quinta da Boa Vista/Museu Nacional","distancia":1135},{"nome":"Sambódromo","distancia":1884},{"nome":"Teatro Mário Lago","distancia":1376},{"nome":"Teatro Ziembinski","distancia":1474}]},{"linha":"306","descricao_ponto":"Rua Candido Benicio próximo ao 48","sequencia":"15","latitude":"-22.913","longitude":"-43.3605","pontos_turisticos":[]},{"linha":"306","descricao_ponto":"Estrada Dos Tres Rios próximo ao S/n","sequencia":"37","latitude":"-22.9256","longitude":"-43.3149","pontos_turisticos":[]},{"linha":"306","descricao_ponto":"Nome do ponto nao identificado","sequencia":"55","latitude":"-22.9189","longitude":"-43.253","pontos_turisticos":[{"nome":"Teatro Noel Rosa","distancia":1819}]},{"linha":"306","descricao_ponto":"BRS 2, 6, 7 - VISCONDE DE ABAETÉ","sequencia":"59","latitude":"-22.9173","longitude":"-43.244","pontos_turisticos":[{"nome":"Estádio do Maracanã","distancia":1387},{"nome":"Teatro Noel Rosa","distancia":980},{"nome":"Teatro Odylo Costa Filho","distancia":1188}]},{"linha":"306","descricao_ponto":"Nome do ponto nao identificado","sequencia":"21","latitude":"-22.917","longitude":"-43.2581","pontos_turisticos":[]},{"linha":"306","descricao_ponto":"Estrada Do Pau Ferro próximo ao 1377","sequencia":"41","latitude":"-22.9308","longitude":"-43.3259","pontos_turisticos":[]},{"linha":"306","descricao_ponto":"Estrada Do Tindiba próximo ao 1148","sequencia":"59","latitude":"-22.9284","longitude":"-43.3651","pontos_turisticos":[]},{"linha":"306","descricao_ponto":"Estrada Do Pau Ferro próximo ao 1042","sequencia":"31","latitude":"-22.9279","longitude":"-43.3363","pontos_turisticos":[]},{"linha":"306","descricao_ponto":"Avenida Menezes Cortes próximo ao 48800","sequencia":"38","latitude":"-22.9245","longitude":"-43.2919","pontos_turisticos":[]},{"linha":"306","descricao_ponto":"BRS 2, 6, 7 - VIANA DRUMOND","sequencia":"54","latitude":"-22.9193","longitude":"-43.2552","pontos_turisticos":[]},{"linha":"306","descricao_ponto":"Nome do ponto nao identificado","sequencia":"62","latitude":"-22.9164","longitude":"-43.2386","pontos_turisticos":[{"nome":"Estádio do Maracanã","distancia":832},{"nome":"Jardim Zoológico (Riozoo)","distancia":1669},{"nome":"Quinta da Boa Vista/Museu Nacional","distancia":1860},{"nome":"Teatro Noel Rosa","distancia":638},{"nome":"Teatro Odylo Costa Filho","distancia":747},{"nome":"Teatro Ziembinski","distancia":1587}]},{"linha":"306","descricao_ponto":"Estrada Do Pau Ferro próximo ao 1403","sequencia":"42","latitude":"-22.9318","longitude":"-43.3283","pontos_turisticos":[]},{"linha":"306","descricao_ponto":"Rua Baronesa próximo ao 712","sequencia":"2","latitude":"-22.898","longitude":"-43.3503","pontos_turisticos":[]},{"linha":"306","descricao_ponto":"Rua Pedro Teles próximo ao 637","sequencia":"3","latitude":"-22.8976","longitude":"-43.349","pontos_turisticos":[]},{"linha":"306","descricao_ponto":"Rua Pedro Teles próximo ao 637","sequencia":"4","latitude":"-22.8969","longitude":"-43.3484","pontos_turisticos":[]},{"linha":"306","descricao_ponto":"Rua Apiacas próximo ao 110","sequencia":"19","latitude":"-22.9205","longitude":"-43.3707","pontos_turisticos":[]},{"linha":"306","descricao_ponto":"Estrada Do Pau Ferro próximo ao 1395","sequencia":"32","latitude":"-22.9311","longitude":"-43.3323","pontos_turisticos":[]},{"linha":"306","descricao_ponto":"Estrada Dos Tres Rios próximo ao 2134","sequencia":"34","latitude":"-22.9314","longitude":"-43.3254","pontos_turisticos":[]},{"linha":"306","descricao_ponto":"BRS 1, 3, 5 - CIDADE NOVA","sequencia":"73","latitude":"-22.9101","longitude":"-43.2055","pontos_turisticos":[{"nome":"Campo de Santana","distancia":1799},{"nome":"Cidade do Samba","distancia":1956},{"nome":"Sambódromo","distancia":900},{"nome":"Teatro Mário Lago","distancia":1987}]},{"linha":"306","descricao_ponto":"Nome do ponto nao identificado","sequencia":"2","latitude":"-22.9068","longitude":"-43.1751","pontos_turisticos":[{"nome":"Academia Brasileira de Letras","distancia":503},{"nome":"Arcos da Lapa","distancia":835},{"nome":"Biblioteca Nacional","distancia":336},{"nome":"Campo de Santana","distancia":1355},{"nome":"Casa França Brasil","distancia":718},{"nome":"Catedral Metropolitana","distancia":734},{"nome":"Centro Cultural Banco do Brasil","distancia":704},{"nome":"Centro Cultural dos Correios","distancia":617},{"nome":"Confeitaria Colombo","distancia":417},{"nome":"Espaço Cultural da Marinha","distancia":639},{"nome":"Igreja de São Francisco da Penitência","distancia":426},{"nome":"Igreja e Convento de Santa Teresa","distancia":1120},{"nome":"Igreja Nossa Senhora da Candelária","distancia":723},{"nome":"Igreja Nossa Senhora da Glória do Outeiro","distancia":1616},{"nome":"Igreja Nossa Senhora do Carmo da Antiga Sé","distancia":396},{"nome":"Ilha Fiscal","distancia":1431},{"nome":"Monumento aos Pracinhas","distancia":1083},{"nome":"Mosteiro de São Bento","distancia":1154},{"nome":"Museu de Arte do Rio","distancia":1363},{"nome":"Museu da Chácara do Céu","distancia":1494},{"nome":"Museu de Arte Moderna","distancia":804},{"nome":"Museu do Clube Naval","distancia":218},{"nome":"Museu Histórico Nacional","distancia":596},{"nome":"Museu Nacional de Belas Artes","distancia":255},{"nome":"Paço Imperial","distancia":372},{"nome":"Palácio Tiradentes","distancia":313},{"nome":"Parque das Ruínas","distancia":1414},{"nome":"Praça Paris","distancia":1161},{"nome":"Real Gabinete Português de Leitura","distancia":739},{"nome":"Sala Cecília Meireles","distancia":899},{"nome":"Teatro Carlos Gomes","distancia":761},{"nome":"Teatro Dulcina","distancia":478},{"nome":"Teatro Glauce Rocha","distancia":174},{"nome":"Teatro Glória","distancia":1815},{"nome":"Teatro João Caetano","distancia":738},{"nome":"Teatro Municipal","distancia":317},{"nome":"Teatro Rival Petrobras","distancia":503}]},{"linha":"306","descricao_ponto":"Avenida Oswaldo Aranha próximo ao 200","sequencia":"10","latitude":"-22.9099","longitude":"-43.221","pontos_turisticos":[{"nome":"Centro Luiz Gonzaga de Tradições Nordestinas","distancia":1466},{"nome":"Estádio do Maracanã","distancia":1110},{"nome":"Jardim Zoológico (Riozoo)","distancia":1008},{"nome":"Quinta da Boa Vista/Museu Nacional","distancia":636},{"nome":"Teatro Mário Lago","distancia":1192},{"nome":"Teatro Noel Rosa","distancia":1704},{"nome":"Teatro Odylo Costa Filho","distancia":1436},{"nome":"Teatro Ziembinski","distancia":1264}]},{"linha":"306","descricao_ponto":"Rua Baronesa próximo ao 625","sequencia":"1","latitude":"-22.8976","longitude":"-43.3507","pontos_turisticos":[]},{"linha":"306","descricao_ponto":"BRS 2, 5, 6, I - ALEXANDRE CALAZA","sequencia":"23","latitude":"-22.917","longitude":"-43.2608","pontos_turisticos":[]},{"linha":"306","descricao_ponto":"Estrada Do Tindiba próximo ao 1149","sequencia":"63","latitude":"-22.9232","longitude":"-43.3726","pontos_turisticos":[]},{"linha":"306","descricao_ponto":"Avenida Nelson Cardoso próximo ao 1270","sequencia":"66","latitude":"-22.9209","longitude":"-43.3696","pontos_turisticos":[]},{"linha":"306","descricao_ponto":"Rua Candido Benicio próximo ao 48","sequencia":"73","latitude":"-22.9131","longitude":"-43.3604","pontos_turisticos":[]},{"linha":"306","descricao_ponto":"Rua Pedro Teles próximo ao 49","sequencia":"6","latitude":"-22.8937","longitude":"-43.347","pontos_turisticos":[]},{"linha":"306","descricao_ponto":"Avenida Menezes Cortes próximo ao 37","sequencia":"44","latitude":"-22.9166","longitude":"-43.2762","pontos_turisticos":[]},{"linha":"306","descricao_ponto":"Avenida Menezes Cortes próximo ao 1910","sequencia":"45","latitude":"-22.9166","longitude":"-43.2739","pontos_turisticos":[]},{"linha":"306","descricao_ponto":"Estrada Dos Tres Rios próximo ao 1786","sequencia":"33","latitude":"-22.9335","longitude":"-43.3279","pontos_turisticos":[]},{"linha":"306","descricao_ponto":"BRS 4, 5, I - JORGE RUDGE","sequencia":"13","latitude":"-22.9139","longitude":"-43.237","pontos_turisticos":[{"nome":"Estádio do Maracanã","distancia":608},{"nome":"Jardim Zoológico (Riozoo)","distancia":1349},{"nome":"Quinta da Boa Vista/Museu Nacional","distancia":1557},{"nome":"Teatro Noel Rosa","distancia":358},{"nome":"Teatro Odylo Costa Filho","distancia":425},{"nome":"Teatro Ziembinski","distancia":1552}]},{"linha":"306","descricao_ponto":"Avenida Menezes Cortes próximo ao 37","sequencia":"43","latitude":"-22.9172","longitude":"-43.279","pontos_turisticos":[]},{"linha":"306","descricao_ponto":"Rua Jose Do Patrocinio próximo ao 410","sequencia":"49","latitude":"-22.9192","longitude":"-43.2621","pontos_turisticos":[]},{"linha":"306","descricao_ponto":"Nome do ponto nao identificado","sequencia":"60","latitude":"-22.9169","longitude":"-43.2423","pontos_turisticos":[{"nome":"Estádio do Maracanã","distancia":1207},{"nome":"Jardim Zoológico (Riozoo)","distancia":1960},{"nome":"Teatro Noel Rosa","distancia":837},{"nome":"Teatro Odylo Costa Filho","distancia":1028},{"nome":"Teatro Ziembinski","distancia":1936}]},{"linha":"306","descricao_ponto":"Avenida Menezes Cortes próximo ao 2426","sequencia":"37","latitude":"-22.9252","longitude":"-43.2877","pontos_turisticos":[]},{"linha":"306","descricao_ponto":"Avenida Menezes Cortes próximo ao 4800","sequencia":"38","latitude":"-22.9245","longitude":"-43.291","pontos_turisticos":[]},{"linha":"306","descricao_ponto":"Avenida Nelson Cardoso próximo ao 653","sequencia":"68","latitude":"-22.9195","longitude":"-43.3671","pontos_turisticos":[]},{"linha":"306","descricao_ponto":"Rua Candido Benicio, próximo a Estação Praça Seca - PONTO A","sequencia":"10","latitude":"-22.8979","longitude":"-43.3524","pontos_turisticos":[]},{"linha":"306","descricao_ponto":"Rua Apiacas próximo ao 334","sequencia":"20","latitude":"-22.9215","longitude":"-43.3725","pontos_turisticos":[]},{"linha":"306","descricao_ponto":"Nome do ponto nao identificado","sequencia":"80","latitude":"-22.9099","longitude":"-43.1758","pontos_turisticos":[{"nome":"Academia Brasileira de Letras","distancia":309},{"nome":"Arcos da Lapa","distancia":535},{"nome":"Biblioteca Nacional","distancia":18},{"nome":"Campo de Santana","distancia":1333},{"nome":"Casa França Brasil","distancia":1057},{"nome":"Catedral Metropolitana","distancia":517},{"nome":"Centro Cultural Banco do Brasil","distancia":1036},{"nome":"Centro Cultural dos Correios","distancia":957},{"nome":"Confeitaria Colombo","distancia":602},{"nome":"Espaço Cultural da Marinha","distancia":990},{"nome":"Igreja de São Francisco da Penitência","distancia":486},{"nome":"Igreja e Convento de Santa Teresa","distancia":789},{"nome":"Igreja Nossa Senhora da Candelária","distancia":1036},{"nome":"Igreja Nossa Senhora da Glória do Outeiro","distancia":1272},{"nome":"Igreja Nossa Senhora do Carmo da Antiga Sé","distancia":743},{"nome":"Ilha Fiscal","distancia":1749},{"nome":"Monumento aos Pracinhas","distancia":755},{"nome":"Mosteiro de São Bento","distancia":1478},{"nome":"Museu de Arte do Rio","distancia":1643},{"nome":"Museu da Chácara do Céu","distancia":1189},{"nome":"Museu da República","distancia":1777},{"nome":"Museu de Arte Moderna","distancia":510},{"nome":"Museu de Folclore Edison Carneiro","distancia":1797},{"nome":"Museu do Clube Naval","distancia":209},{"nome":"Museu Histórico Nacional","distancia":811},{"nome":"Museu Nacional de Belas Artes","distancia":115},{"nome":"Paço Imperial","distancia":724},{"nome":"Palácio Tiradentes","distancia":664},{"nome":"Parque das Ruínas","distancia":1091},{"nome":"Praça Paris","distancia":814},{"nome":"Real Gabinete Português de Leitura","distancia":818},{"nome":"Sala Cecília Meireles","distancia":554},{"nome":"Teatro Carlos Gomes","distancia":750},{"nome":"Teatro Dulcina","distancia":157},{"nome":"Teatro Glauce Rocha","distancia":308},{"nome":"Teatro Glória","distancia":1488},{"nome":"Teatro João Caetano","distancia":771},{"nome":"Teatro Municipal","distancia":83},{"nome":"Teatro Rival Petrobras","distancia":151}]},{"linha":"306","descricao_ponto":"Avenida Menezes Cortes próximo ao 37","sequencia":"32","latitude":"-22.9177","longitude":"-43.2831","pontos_turisticos":[]},{"linha":"306","descricao_ponto":"Rua Lopo Saraiva próximo ao 455","sequencia":"56","latitude":"-22.9256","longitude":"-43.3597","pontos_turisticos":[]},{"linha":"306","descricao_ponto":"Estrada Do Tindiba próximo ao 638","sequencia":"58","latitude":"-22.9281","longitude":"-43.3625","pontos_turisticos":[]},{"linha":"306","descricao_ponto":"Estrada Do Tindiba próximo ao 666","sequencia":"61","latitude":"-22.9256","longitude":"-43.3694","pontos_turisticos":[]},{"linha":"306","descricao_ponto":"Rua Candido Benicio próximo ao 3650","sequencia":"74","latitude":"-22.9117","longitude":"-43.3604","pontos_turisticos":[]},{"linha":"306","descricao_ponto":"Nome do ponto nao identificado","sequencia":"63","latitude":"-22.9159","longitude":"-43.2364","pontos_turisticos":[{"nome":"Estádio do Maracanã","distancia":603},{"nome":"Jardim Zoológico (Riozoo)","distancia":1497},{"nome":"Quinta da Boa Vista/Museu Nacional","distancia":1656},{"nome":"Teatro Noel Rosa","distancia":588},{"nome":"Teatro Odylo Costa Filho","distancia":611},{"nome":"Teatro Ziembinski","distancia":1396}]},{"linha":"306","descricao_ponto":"Avenida Nelson Cardoso próximo ao 1325","sequencia":"64","latitude":"-22.9224","longitude":"-43.3724","pontos_turisticos":[]},{"linha":"306","descricao_ponto":"Estrada Dos Tres Rios próximo ao 4800","sequencia":"35","latitude":"-22.9304","longitude":"-43.3227","pontos_turisticos":[]},{"linha":"306","descricao_ponto":"Estrada Do Tindiba próximo ao 1933","sequencia":"62","latitude":"-22.9235","longitude":"-43.3722","pontos_turisticos":[]},{"linha":"306","descricao_ponto":"Avenida Nilo Pecanha próximo ao 26 (PLATAFORMA A)","sequencia":"1","latitude":"-22.9062","longitude":"-43.1738","pontos_turisticos":[{"nome":"Academia Brasileira de Letras","distancia":527},{"nome":"Arcos da Lapa","distancia":970},{"nome":"Biblioteca Nacional","distancia":442},{"nome":"Campo de Santana","distancia":1489},{"nome":"Casa França Brasil","distancia":683},{"nome":"Catedral Metropolitana","distancia":880},{"nome":"Centro Cultural Banco do Brasil","distancia":681},{"nome":"Centro Cultural dos Correios","distancia":584},{"nome":"Confeitaria Colombo","distancia":523},{"nome":"Espaço Cultural da Marinha","distancia":573},{"nome":"Igreja de São Francisco da Penitência","distancia":565},{"nome":"Igreja e Convento de Santa Teresa","distancia":1245},{"nome":"Igreja Nossa Senhora da Candelária","distancia":724},{"nome":"Igreja Nossa Senhora da Glória do Outeiro","distancia":1689},{"nome":"Igreja Nossa Senhora do Carmo da Antiga Sé","distancia":362},{"nome":"Ilha Fiscal","distancia":1296},{"nome":"Monumento aos Pracinhas","distancia":1145},{"nome":"Mosteiro de São Bento","distancia":1131},{"nome":"Museu de Arte do Rio","distancia":1380},{"nome":"Museu da Chácara do Céu","distancia":1630},{"nome":"Museu de Arte Moderna","distancia":849},{"nome":"Museu do Clube Naval","distancia":363},{"nome":"Museu Histórico Nacional","distancia":452},{"nome":"Museu Nacional de Belas Artes","distancia":381},{"nome":"Paço Imperial","distancia":299},{"nome":"Palácio Tiradentes","distancia":237},{"nome":"Parque das Ruínas","distancia":1544},{"nome":"Praça Paris","distancia":1243},{"nome":"Real Gabinete Português de Leitura","distancia":861},{"nome":"Sala Cecília Meireles","distancia":1013},{"nome":"Teatro Carlos Gomes","distancia":900},{"nome":"Teatro Dulcina","distancia":601},{"nome":"Teatro Glauce Rocha","distancia":322},{"nome":"Teatro Glória","distancia":1868},{"nome":"Teatro João Caetano","distancia":870},{"nome":"Teatro Municipal","distancia":443},{"nome":"Teatro Rival Petrobras","distancia":610}]},{"linha":"306","descricao_ponto":"BRS 5 - RIO BRANCO","sequencia":"4","latitude":"-22.9014","longitude":"-43.1799","pontos_turisticos":[{"nome":"Academia Brasileira de Letras","distancia":1271},{"nome":"Arcos da Lapa","distancia":1275},{"nome":"Biblioteca Nacional","distancia":1026},{"nome":"Campo de Santana","distancia":1044},{"nome":"Casa França Brasil","distancia":416},{"nome":"Catedral Metropolitana","distancia":1058},{"nome":"Centro Cultural Banco do Brasil","distancia":358},{"nome":"Centro Cultural dos Correios","distancia":416},{"nome":"Cidade do Samba","distancia":1921},{"nome":"Confeitaria Colombo","distancia":442},{"nome":"Espaço Cultural da Marinha","distancia":560},{"nome":"Igreja de São Francisco da Penitência","distancia":616},{"nome":"Igreja e Convento de Santa Teresa","distancia":1586},{"nome":"Igreja Nossa Senhora da Candelária","distancia":243},{"nome":"Igreja Nossa Senhora do Carmo da Antiga Sé","distancia":517},{"nome":"Ilha Fiscal","distancia":1497},{"nome":"Memorial dos Pretos Novos","distancia":1463},{"nome":"Monumento aos Pracinhas","distancia":1782},{"nome":"Mosteiro de São Bento","distancia":557},{"nome":"Museu de Arte do Rio","distancia":611},{"nome":"Museu da Chácara do Céu","distancia":1825},{"nome":"Museu de Arte Moderna","distancia":1542},{"nome":"Museu do Clube Naval","distancia":826},{"nome":"Museu Histórico Nacional","distancia":1166},{"nome":"Museu Nacional de Belas Artes","distancia":920},{"nome":"Paço Imperial","distancia":624},{"nome":"Palácio Tiradentes","distancia":654},{"nome":"Parque das Ruínas","distancia":1816},{"nome":"Praça Paris","distancia":1808},{"nome":"Real Gabinete Português de Leitura","distancia":508},{"nome":"Sala Cecília Meireles","distancia":1450},{"nome":"Teatro Carlos Gomes","distancia":701},{"nome":"Teatro Dulcina","distancia":1074},{"nome":"Teatro Glauce Rocha","distancia":729},{"nome":"Teatro João Caetano","distancia":606},{"nome":"Teatro Municipal","distancia":959},{"nome":"Teatro Rival Petrobras","distancia":1151}]},{"linha":"306","descricao_ponto":"BRS 2, 6, 7 - VISCONDE DE ABAETÉ","sequencia":"15","latitude":"-22.9153","longitude":"-43.2438","pontos_turisticos":[{"nome":"Estádio do Maracanã","distancia":1318},{"nome":"Jardim Zoológico (Riozoo)","distancia":1956},{"nome":"Teatro Noel Rosa","distancia":812},{"nome":"Teatro Odylo Costa Filho","distancia":1044}]},{"linha":"306","descricao_ponto":"Avenida Menezes Cortes próximo ao 37","sequencia":"25","latitude":"-22.9154","longitude":"-43.2672","pontos_turisticos":[]},{"linha":"306","descricao_ponto":"Nome do ponto nao identificado","sequencia":"57","latitude":"-22.9182","longitude":"-43.2492","pontos_turisticos":[{"nome":"Estádio do Maracanã","distancia":1926},{"nome":"Teatro Noel Rosa","distancia":1448},{"nome":"Teatro Odylo Costa Filho","distancia":1685}]},{"linha":"306","descricao_ponto":"Rua Teixeira Soares próximo ao 59","sequencia":"70","latitude":"-22.9104","longitude":"-43.2217","pontos_turisticos":[{"nome":"Centro Luiz Gonzaga de Tradições Nordestinas","distancia":1530},{"nome":"Estádio do Maracanã","distancia":1023},{"nome":"Jardim Zoológico (Riozoo)","distancia":989},{"nome":"Quinta da Boa Vista/Museu Nacional","distancia":641},{"nome":"Teatro Mário Lago","distancia":1251},{"nome":"Teatro Noel Rosa","distancia":1631},{"nome":"Teatro Odylo Costa Filho","distancia":1362},{"nome":"Teatro Ziembinski","distancia":1195}]},{"linha":"306","descricao_ponto":"Rua Araujo Porto Alegre lado oposto ao número 16","sequencia":"81","latitude":"-22.9097","longitude":"-43.1767","pontos_turisticos":[{"nome":"Academia Brasileira de Letras","distancia":404},{"nome":"Arcos da Lapa","distancia":482},{"nome":"Biblioteca Nacional","distancia":104},{"nome":"Campo de Santana","distancia":1238},{"nome":"Casa França Brasil","distancia":1037},{"nome":"Catedral Metropolitana","distancia":433},{"nome":"Centro Cultural Banco do Brasil","distancia":1011},{"nome":"Centro Cultural dos Correios","distancia":939},{"nome":"Confeitaria Colombo","distancia":540},{"nome":"Espaço Cultural da Marinha","distancia":986},{"nome":"Igreja de São Francisco da Penitência","distancia":407},{"nome":"Igreja e Convento de Santa Teresa","distancia":758},{"nome":"Igreja Nossa Senhora da Candelária","distancia":1002},{"nome":"Igreja Nossa Senhora da Glória do Outeiro","distancia":1300},{"nome":"Igreja Nossa Senhora do Carmo da Antiga Sé","distancia":733},{"nome":"Ilha Fiscal","distancia":1786},{"nome":"Monumento aos Pracinhas","distancia":803},{"nome":"Mosteiro de São Bento","distancia":1445},{"nome":"Museu de Arte do Rio","distancia":1590},{"nome":"Museu da Chácara do Céu","distancia":1141},{"nome":"Museu da República","distancia":1798},{"nome":"Museu de Arte Moderna","distancia":581},{"nome":"Museu de Folclore Edison Carneiro","distancia":1819},{"nome":"Museu do Clube Naval","distancia":169},{"nome":"Museu Histórico Nacional","distancia":874},{"nome":"Museu Nacional de Belas Artes","distancia":108},{"nome":"Paço Imperial","distancia":729},{"nome":"Palácio Tiradentes","distancia":672},{"nome":"Parque das Ruínas","distancia":1055},{"nome":"Praça Paris","distancia":841},{"nome":"Real Gabinete Português de Leitura","distancia":732},{"nome":"Sala Cecília Meireles","distancia":540},{"nome":"Teatro Carlos Gomes","distancia":657},{"nome":"Teatro Dulcina","distancia":117},{"nome":"Teatro Glauce Rocha","distancia":271},{"nome":"Teatro Glória","distancia":1532},{"nome":"Teatro João Caetano","distancia":681},{"nome":"Teatro Municipal","distancia":47},{"nome":"Teatro Rival Petrobras","distancia":172}]},{"linha":"306","descricao_ponto":"Nome do ponto nao identificado","sequencia":"83","latitude":"-22.9086","longitude":"-43.174","pontos_turisticos":[{"nome":"Academia Brasileira de Letras","distancia":274},{"nome":"Arcos da Lapa","distancia":769},{"nome":"Biblioteca Nacional","distancia":216},{"nome":"Campo de Santana","distancia":1484},{"nome":"Casa França Brasil","distancia":935},{"nome":"Catedral Metropolitana","distancia":735},{"nome":"Centro Cultural Banco do Brasil","distancia":926},{"nome":"Centro Cultural dos Correios","distancia":834},{"nome":"Confeitaria Colombo","distancia":617},{"nome":"Espaço Cultural da Marinha","distancia":837},{"nome":"Igreja de São Francisco da Penitência","distancia":571},{"nome":"Igreja e Convento de Santa Teresa","distancia":1016},{"nome":"Igreja Nossa Senhora da Candelária","distancia":951},{"nome":"Igreja Nossa Senhora da Glória do Outeiro","distancia":1422},{"nome":"Igreja Nossa Senhora do Carmo da Antiga Sé","distancia":610},{"nome":"Ilha Fiscal","distancia":1527},{"nome":"Monumento aos Pracinhas","distancia":878},{"nome":"Mosteiro de São Bento","distancia":1377},{"nome":"Museu de Arte do Rio","distancia":1593},{"nome":"Museu da Chácara do Céu","distancia":1422},{"nome":"Museu da República","distancia":1936},{"nome":"Museu de Arte Moderna","distancia":586},{"nome":"Museu de Folclore Edison Carneiro","distancia":1956},{"nome":"Museu do Clube Naval","distancia":272},{"nome":"Museu Histórico Nacional","distancia":576},{"nome":"Museu Nacional de Belas Artes","distancia":217},{"nome":"Paço Imperial","distancia":563},{"nome":"Palácio Tiradentes","distancia":500},{"nome":"Parque das Ruínas","distancia":1321},{"nome":"Praça Paris","distancia":977},{"nome":"Real Gabinete Português de Leitura","distancia":907},{"nome":"Sala Cecília Meireles","distancia":772},{"nome":"Teatro Carlos Gomes","distancia":886},{"nome":"Teatro Dulcina","distancia":391},{"nome":"Teatro Glauce Rocha","distancia":316},{"nome":"Teatro Glória","distancia":1604},{"nome":"Teatro João Caetano","distancia":884},{"nome":"Teatro Municipal","distancia":260},{"nome":"Teatro Rival Petrobras","distancia":370}]},{"linha":"306","descricao_ponto":"BRS 2, 6, 7 - VIANA DRUMMOND","sequencia":"20","latitude":"-22.9169","longitude":"-43.256","pontos_turisticos":[]},{"linha":"306","descricao_ponto":"Avenida Menezes Cortes próximo ao 37","sequencia":"34","latitude":"-22.9229","longitude":"-43.2825","pontos_turisticos":[]},{"linha":"306","descricao_ponto":"Estrada Do Tindiba próximo ao 1428","sequencia":"60","latitude":"-22.9271","longitude":"-43.3673","pontos_turisticos":[]},{"linha":"306","descricao_ponto":"Avenida Nelson Cardoso próximo ao 1270","sequencia":"67","latitude":"-22.9208","longitude":"-43.3696","pontos_turisticos":[]},{"linha":"306","descricao_ponto":"Rua Pedro Teles próximo ao 279","sequencia":"5","latitude":"-22.8954","longitude":"-43.3475","pontos_turisticos":[]},{"linha":"306","descricao_ponto":"Estrada Do Tindiba próximo ao 945","sequencia":"23","latitude":"-22.9284","longitude":"-43.3631","pontos_turisticos":[]},{"linha":"306","descricao_ponto":"Rua Jose Do Patrocinio próximo ao 2266","sequencia":"50","latitude":"-22.9197","longitude":"-43.2611","pontos_turisticos":[]},{"linha":"306","descricao_ponto":"Avenida Maracana próximo ao 331","sequencia":"68","latitude":"-22.9132","longitude":"-43.2271","pontos_turisticos":[{"nome":"Centro Luiz Gonzaga de Tradições Nordestinas","distancia":1988},{"nome":"Estádio do Maracanã","distancia":409},{"nome":"Jardim Zoológico (Riozoo)","distancia":995},{"nome":"Quinta da Boa Vista/Museu Nacional","distancia":892},{"nome":"Teatro Mário Lago","distancia":1685},{"nome":"Teatro Noel Rosa","distancia":1112},{"nome":"Teatro Odylo Costa Filho","distancia":861},{"nome":"Teatro Ziembinski","distancia":921}]},{"linha":"306","descricao_ponto":"Nome do ponto nao identificado","sequencia":"78","latitude":"-22.9028","longitude":"-43.1831","pontos_turisticos":[{"nome":"Academia Brasileira de Letras","distancia":1372},{"nome":"Arcos da Lapa","distancia":1166},{"nome":"Biblioteca Nacional","distancia":1085},{"nome":"Campo de Santana","distancia":687},{"nome":"Casa França Brasil","distancia":776},{"nome":"Catedral Metropolitana","distancia":931},{"nome":"Centro Cultural Banco do Brasil","distancia":717},{"nome":"Centro Cultural dos Correios","distancia":762},{"nome":"Cidade do Samba","distancia":1708},{"nome":"Confeitaria Colombo","distancia":518},{"nome":"Espaço Cultural da Marinha","distancia":907},{"nome":"Igreja de São Francisco da Penitência","distancia":603},{"nome":"Igreja e Convento de Santa Teresa","distancia":1458},{"nome":"Igreja Nossa Senhora da Candelária","distancia":604},{"nome":"Igreja Nossa Senhora do Carmo da Antiga Sé","distancia":804},{"nome":"Ilha Fiscal","distancia":1858},{"nome":"Memorial dos Pretos Novos","distancia":1257},{"nome":"Monumento aos Pracinhas","distancia":1782},{"nome":"Mosteiro de São Bento","distancia":859},{"nome":"Museu de Arte do Rio","distancia":750},{"nome":"Museu da Chácara do Céu","distancia":1621},{"nome":"Museu de Arte Moderna","distancia":1590},{"nome":"Museu do Clube Naval","distancia":894},{"nome":"Museu Histórico Nacional","distancia":1432},{"nome":"Museu Nacional de Belas Artes","distancia":987},{"nome":"Paço Imperial","distancia":909},{"nome":"Palácio Tiradentes","distancia":920},{"nome":"Parque das Ruínas","distancia":1643},{"nome":"Praça Paris","distancia":1768},{"nome":"Real Gabinete Português de Leitura","distancia":311},{"nome":"Sala Cecília Meireles","distancia":1377},{"nome":"Sambódromo","distancia":1706},{"nome":"Teatro Carlos Gomes","distancia":495},{"nome":"Teatro Dulcina","distancia":1075},{"nome":"Teatro Glauce Rocha","distancia":820},{"nome":"Teatro João Caetano","distancia":408},{"nome":"Teatro Municipal","distancia":1005},{"nome":"Teatro Rival Petrobras","distancia":1167}]},{"linha":"306","descricao_ponto":"Estrada Do Pau Ferro próximo ao 427","sequencia":"48","latitude":"-22.9275","longitude":"-43.3433","pontos_turisticos":[]},{"linha":"306","descricao_ponto":"Avenida Professor Manoel De Abreu próximo ao 1","sequencia":"12","latitude":"-22.9117","longitude":"-43.234","pontos_turisticos":[{"nome":"Estádio do Maracanã","distancia":367},{"nome":"Jardim Zoológico (Riozoo)","distancia":970},{"nome":"Quinta da Boa Vista/Museu Nacional","distancia":1165},{"nome":"Teatro Mário Lago","distancia":1937},{"nome":"Teatro Noel Rosa","distancia":386},{"nome":"Teatro Odylo Costa Filho","distancia":163},{"nome":"Teatro Ziembinski","distancia":1457}]},{"linha":"306","descricao_ponto":"Estrada Do Pau Ferro próximo ao 1395","sequencia":"43","latitude":"-22.9312","longitude":"-43.3322","pontos_turisticos":[]},{"linha":"306","descricao_ponto":"Estrada Do Pau Ferro próximo ao 773","sequencia":"44","latitude":"-22.9283","longitude":"-43.334","pontos_turisticos":[]},{"linha":"306","descricao_ponto":"Estrada Do Pau Ferro próximo ao 749","sequencia":"45","latitude":"-22.9277","longitude":"-43.3368","pontos_turisticos":[]},{"linha":"306","descricao_ponto":"Avenida Nelson Cardoso próximo ao 141","sequencia":"70","latitude":"-22.9174","longitude":"-43.3632","pontos_turisticos":[]},{"linha":"306","descricao_ponto":"Estrada Cafunda próximo ao 238","sequencia":"17","latitude":"-22.9182","longitude":"-43.3671","pontos_turisticos":[]},{"linha":"306","descricao_ponto":"Avenida Menezes Cortes próximo ao 159","sequencia":"46","latitude":"-22.9155","longitude":"-43.2707","pontos_turisticos":[]},{"linha":"306","descricao_ponto":"BRS 4, 5, I - MENDES TAVARES","sequencia":"19","latitude":"-22.9165","longitude":"-43.2537","pontos_turisticos":[{"nome":"Teatro Noel Rosa","distancia":1768}]},{"linha":"306","descricao_ponto":"Nome do ponto nao identificado","sequencia":"22","latitude":"-22.917","longitude":"-43.2596","pontos_turisticos":[]},{"linha":"306","descricao_ponto":"Avenida Menezes Cortes próximo ao 2426","sequencia":"36","latitude":"-22.9252","longitude":"-43.2854","pontos_turisticos":[]},{"linha":"306","descricao_ponto":"Estrada Do Tindiba próximo ao 1428","sequencia":"22","latitude":"-22.9271","longitude":"-43.3672","pontos_turisticos":[]},{"linha":"306","descricao_ponto":"Rua Teixeira Soares próximo ao 139","sequencia":"71","latitude":"-22.9107","longitude":"-43.2182","pontos_turisticos":[{"nome":"Centro Luiz Gonzaga de Tradições Nordestinas","distancia":1549},{"nome":"Estádio do Maracanã","distancia":1357},{"nome":"Jardim Zoológico (Riozoo)","distancia":1294},{"nome":"Quinta da Boa Vista/Museu Nacional","distancia":900},{"nome":"Teatro Mário Lago","distancia":1310},{"nome":"Teatro Noel Rosa","distancia":1989},{"nome":"Teatro Odylo Costa Filho","distancia":1721},{"nome":"Teatro Ziembinski","distancia":1281}]},{"linha":"306","descricao_ponto":"BRS 4, 5, I - BARÃO DE DRUMMOND","sequencia":"17","latitude":"-22.9164","longitude":"-43.2495","pontos_turisticos":[{"nome":"Estádio do Maracanã","distancia":1913},{"nome":"Teatro Noel Rosa","distancia":1371},{"nome":"Teatro Odylo Costa Filho","distancia":1621}]},{"linha":"306","descricao_ponto":"BRS 2, 6, 7 - HIPÓLITO DA COSTA","sequencia":"14","latitude":"-22.9145","longitude":"-43.2397","pontos_turisticos":[{"nome":"Estádio do Maracanã","distancia":890},{"nome":"Jardim Zoológico (Riozoo)","distancia":1583},{"nome":"Quinta da Boa Vista/Museu Nacional","distancia":1821},{"nome":"Teatro Noel Rosa","distancia":470},{"nome":"Teatro Odylo Costa Filho","distancia":651},{"nome":"Teatro Ziembinski","distancia":1768}]},{"linha":"306","descricao_ponto":"BRS 4, 5 - PRAÇA ONZE","sequencia":"74","latitude":"-22.9077","longitude":"-43.1982","pontos_turisticos":[{"nome":"Arcos da Lapa","distancia":1960},{"nome":"Campo de Santana","distancia":1017},{"nome":"Catedral Metropolitana","distancia":1824},{"nome":"Cidade do Samba","distancia":1491},{"nome":"Igreja de São Francisco da Penitência","distancia":1942},{"nome":"Memorial dos Pretos Novos","distancia":1400},{"nome":"Museu da Chácara do Céu","distancia":1796},{"nome":"Parque das Ruínas","distancia":1949},{"nome":"Real Gabinete Português de Leitura","distancia":1660},{"nome":"Sambódromo","distancia":442},{"nome":"Teatro Carlos Gomes","distancia":1607},{"nome":"Teatro João Caetano","distancia":1636}]},{"linha":"306","descricao_ponto":"BRS 4, 5 - RUA DE SANTANA","sequencia":"75","latitude":"-22.9067","longitude":"-43.195","pontos_turisticos":[{"nome":"Arcos da Lapa","distancia":1691},{"nome":"Campo de Santana","distancia":683},{"nome":"Catedral Metropolitana","distancia":1534},{"nome":"Cidade do Samba","distancia":1390},{"nome":"Confeitaria Colombo","distancia":1667},{"nome":"Igreja de São Francisco da Penitência","distancia":1612},{"nome":"Igreja e Convento de Santa Teresa","distancia":1805},{"nome":"Igreja Nossa Senhora da Candelária","distancia":1898},{"nome":"Memorial dos Pretos Novos","distancia":1200},{"nome":"Museu de Arte do Rio","distancia":1793},{"nome":"Museu da Chácara do Céu","distancia":1625},{"nome":"Museu do Clube Naval","distancia":1890},{"nome":"Museu Nacional de Belas Artes","distancia":1952},{"nome":"Parque das Ruínas","distancia":1763},{"nome":"Real Gabinete Português de Leitura","distancia":1321},{"nome":"Sala Cecília Meireles","distancia":1916},{"nome":"Sambódromo","distancia":563},{"nome":"Teatro Carlos Gomes","distancia":1280},{"nome":"Teatro Dulcina","distancia":1891},{"nome":"Teatro Glauce Rocha","distancia":1873},{"nome":"Teatro João Caetano","distancia":1302},{"nome":"Teatro Municipal","distancia":1930},{"nome":"Teatro Rival Petrobras","distancia":1983}]},{"linha":"306","descricao_ponto":"Nome do ponto nao identificado","sequencia":"77","latitude":"-22.9039","longitude":"-43.1866","pontos_turisticos":[{"nome":"Academia Brasileira de Letras","distancia":1597},{"nome":"Arcos da Lapa","distancia":1210},{"nome":"Biblioteca Nacional","distancia":1294},{"nome":"Campo de Santana","distancia":355},{"nome":"Casa França Brasil","distancia":1155},{"nome":"Catedral Metropolitana","distancia":983},{"nome":"Centro Cultural Banco do Brasil","distancia":1096},{"nome":"Centro Cultural dos Correios","distancia":1140},{"nome":"Cidade do Samba","distancia":1506},{"nome":"Confeitaria Colombo","distancia":813},{"nome":"Espaço Cultural da Marinha","distancia":1284},{"nome":"Igreja de São Francisco da Penitência","distancia":823},{"nome":"Igreja e Convento de Santa Teresa","distancia":1458},{"nome":"Igreja Nossa Senhora da Candelária","distancia":983},{"nome":"Igreja Nossa Senhora do Carmo da Antiga Sé","distancia":1163},{"nome":"Memorial dos Pretos Novos","distancia":1087},{"nome":"Monumento aos Pracinhas","distancia":1901},{"nome":"Mosteiro de São Bento","distancia":1196},{"nome":"Museu de Arte do Rio","distancia":993},{"nome":"Museu da Chácara do Céu","distancia":1516},{"nome":"Museu de Arte Moderna","distancia":1760},{"nome":"Museu do Clube Naval","distancia":1128},{"nome":"Museu Histórico Nacional","distancia":1767},{"nome":"Museu Nacional de Belas Artes","distancia":1211},{"nome":"Paço Imperial","distancia":1264},{"nome":"Palácio Tiradentes","distancia":1268},{"nome":"Parque das Ruínas","distancia":1577},{"nome":"Praça Paris","distancia":1847},{"nome":"Real Gabinete Português de Leitura","distancia":486},{"nome":"Sala Cecília Meireles","distancia":1444},{"nome":"Sambódromo","distancia":1345},{"nome":"Teatro Carlos Gomes","distancia":558},{"nome":"Teatro Dulcina","distancia":1236},{"nome":"Teatro Glauce Rocha","distancia":1078},{"nome":"Teatro João Caetano","distancia":521},{"nome":"Teatro Municipal","distancia":1211},{"nome":"Teatro Rival Petrobras","distancia":1334}]},{"linha":"306","descricao_ponto":"Estrada Do Tindiba próximo ao 845","sequencia":"57","latitude":"-22.9275","longitude":"-43.3615","pontos_turisticos":[]},{"linha":"306","descricao_ponto":"Rua Candido Benicio próximo ao 2935","sequencia":"76","latitude":"-22.9033","longitude":"-43.3561","pontos_turisticos":[]},{"linha":"306","descricao_ponto":"Rua Candido Benicio próximo ao 12","sequencia":"9","latitude":"-22.8961","longitude":"-43.3509","pontos_turisticos":[]},{"linha":"306","descricao_ponto":"Avenida Nelson Cardoso próximo ao 330","sequencia":"16","latitude":"-22.9179","longitude":"-43.3643","pontos_turisticos":[]},{"linha":"306","descricao_ponto":"Estrada Do Tindiba próximo ao 845","sequencia":"24","latitude":"-22.9276","longitude":"-43.3616","pontos_turisticos":[]},{"linha":"306","descricao_ponto":"Estrada Do Pau Ferro próximo ao 240","sequencia":"28","latitude":"-22.9268","longitude":"-43.3489","pontos_turisticos":[]},{"linha":"306","descricao_ponto":"Avenida Menezes Cortes próximo ao 4612","sequencia":"39","latitude":"-22.9254","longitude":"-43.2879","pontos_turisticos":[]},{"linha":"306","descricao_ponto":"Nome do ponto nao identificado","sequencia":"52","latitude":"-22.9197","longitude":"-43.2573","pontos_turisticos":[]},{"linha":"306","descricao_ponto":"Rua Teixeira Soares próximo ao 1","sequencia":"72","latitude":"-22.9114","longitude":"-43.2144","pontos_turisticos":[{"nome":"Centro Luiz Gonzaga de Tradições Nordestinas","distancia":1700},{"nome":"Estádio do Maracanã","distancia":1725},{"nome":"Jardim Zoológico (Riozoo)","distancia":1670},{"nome":"Quinta da Boa Vista/Museu Nacional","distancia":1262},{"nome":"Sambódromo","distancia":1799},{"nome":"Teatro Mário Lago","distancia":1511},{"nome":"Teatro Ziembinski","distancia":1441}]},{"linha":"306","descricao_ponto":"BRS 2 - OUVIDOR","sequencia":"79","latitude":"-22.9035","longitude":"-43.1783","pontos_turisticos":[{"nome":"Academia Brasileira de Letras","distancia":985},{"nome":"Arcos da Lapa","distancia":1055},{"nome":"Biblioteca Nacional","distancia":747},{"nome":"Campo de Santana","distancia":1086},{"nome":"Casa França Brasil","distancia":419},{"nome":"Catedral Metropolitana","distancia":858},{"nome":"Centro Cultural Banco do Brasil","distancia":370},{"nome":"Centro Cultural dos Correios","distancia":352},{"nome":"Confeitaria Colombo","distancia":201},{"nome":"Espaço Cultural da Marinha","distancia":477},{"nome":"Igreja de São Francisco da Penitência","distancia":391},{"nome":"Igreja e Convento de Santa Teresa","distancia":1367},{"nome":"Igreja Nossa Senhora da Candelária","distancia":315},{"nome":"Igreja Nossa Senhora do Carmo da Antiga Sé","distancia":312},{"nome":"Ilha Fiscal","distancia":1446},{"nome":"Memorial dos Pretos Novos","distancia":1714},{"nome":"Monumento aos Pracinhas","distancia":1509},{"nome":"Mosteiro de São Bento","distancia":752},{"nome":"Museu de Arte do Rio","distancia":887},{"nome":"Museu da Chácara do Céu","distancia":1651},{"nome":"Museu de Arte Moderna","distancia":1260},{"nome":"Museu do Clube Naval","distancia":548},{"nome":"Museu Histórico Nacional","distancia":935},{"nome":"Museu Nacional de Belas Artes","distancia":641},{"nome":"Paço Imperial","distancia":413},{"nome":"Palácio Tiradentes","distancia":423},{"nome":"Parque das Ruínas","distancia":1620},{"nome":"Praça Paris","distancia":1547},{"nome":"Real Gabinete Português de Leitura","distancia":453},{"nome":"Sala Cecília Meireles","distancia":1206},{"nome":"Teatro Carlos Gomes","distancia":598},{"nome":"Teatro Dulcina","distancia":811},{"nome":"Teatro Glauce Rocha","distancia":449},{"nome":"Teatro João Caetano","distancia":520},{"nome":"Teatro Municipal","distancia":684},{"nome":"Teatro Rival Petrobras","distancia":881}]},{"linha":"306","descricao_ponto":"BRS 3A, 5 - PRAÇA ONZE","sequencia":"7","latitude":"-22.9077","longitude":"-43.1997","pontos_turisticos":[{"nome":"Campo de Santana","distancia":1170},{"nome":"Catedral Metropolitana","distancia":1975},{"nome":"Cidade do Samba","distancia":1511},{"nome":"Memorial dos Pretos Novos","distancia":1466},{"nome":"Museu da Chácara do Céu","distancia":1921},{"nome":"Real Gabinete Português de Leitura","distancia":1813},{"nome":"Sambódromo","distancia":512},{"nome":"Teatro Carlos Gomes","distancia":1761},{"nome":"Teatro João Caetano","distancia":1789}]},{"linha":"306","descricao_ponto":"Avenida Menezes Cortes próximo ao 752","sequencia":"33","latitude":"-22.9188","longitude":"-43.2841","pontos_turisticos":[]},{"linha":"306","descricao_ponto":"Estrada Do Pau Ferro próximo ao 343","sequencia":"50","latitude":"-22.9267","longitude":"-43.3486","pontos_turisticos":[]},{"linha":"306","descricao_ponto":"Rua Candido Benicio próximo ao 2411","sequencia":"77","latitude":"-22.9018","longitude":"-43.3551","pontos_turisticos":[]},{"linha":"306","descricao_ponto":"Rua Luiz Guimaraes próximo ao 923","sequencia":"51","latitude":"-22.92","longitude":"-43.2589","pontos_turisticos":[]},{"linha":"306","descricao_ponto":"Nome do ponto nao identificado","sequencia":"58","latitude":"-22.9177","longitude":"-43.2465","pontos_turisticos":[{"nome":"Estádio do Maracanã","distancia":1645},{"nome":"Teatro Noel Rosa","distancia":1195},{"nome":"Teatro Odylo Costa Filho","distancia":1421}]},{"linha":"306","descricao_ponto":"Avenida Maracana próximo ao S/n","sequencia":"69","latitude":"-22.9114","longitude":"-43.2248","pontos_turisticos":[{"nome":"Centro Luiz Gonzaga de Tradições Nordestinas","distancia":1716},{"nome":"Estádio do Maracanã","distancia":687},{"nome":"Jardim Zoológico (Riozoo)","distancia":881},{"nome":"Quinta da Boa Vista/Museu Nacional","distancia":663},{"nome":"Teatro Mário Lago","distancia":1418},{"nome":"Teatro Noel Rosa","distancia":1315},{"nome":"Teatro Odylo Costa Filho","distancia":1049},{"nome":"Teatro Ziembinski","distancia":1065}]},{"linha":"306","descricao_ponto":"Rua Candido Benicio próximo ao 3985","sequencia":"71","latitude":"-22.9151","longitude":"-43.3607","pontos_turisticos":[]},{"linha":"306","descricao_ponto":"Rua Candido Benicio próximo ao 3650","sequencia":"14","latitude":"-22.9118","longitude":"-43.3604","pontos_turisticos":[]},{"linha":"306","descricao_ponto":"Rua Dona Zulmira próximo ao 244","sequencia":"64","latitude":"-22.9144","longitude":"-43.2336","pontos_turisticos":[{"nome":"Estádio do Maracanã","distancia":274},{"nome":"Jardim Zoológico (Riozoo)","distancia":1216},{"nome":"Quinta da Boa Vista/Museu Nacional","distancia":1338},{"nome":"Teatro Noel Rosa","distancia":579},{"nome":"Teatro Odylo Costa Filho","distancia":451},{"nome":"Teatro Ziembinski","distancia":1230}]},{"linha":"306","descricao_ponto":"Avenida Maracana próximo ao 467","sequencia":"67","latitude":"-22.9156","longitude":"-43.2291","pontos_turisticos":[{"nome":"Estádio do Maracanã","distancia":300},{"nome":"Jardim Zoológico (Riozoo)","distancia":1246},{"nome":"Quinta da Boa Vista/Museu Nacional","distancia":1209},{"nome":"Teatro Noel Rosa","distancia":1027},{"nome":"Teatro Odylo Costa Filho","distancia":824},{"nome":"Teatro Ziembinski","distancia":797}]},{"linha":"306","descricao_ponto":"BRS 1,2,3 - OUVIDOR","sequencia":"3","latitude":"-22.9027","longitude":"-43.1756","pontos_turisticos":[{"nome":"Academia Brasileira de Letras","distancia":948},{"nome":"Arcos da Lapa","distancia":1214},{"nome":"Biblioteca Nacional","distancia":786},{"nome":"Campo de Santana","distancia":1377},{"nome":"Casa França Brasil","distancia":259},{"nome":"Catedral Metropolitana","distancia":1051},{"nome":"Centro Cultural Banco do Brasil","distancia":251},{"nome":"Centro Cultural dos Correios","distancia":159},{"nome":"Confeitaria Colombo","distancia":434},{"nome":"Espaço Cultural da Marinha","distancia":215},{"nome":"Igreja de São Francisco da Penitência","distancia":600},{"nome":"Igreja e Convento de Santa Teresa","distancia":1519},{"nome":"Igreja Nossa Senhora da Candelária","distancia":303},{"nome":"Igreja Nossa Senhora do Carmo da Antiga Sé","distancia":69},{"nome":"Ilha Fiscal","distancia":1164},{"nome":"Memorial dos Pretos Novos","distancia":1925},{"nome":"Monumento aos Pracinhas","distancia":1542},{"nome":"Mosteiro de São Bento","distancia":702},{"nome":"Museu de Arte do Rio","distancia":960},{"nome":"Museu da Chácara do Céu","distancia":1848},{"nome":"Museu de Arte Moderna","distancia":1260},{"nome":"Museu do Clube Naval","distancia":618},{"nome":"Museu Histórico Nacional","distancia":706},{"nome":"Museu Nacional de Belas Artes","distancia":691},{"nome":"Paço Imperial","distancia":166},{"nome":"Palácio Tiradentes","distancia":210},{"nome":"Parque das Ruínas","distancia":1796},{"nome":"Praça Paris","distancia":1615},{"nome":"Real Gabinete Português de Leitura","distancia":740},{"nome":"Sala Cecília Meireles","distancia":1323},{"nome":"Teatro Carlos Gomes","distancia":869},{"nome":"Teatro Dulcina","distancia":902},{"nome":"Teatro Glauce Rocha","distancia":521},{"nome":"Teatro João Caetano","distancia":799},{"nome":"Teatro Municipal","distancia":748},{"nome":"Teatro Rival Petrobras","distancia":947}]},{"linha":"306","descricao_ponto":"Avenida Oswaldo Aranha próximo ao 714","sequencia":"11","latitude":"-22.9106","longitude":"-43.2235","pontos_turisticos":[{"nome":"Centro Luiz Gonzaga de Tradições Nordestinas","distancia":1592},{"nome":"Estádio do Maracanã","distancia":844},{"nome":"Jardim Zoológico (Riozoo)","distancia":879},{"nome":"Quinta da Boa Vista/Museu Nacional","distancia":591},{"nome":"Teatro Mário Lago","distancia":1299},{"nome":"Teatro Noel Rosa","distancia":1446},{"nome":"Teatro Odylo Costa Filho","distancia":1178},{"nome":"Teatro Ziembinski","distancia":1151}]},{"linha":"306","descricao_ponto":"Estrada Do Pau Ferro próximo ao 635","sequencia":"52","latitude":"-22.9285","longitude":"-43.353","pontos_turisticos":[]},{"linha":"306","descricao_ponto":"Estrada Do Tindiba próximo ao 62","sequencia":"25","latitude":"-22.9278","longitude":"-43.3584","pontos_turisticos":[]},{"linha":"306","descricao_ponto":"Nome do ponto nao identificado","sequencia":"61","latitude":"-22.9167","longitude":"-43.2411","pontos_turisticos":[{"nome":"Estádio do Maracanã","distancia":1084},{"nome":"Jardim Zoológico (Riozoo)","distancia":1859},{"nome":"Teatro Noel Rosa","distancia":754},{"nome":"Teatro Odylo Costa Filho","distancia":926},{"nome":"Teatro Ziembinski","distancia":1822}]},{"linha":"306","descricao_ponto":"BRS 4, 5, I - SOUZA FRANCO","sequencia":"16","latitude":"-22.9158","longitude":"-43.2464","pontos_turisticos":[{"nome":"Estádio do Maracanã","distancia":1589},{"nome":"Teatro Noel Rosa","distancia":1062},{"nome":"Teatro Odylo Costa Filho","distancia":1305}]},{"linha":"306","descricao_ponto":"Avenida Menezes Cortes próximo ao 2593","sequencia":"39","latitude":"-22.925","longitude":"-43.3151","pontos_turisticos":[]},{"linha":"306","descricao_ponto":"Estrada Do Tindiba próximo ao 666","sequencia":"21","latitude":"-22.9255","longitude":"-43.3695","pontos_turisticos":[]},{"linha":"306","descricao_ponto":"Estrada Do Tindiba próximo ao 173","sequencia":"26","latitude":"-22.9285","longitude":"-43.3563","pontos_turisticos":[]},{"linha":"306","descricao_ponto":"Avenida Menezes Cortes próximo ao 3817","sequencia":"40","latitude":"-22.9243","longitude":"-43.2836","pontos_turisticos":[]},{"linha":"306","descricao_ponto":"BRS 2, 4 - CIDADE NOVA","sequencia":"8","latitude":"-22.9098","longitude":"-43.2061","pontos_turisticos":[{"nome":"Campo de Santana","distancia":1853},{"nome":"Centro Luiz Gonzaga de Tradições Nordestinas","distancia":1981},{"nome":"Cidade do Samba","distancia":1955},{"nome":"Quinta da Boa Vista/Museu Nacional","distancia":1984},{"nome":"Sambódromo","distancia":967},{"nome":"Teatro Mário Lago","distancia":1918}]},{"linha":"306","descricao_ponto":"Avenida Menezes Cortes próximo ao 517","sequencia":"26","latitude":"-22.9153","longitude":"-43.2686","pontos_turisticos":[]},{"linha":"306","descricao_ponto":"Estrada Do Pau Ferro próximo ao 121","sequencia":"51","latitude":"-22.9279","longitude":"-43.3516","pontos_turisticos":[]},{"linha":"306","descricao_ponto":"Avenida Geremario Dantas próximo ao 1207","sequencia":"54","latitude":"-22.9259","longitude":"-43.3568","pontos_turisticos":[]},{"linha":"306","descricao_ponto":"Rua Candido Benicio próximo ao 3815","sequencia":"72","latitude":"-22.9135","longitude":"-43.3605","pontos_turisticos":[]},{"linha":"306","descricao_ponto":"Rua Candido Benicio próximo ao 1270","sequencia":"7","latitude":"-22.8934","longitude":"-43.349","pontos_turisticos":[]},{"linha":"306","descricao_ponto":"Avenida Menezes Cortes próximo ao 159","sequencia":"27","latitude":"-22.9154","longitude":"-43.2706","pontos_turisticos":[]}]