[{"linha":"321","descricao_ponto":"Avenida Doutor Agenor De Almeida Loyola próximo ao 1163","sequencia":"1","latitude":"-22.7878","longitude":"-43.1759","pontos_turisticos":[]},{"linha":"321","descricao_ponto":"Estrada Do Galeao próximo ao 50","sequencia":"22","latitude":"-22.8214","longitude":"-43.2287","pontos_turisticos":[]},{"linha":"321","descricao_ponto":"Estrada Do Dende próximo ao 678","sequencia":"10","latitude":"-22.7981","longitude":"-43.1901","pontos_turisticos":[]},{"linha":"321","descricao_ponto":"Estrada Do Dende próximo ao 955","sequencia":"11","latitude":"-22.7977","longitude":"-43.1924","pontos_turisticos":[]},{"linha":"321","descricao_ponto":"Rua Carmo Neto próximo ao 224","sequencia":"29","latitude":"-22.9114","longitude":"-43.1995","pontos_turisticos":[{"nome":"Campo de Santana","distancia":1259},{"nome":"Catedral Metropolitana","distancia":1924},{"nome":"Cidade do Samba","distancia":1914},{"nome":"Memorial dos Pretos Novos","distancia":1831},{"nome":"Museu da Chácara do Céu","distancia":1707},{"nome":"Parque das Ruínas","distancia":1875},{"nome":"Real Gabinete Português de Leitura","distancia":1894},{"nome":"Sambódromo","distancia":273},{"nome":"Teatro Carlos Gomes","distancia":1800},{"nome":"Teatro João Caetano","distancia":1849}]},{"linha":"321","descricao_ponto":"Avenida Doutor Agenor De Almeida Loyola próximo ao 817","sequencia":"2","latitude":"-22.7893","longitude":"-43.1786","pontos_turisticos":[]},{"linha":"321","descricao_ponto":"Estrada Do Galeao próximo ao 2415","sequencia":"17","latitude":"-22.8045","longitude":"-43.2068","pontos_turisticos":[]},{"linha":"321","descricao_ponto":"Estrada Do Galeao próximo ao 4001","sequencia":"19","latitude":"-22.8114","longitude":"-43.2176","pontos_turisticos":[]},{"linha":"321","descricao_ponto":"BRS 1, 2, 3, 4 - CRUZ VERMELHA","sequencia":"32","latitude":"-22.9122","longitude":"-43.1893","pontos_turisticos":[{"nome":"Academia Brasileira de Letras","distancia":1679},{"nome":"Arcos da Lapa","distancia":965},{"nome":"Biblioteca Nacional","distancia":1420},{"nome":"Campo de Santana","distancia":623},{"nome":"Casa França Brasil","distancia":1893},{"nome":"Catedral Metropolitana","distancia":890},{"nome":"Centro Cultural Banco do Brasil","distancia":1837},{"nome":"Centro Cultural dos Correios","distancia":1836},{"nome":"Confeitaria Colombo","distancia":1324},{"nome":"Espaço Cultural da Marinha","distancia":1960},{"nome":"Igreja de São Francisco da Penitência","distancia":1185},{"nome":"Igreja e Convento de Santa Teresa","distancia":998},{"nome":"Igreja Nossa Senhora da Candelária","distancia":1747},{"nome":"Igreja Nossa Senhora da Glória do Outeiro","distancia":1753},{"nome":"Igreja Nossa Senhora do Carmo da Antiga Sé","distancia":1749},{"nome":"Memorial dos Pretos Novos","distancia":1832},{"nome":"Monumento aos Pracinhas","distancia":1633},{"nome":"Museu de Arte do Rio","distancia":1943},{"nome":"Museu da Chácara do Céu","distancia":779},{"nome":"Museu de Arte Moderna","distancia":1658},{"nome":"Museu do Clube Naval","distancia":1374},{"nome":"Museu Nacional de Belas Artes","distancia":1401},{"nome":"Paço Imperial","distancia":1816},{"nome":"Palácio Tiradentes","distancia":1787},{"nome":"Parque das Ruínas","distancia":920},{"nome":"Praça Paris","distancia":1488},{"nome":"Real Gabinete Português de Leitura","distancia":1046},{"nome":"Sala Cecília Meireles","distancia":1158},{"nome":"Sambódromo","distancia":776},{"nome":"Teatro Carlos Gomes","distancia":888},{"nome":"Teatro Dulcina","distancia":1265},{"nome":"Teatro Glauce Rocha","distancia":1400},{"nome":"Teatro João Caetano","distancia":966},{"nome":"Teatro Municipal","distancia":1359},{"nome":"Teatro Rival Petrobras","distancia":1340}]},{"linha":"321","descricao_ponto":"BRS 1, 2, 3, 4 - MARQUÊS DE SAPUCAÍ","sequencia":"31","latitude":"-22.9141","longitude":"-43.1963","pontos_turisticos":[{"nome":"Arcos da Lapa","distancia":1684},{"nome":"Campo de Santana","distancia":1161},{"nome":"Catedral Metropolitana","distancia":1634},{"nome":"Igreja de São Francisco da Penitência","distancia":1920},{"nome":"Igreja e Convento de Santa Teresa","distancia":1647},{"nome":"Museu da Chácara do Céu","distancia":1297},{"nome":"Parque das Ruínas","distancia":1469},{"nome":"Real Gabinete Português de Leitura","distancia":1737},{"nome":"Sala Cecília Meireles","distancia":1851},{"nome":"Sambódromo","distancia":298},{"nome":"Santa Teresa","distancia":1992},{"nome":"Teatro Carlos Gomes","distancia":1605},{"nome":"Teatro João Caetano","distancia":1672}]},{"linha":"321","descricao_ponto":"Estrada De Tubiacanga próximo ao 59","sequencia":"13","latitude":"-22.7982","longitude":"-43.1956","pontos_turisticos":[]},{"linha":"321","descricao_ponto":"Avenida Paranapuam próximo ao 1453","sequencia":"7","latitude":"-22.7963","longitude":"-43.1836","pontos_turisticos":[]},{"linha":"321","descricao_ponto":"Estrada Do Galeao próximo ao S/n","sequencia":"25","latitude":"-22.8324","longitude":"-43.2427","pontos_turisticos":[{"nome":"Praia de Ramos","distancia":1055}]},{"linha":"321","descricao_ponto":"Estrada Do Dende próximo ao 440","sequencia":"9","latitude":"-22.7985","longitude":"-43.1878","pontos_turisticos":[]},{"linha":"321","descricao_ponto":"Estrada Do Dende próximo ao 1148","sequencia":"12","latitude":"-22.7972","longitude":"-43.1935","pontos_turisticos":[]},{"linha":"321","descricao_ponto":"Estrada Do Galeao próximo ao S/n","sequencia":"24","latitude":"-22.833","longitude":"-43.2391","pontos_turisticos":[{"nome":"Praia de Ramos","distancia":1320}]},{"linha":"321","descricao_ponto":"Avenida Paranapuam próximo ao 1129","sequencia":"6","latitude":"-22.7952","longitude":"-43.1809","pontos_turisticos":[]},{"linha":"321","descricao_ponto":"Estrada Do Galeao próximo ao 295","sequencia":"16","latitude":"-22.8021","longitude":"-43.2027","pontos_turisticos":[]},{"linha":"321","descricao_ponto":"Estrada Do Galeao próximo ao 2775","sequencia":"18","latitude":"-22.8056","longitude":"-43.212","pontos_turisticos":[]},{"linha":"321","descricao_ponto":"Estrada Do Galeao próximo ao 54","sequencia":"23","latitude":"-22.8254","longitude":"-43.233","pontos_turisticos":[]},{"linha":"321","descricao_ponto":"Avenida Francisco Bicalho próximo ao 344","sequencia":"26","latitude":"-22.9081","longitude":"-43.2099","pontos_turisticos":[{"nome":"Centro Luiz Gonzaga de Tradições Nordestinas","distancia":1585},{"nome":"Jardim Zoológico (Riozoo)","distancia":1981},{"nome":"Quinta da Boa Vista/Museu Nacional","distancia":1563},{"nome":"Sambódromo","distancia":1389},{"nome":"Teatro Mário Lago","distancia":1498}]},{"linha":"321","descricao_ponto":"Avenida Doutor Agenor De Almeida Loyola próximo ao 249","sequencia":"4","latitude":"-22.7928","longitude":"-43.1802","pontos_turisticos":[]},{"linha":"321","descricao_ponto":"Estrada Do Galeao próximo ao 3242","sequencia":"20","latitude":"-22.8153","longitude":"-43.2219","pontos_turisticos":[]},{"linha":"321","descricao_ponto":"Avenida Doutor Agenor De Almeida Loyola próximo ao 485","sequencia":"3","latitude":"-22.7906","longitude":"-43.1809","pontos_turisticos":[]},{"linha":"321","descricao_ponto":"Rua Erico Coelho próximo ao 108","sequencia":"8","latitude":"-22.7979","longitude":"-43.1849","pontos_turisticos":[]},{"linha":"321","descricao_ponto":"BRS 4, 5 - REPÚBLICA DO PARAGUAI","sequencia":"34","latitude":"-22.9088","longitude":"-43.179","pontos_turisticos":[{"nome":"Academia Brasileira de Letras","distancia":659},{"nome":"Arcos da Lapa","distancia":462},{"nome":"Biblioteca Nacional","distancia":356},{"nome":"Campo de Santana","distancia":985},{"nome":"Casa França Brasil","distancia":984},{"nome":"Catedral Metropolitana","distancia":292},{"nome":"Centro Cultural Banco do Brasil","distancia":946},{"nome":"Centro Cultural dos Correios","distancia":896},{"nome":"Confeitaria Colombo","distancia":395},{"nome":"Espaço Cultural da Marinha","distancia":977},{"nome":"Igreja de São Francisco da Penitência","distancia":212},{"nome":"Igreja e Convento de Santa Teresa","distancia":774},{"nome":"Igreja Nossa Senhora da Candelária","distancia":907},{"nome":"Igreja Nossa Senhora da Glória do Outeiro","distancia":1443},{"nome":"Igreja Nossa Senhora do Carmo da Antiga Sé","distancia":727},{"nome":"Ilha Fiscal","distancia":1866},{"nome":"Monumento aos Pracinhas","distancia":994},{"nome":"Mosteiro de São Bento","distancia":1345},{"nome":"Museu de Arte do Rio","distancia":1432},{"nome":"Museu da Chácara do Céu","distancia":1086},{"nome":"Museu da República","distancia":1916},{"nome":"Museu de Arte Moderna","distancia":814},{"nome":"Museu de Folclore Edison Carneiro","distancia":1937},{"nome":"Museu do Clube Naval","distancia":254},{"nome":"Museu Histórico Nacional","distancia":1043},{"nome":"Museu Nacional de Belas Artes","distancia":298},{"nome":"Paço Imperial","distancia":759},{"nome":"Palácio Tiradentes","distancia":715},{"nome":"Parque das Ruínas","distancia":1037},{"nome":"Praça Paris","distancia":991},{"nome":"Real Gabinete Português de Leitura","distancia":493},{"nome":"Sala Cecília Meireles","distancia":622},{"nome":"Sambódromo","distancia":1851},{"nome":"Teatro Carlos Gomes","distancia":401},{"nome":"Teatro Dulcina","distancia":290},{"nome":"Teatro Glauce Rocha","distancia":289},{"nome":"Teatro Glória","distancia":1703},{"nome":"Teatro João Caetano","distancia":430},{"nome":"Teatro Municipal","distancia":276},{"nome":"Teatro Rival Petrobras","distancia":387}]},{"linha":"321","descricao_ponto":"Estrada De Tubiacanga próximo ao 497","sequencia":"14","latitude":"-22.7994","longitude":"-43.1972","pontos_turisticos":[]},{"linha":"321","descricao_ponto":"Estrada De Tubiacanga próximo ao 557","sequencia":"15","latitude":"-22.7999","longitude":"-43.1988","pontos_turisticos":[]},{"linha":"321","descricao_ponto":"Rua Heitor Carrilho próximo ao 65","sequencia":"30","latitude":"-22.9137","longitude":"-43.1995","pontos_turisticos":[{"nome":"Campo de Santana","distancia":1386},{"nome":"Catedral Metropolitana","distancia":1948},{"nome":"Igreja e Convento de Santa Teresa","distancia":1978},{"nome":"Museu da Chácara do Céu","distancia":1625},{"nome":"Parque das Ruínas","distancia":1797},{"nome":"Real Gabinete Português de Leitura","distancia":1997},{"nome":"Sambódromo","distancia":369},{"nome":"Teatro Carlos Gomes","distancia":1882},{"nome":"Teatro João Caetano","distancia":1941}]},{"linha":"321","descricao_ponto":"Avenida Doutor Agenor De Almeida Loyola próximo ao 63","sequencia":"5","latitude":"-22.7947","longitude":"-43.1801","pontos_turisticos":[]},{"linha":"321","descricao_ponto":"Estrada Do Galeao próximo ao 5006","sequencia":"21","latitude":"-22.8181","longitude":"-43.225","pontos_turisticos":[]},{"linha":"321","descricao_ponto":"BRS 1, 2, 4 - INVÁLIDOS","sequencia":"33","latitude":"-22.911","longitude":"-43.1857","pontos_turisticos":[{"nome":"Academia Brasileira de Letras","distancia":1304},{"nome":"Arcos da Lapa","distancia":629},{"nome":"Biblioteca Nacional","distancia":1034},{"nome":"Campo de Santana","distancia":552},{"nome":"Casa França Brasil","distancia":1543},{"nome":"Catedral Metropolitana","distancia":509},{"nome":"Centro Cultural Banco do Brasil","distancia":1490},{"nome":"Centro Cultural dos Correios","distancia":1478},{"nome":"Confeitaria Colombo","distancia":953},{"nome":"Espaço Cultural da Marinha","distancia":1595},{"nome":"Igreja de São Francisco da Penitência","distancia":801},{"nome":"Igreja e Convento de Santa Teresa","distancia":757},{"nome":"Igreja Nossa Senhora da Candelária","distancia":1408},{"nome":"Igreja Nossa Senhora da Glória do Outeiro","distancia":1564},{"nome":"Igreja Nossa Senhora do Carmo da Antiga Sé","distancia":1374},{"nome":"Memorial dos Pretos Novos","distancia":1819},{"nome":"Monumento aos Pracinhas","distancia":1340},{"nome":"Mosteiro de São Bento","distancia":1776},{"nome":"Museu de Arte do Rio","distancia":1698},{"nome":"Museu da Chácara do Céu","distancia":724},{"nome":"Museu da República","distancia":1906},{"nome":"Museu de Arte Moderna","distancia":1317},{"nome":"Museu de Folclore Edison Carneiro","distancia":1925},{"nome":"Museu do Clube Naval","distancia":982},{"nome":"Museu Histórico Nacional","distancia":1772},{"nome":"Museu Nacional de Belas Artes","distancia":1011},{"nome":"Paço Imperial","distancia":1435},{"nome":"Palácio Tiradentes","distancia":1403},{"nome":"Parque das Ruínas","distancia":801},{"nome":"Praça Paris","distancia":1225},{"nome":"Real Gabinete Português de Leitura","distancia":714},{"nome":"Sala Cecília Meireles","distancia":851},{"nome":"Sambódromo","distancia":1142},{"nome":"Teatro Carlos Gomes","distancia":532},{"nome":"Teatro Dulcina","distancia":886},{"nome":"Teatro Glauce Rocha","distancia":1009},{"nome":"Teatro Glória","distancia":1883},{"nome":"Teatro João Caetano","distancia":620},{"nome":"Teatro Municipal","distancia":970},{"nome":"Teatro Rival Petrobras","distancia":967}]}]