[{"linha":"341","descricao_ponto":"Nome do ponto nao identificado","sequencia":"53","latitude":"-22.9008","longitude":"-43.182","pontos_turisticos":[{"nome":"Academia Brasileira de Letras","distancia":1453},{"nome":"Arcos da Lapa","distancia":1359},{"nome":"Biblioteca Nacional","distancia":1189},{"nome":"Campo de Santana","distancia":920},{"nome":"Casa França Brasil","distancia":618},{"nome":"Catedral Metropolitana","distancia":1129},{"nome":"Centro Cultural Banco do Brasil","distancia":562},{"nome":"Centro Cultural dos Correios","distancia":633},{"nome":"Cidade do Samba","distancia":1698},{"nome":"Confeitaria Colombo","distancia":593},{"nome":"Espaço Cultural da Marinha","distancia":774},{"nome":"Igreja de São Francisco da Penitência","distancia":735},{"nome":"Igreja e Convento de Santa Teresa","distancia":1661},{"nome":"Igreja Nossa Senhora da Candelária","distancia":446},{"nome":"Igreja Nossa Senhora do Carmo da Antiga Sé","distancia":741},{"nome":"Ilha Fiscal","distancia":1683},{"nome":"Memorial dos Pretos Novos","distancia":1240},{"nome":"Monumento aos Pracinhas","distancia":1926},{"nome":"Mosteiro de São Bento","distancia":617},{"nome":"Museu de Arte do Rio","distancia":515},{"nome":"Museu da Chácara do Céu","distancia":1853},{"nome":"Museu de Arte Moderna","distancia":1705},{"nome":"Museu do Clube Naval","distancia":989},{"nome":"Museu Histórico Nacional","distancia":1391},{"nome":"Museu Nacional de Belas Artes","distancia":1085},{"nome":"Paço Imperial","distancia":849},{"nome":"Palácio Tiradentes","distancia":877},{"nome":"Parque das Ruínas","distancia":1864},{"nome":"Praça Paris","distancia":1932},{"nome":"Real Gabinete Português de Leitura","distancia":519},{"nome":"Sala Cecília Meireles","distancia":1555},{"nome":"Sambódromo","distancia":1928},{"nome":"Teatro Carlos Gomes","distancia":716},{"nome":"Teatro Dulcina","distancia":1212},{"nome":"Teatro Glauce Rocha","distancia":899},{"nome":"Teatro João Caetano","distancia":622},{"nome":"Teatro Municipal","distancia":1115},{"nome":"Teatro Rival Petrobras","distancia":1297}]},{"linha":"341","descricao_ponto":"Avenida Nelson Cardoso próximo ao 1125","sequencia":"8","latitude":"-22.9221","longitude":"-43.3717","pontos_turisticos":[]},{"linha":"341","descricao_ponto":"Estrada Dos Tres Rios próximo ao 1466","sequencia":"35","latitude":"-22.9352","longitude":"-43.33","pontos_turisticos":[]},{"linha":"341","descricao_ponto":"BRS 2, 4 - CIDADE NOVA","sequencia":"6","latitude":"-22.9098","longitude":"-43.2061","pontos_turisticos":[{"nome":"Campo de Santana","distancia":1853},{"nome":"Centro Luiz Gonzaga de Tradições Nordestinas","distancia":1981},{"nome":"Cidade do Samba","distancia":1955},{"nome":"Quinta da Boa Vista/Museu Nacional","distancia":1984},{"nome":"Sambódromo","distancia":967},{"nome":"Teatro Mário Lago","distancia":1918}]},{"linha":"341","descricao_ponto":"Nome do ponto nao identificado","sequencia":"16","latitude":"-22.9163","longitude":"-43.2523","pontos_turisticos":[{"nome":"Teatro Noel Rosa","distancia":1626},{"nome":"Teatro Odylo Costa Filho","distancia":1883}]},{"linha":"341","descricao_ponto":"Estrada Dos Tres Rios próximo ao 1405","sequencia":"42","latitude":"-22.9354","longitude":"-43.3305","pontos_turisticos":[]},{"linha":"341","descricao_ponto":"Estrada Dos Tres Rios próximo ao 1466","sequencia":"7","latitude":"-22.9352","longitude":"-43.33","pontos_turisticos":[]},{"linha":"341","descricao_ponto":"Avenida Menezes Cortes próximo ao 4612","sequencia":"14","latitude":"-22.9254","longitude":"-43.2879","pontos_turisticos":[]},{"linha":"341","descricao_ponto":"Rua Comte Rubens Silva próximo ao 417","sequencia":"3","latitude":"-22.9386","longitude":"-43.337","pontos_turisticos":[]},{"linha":"341","descricao_ponto":"Rua Jose Do Patrocinio próximo ao 410","sequencia":"24","latitude":"-22.9192","longitude":"-43.2621","pontos_turisticos":[]},{"linha":"341","descricao_ponto":"Rua Teixeira Soares próximo ao 139","sequencia":"46","latitude":"-22.9107","longitude":"-43.2182","pontos_turisticos":[{"nome":"Centro Luiz Gonzaga de Tradições Nordestinas","distancia":1549},{"nome":"Estádio do Maracanã","distancia":1357},{"nome":"Jardim Zoológico (Riozoo)","distancia":1294},{"nome":"Quinta da Boa Vista/Museu Nacional","distancia":900},{"nome":"Teatro Mário Lago","distancia":1310},{"nome":"Teatro Noel Rosa","distancia":1989},{"nome":"Teatro Odylo Costa Filho","distancia":1721},{"nome":"Teatro Ziembinski","distancia":1281}]},{"linha":"341","descricao_ponto":"Estrada Dos Tres Rios próximo ao 1196","sequencia":"34","latitude":"-22.9362","longitude":"-43.3328","pontos_turisticos":[]},{"linha":"341","descricao_ponto":"Avenida Menezes Cortes próximo ao 48800","sequencia":"41","latitude":"-22.9245","longitude":"-43.2919","pontos_turisticos":[]},{"linha":"341","descricao_ponto":"Avenida Menezes Cortes próximo ao 37","sequencia":"44","latitude":"-22.9228","longitude":"-43.2824","pontos_turisticos":[]},{"linha":"341","descricao_ponto":"Nome do ponto nao identificado","sequencia":"61","latitude":"-22.9177","longitude":"-43.2465","pontos_turisticos":[{"nome":"Estádio do Maracanã","distancia":1645},{"nome":"Teatro Noel Rosa","distancia":1195},{"nome":"Teatro Odylo Costa Filho","distancia":1421}]},{"linha":"341","descricao_ponto":"Rua Sao Francisco Xavier próximo ao 367","sequencia":"69","latitude":"-22.916","longitude":"-43.2304","pontos_turisticos":[{"nome":"Estádio do Maracanã","distancia":275},{"nome":"Jardim Zoológico (Riozoo)","distancia":1301},{"nome":"Quinta da Boa Vista/Museu Nacional","distancia":1303},{"nome":"Teatro Noel Rosa","distancia":943},{"nome":"Teatro Odylo Costa Filho","distancia":767},{"nome":"Teatro Ziembinski","distancia":862}]},{"linha":"341","descricao_ponto":"Estrada Dos Tres Rios próximo ao 93","sequencia":"48","latitude":"-22.9395","longitude":"-43.3427","pontos_turisticos":[]},{"linha":"341","descricao_ponto":"Avenida Geremario Dantas próximo ao 827","sequencia":"54","latitude":"-22.9309","longitude":"-43.3534","pontos_turisticos":[]},{"linha":"341","descricao_ponto":"Rua Bacairis próximo ao 2558","sequencia":"72","latitude":"-22.92","longitude":"-43.3725","pontos_turisticos":[]},{"linha":"341","descricao_ponto":"Nome do ponto nao identificado","sequencia":"52","latitude":"-22.9039","longitude":"-43.1866","pontos_turisticos":[{"nome":"Academia Brasileira de Letras","distancia":1597},{"nome":"Arcos da Lapa","distancia":1210},{"nome":"Biblioteca Nacional","distancia":1294},{"nome":"Campo de Santana","distancia":355},{"nome":"Casa França Brasil","distancia":1155},{"nome":"Catedral Metropolitana","distancia":983},{"nome":"Centro Cultural Banco do Brasil","distancia":1096},{"nome":"Centro Cultural dos Correios","distancia":1140},{"nome":"Cidade do Samba","distancia":1506},{"nome":"Confeitaria Colombo","distancia":813},{"nome":"Espaço Cultural da Marinha","distancia":1284},{"nome":"Igreja de São Francisco da Penitência","distancia":823},{"nome":"Igreja e Convento de Santa Teresa","distancia":1458},{"nome":"Igreja Nossa Senhora da Candelária","distancia":983},{"nome":"Igreja Nossa Senhora do Carmo da Antiga Sé","distancia":1163},{"nome":"Memorial dos Pretos Novos","distancia":1087},{"nome":"Monumento aos Pracinhas","distancia":1901},{"nome":"Mosteiro de São Bento","distancia":1196},{"nome":"Museu de Arte do Rio","distancia":993},{"nome":"Museu da Chácara do Céu","distancia":1516},{"nome":"Museu de Arte Moderna","distancia":1760},{"nome":"Museu do Clube Naval","distancia":1128},{"nome":"Museu Histórico Nacional","distancia":1767},{"nome":"Museu Nacional de Belas Artes","distancia":1211},{"nome":"Paço Imperial","distancia":1264},{"nome":"Palácio Tiradentes","distancia":1268},{"nome":"Parque das Ruínas","distancia":1577},{"nome":"Praça Paris","distancia":1847},{"nome":"Real Gabinete Português de Leitura","distancia":486},{"nome":"Sala Cecília Meireles","distancia":1444},{"nome":"Sambódromo","distancia":1345},{"nome":"Teatro Carlos Gomes","distancia":558},{"nome":"Teatro Dulcina","distancia":1236},{"nome":"Teatro Glauce Rocha","distancia":1078},{"nome":"Teatro João Caetano","distancia":521},{"nome":"Teatro Municipal","distancia":1211},{"nome":"Teatro Rival Petrobras","distancia":1334}]},{"linha":"341","descricao_ponto":"Estrada Do Gabinal próximo ao 18","sequencia":"27","latitude":"-22.9408","longitude":"-43.3443","pontos_turisticos":[]},{"linha":"341","descricao_ponto":"Avenida Menezes Cortes próximo ao 1910","sequencia":"48","latitude":"-22.9166","longitude":"-43.2739","pontos_turisticos":[]},{"linha":"341","descricao_ponto":"BRS 3A, 5 - PRAÇA ONZE","sequencia":"5","latitude":"-22.9077","longitude":"-43.1997","pontos_turisticos":[{"nome":"Campo de Santana","distancia":1170},{"nome":"Catedral Metropolitana","distancia":1975},{"nome":"Cidade do Samba","distancia":1511},{"nome":"Memorial dos Pretos Novos","distancia":1466},{"nome":"Museu da Chácara do Céu","distancia":1921},{"nome":"Real Gabinete Português de Leitura","distancia":1813},{"nome":"Sambódromo","distancia":512},{"nome":"Teatro Carlos Gomes","distancia":1761},{"nome":"Teatro João Caetano","distancia":1789}]},{"linha":"341","descricao_ponto":"Avenida Menezes Cortes próximo ao 37","sequencia":"32","latitude":"-22.9229","longitude":"-43.2825","pontos_turisticos":[]},{"linha":"341","descricao_ponto":"Rua Godofredo Viana próximo ao 284","sequencia":"66","latitude":"-22.9138","longitude":"-43.3641","pontos_turisticos":[]},{"linha":"341","descricao_ponto":"Estrada Dos Tres Rios próximo ao 1196","sequencia":"6","latitude":"-22.9362","longitude":"-43.3328","pontos_turisticos":[]},{"linha":"341","descricao_ponto":"Avenida Nelson Cardoso próximo ao 1270","sequencia":"9","latitude":"-22.9209","longitude":"-43.3696","pontos_turisticos":[]},{"linha":"341","descricao_ponto":"Avenida Geremario Dantas próximo ao 827","sequencia":"21","latitude":"-22.9311","longitude":"-43.3534","pontos_turisticos":[]},{"linha":"341","descricao_ponto":"Estrada Dos Tres Rios próximo ao 1067","sequencia":"33","latitude":"-22.9365","longitude":"-43.3338","pontos_turisticos":[]},{"linha":"341","descricao_ponto":"Rua Jose Do Patrocinio próximo ao 2266","sequencia":"53","latitude":"-22.9197","longitude":"-43.2611","pontos_turisticos":[]},{"linha":"341","descricao_ponto":"Avenida Menezes Cortes próximo ao 37","sequencia":"23","latitude":"-22.9154","longitude":"-43.2672","pontos_turisticos":[]},{"linha":"341","descricao_ponto":"Estrada Dos Tres Rios próximo ao 1067","sequencia":"5","latitude":"-22.9365","longitude":"-43.3338","pontos_turisticos":[]},{"linha":"341","descricao_ponto":"Estrada Do Tindiba próximo ao 2828","sequencia":"3","latitude":"-22.9182","longitude":"-43.3763","pontos_turisticos":[]},{"linha":"341","descricao_ponto":"Avenida Geremario Dantas próximo ao 293","sequencia":"18","latitude":"-22.9249","longitude":"-43.3583","pontos_turisticos":[]},{"linha":"341","descricao_ponto":"Estrada Dos Tres Rios próximo ao 529","sequencia":"46","latitude":"-22.9378","longitude":"-43.3388","pontos_turisticos":[]},{"linha":"341","descricao_ponto":"Estrada Meringuava próximo ao 87","sequencia":"78","latitude":"-22.9143","longitude":"-43.3761","pontos_turisticos":[]},{"linha":"341","descricao_ponto":"Estrada De Jacarepagua próximo ao 280","sequencia":"1","latitude":"-22.9411","longitude":"-43.3418","pontos_turisticos":[]},{"linha":"341","descricao_ponto":"Nome do ponto nao identificado","sequencia":"36","latitude":"-22.9167","longitude":"-43.2411","pontos_turisticos":[{"nome":"Estádio do Maracanã","distancia":1084},{"nome":"Jardim Zoológico (Riozoo)","distancia":1859},{"nome":"Teatro Noel Rosa","distancia":754},{"nome":"Teatro Odylo Costa Filho","distancia":926},{"nome":"Teatro Ziembinski","distancia":1822}]},{"linha":"341","descricao_ponto":"Avenida Nelson Cardoso próximo ao 1325","sequencia":"7","latitude":"-22.9224","longitude":"-43.3724","pontos_turisticos":[]},{"linha":"341","descricao_ponto":"Avenida Geremario Dantas próximo ao 324","sequencia":"17","latitude":"-22.9237","longitude":"-43.3615","pontos_turisticos":[]},{"linha":"341","descricao_ponto":"Estrada Dos Tres Rios próximo ao 2134","sequencia":"37","latitude":"-22.9314","longitude":"-43.3254","pontos_turisticos":[]},{"linha":"341","descricao_ponto":"Rua Godofredo Viana próximo ao 362","sequencia":"68","latitude":"-22.9171","longitude":"-43.3675","pontos_turisticos":[]},{"linha":"341","descricao_ponto":"Avenida Menezes Cortes próximo ao 37","sequencia":"18","latitude":"-22.9172","longitude":"-43.279","pontos_turisticos":[]},{"linha":"341","descricao_ponto":"Estrada Dos Tres Rios próximo ao 4800","sequencia":"38","latitude":"-22.9304","longitude":"-43.3227","pontos_turisticos":[]},{"linha":"341","descricao_ponto":"Avenida Menezes Cortes próximo ao 37","sequencia":"46","latitude":"-22.9172","longitude":"-43.279","pontos_turisticos":[]},{"linha":"341","descricao_ponto":"Nome do ponto nao identificado","sequencia":"58","latitude":"-22.9189","longitude":"-43.253","pontos_turisticos":[{"nome":"Teatro Noel Rosa","distancia":1819}]},{"linha":"341","descricao_ponto":"Nome do ponto nao identificado","sequencia":"1","latitude":"-22.9006","longitude":"-43.1794","pontos_turisticos":[{"nome":"Academia Brasileira de Letras","distancia":1319},{"nome":"Arcos da Lapa","distancia":1365},{"nome":"Biblioteca Nacional","distancia":1088},{"nome":"Campo de Santana","distancia":1137},{"nome":"Casa França Brasil","distancia":350},{"nome":"Catedral Metropolitana","distancia":1152},{"nome":"Centro Cultural Banco do Brasil","distancia":295},{"nome":"Centro Cultural dos Correios","distancia":373},{"nome":"Cidade do Samba","distancia":1934},{"nome":"Confeitaria Colombo","distancia":521},{"nome":"Espaço Cultural da Marinha","distancia":510},{"nome":"Igreja de São Francisco da Penitência","distancia":701},{"nome":"Igreja e Convento de Santa Teresa","distancia":1677},{"nome":"Igreja Nossa Senhora da Candelária","distancia":181},{"nome":"Igreja Nossa Senhora do Carmo da Antiga Sé","distancia":515},{"nome":"Ilha Fiscal","distancia":1421},{"nome":"Memorial dos Pretos Novos","distancia":1477},{"nome":"Monumento aos Pracinhas","distancia":1850},{"nome":"Mosteiro de São Bento","distancia":456},{"nome":"Museu de Arte do Rio","distancia":547},{"nome":"Museu da Chácara do Céu","distancia":1924},{"nome":"Museu de Arte Moderna","distancia":1601},{"nome":"Museu do Clube Naval","distancia":890},{"nome":"Museu Histórico Nacional","distancia":1159},{"nome":"Museu Nacional de Belas Artes","distancia":983},{"nome":"Paço Imperial","distancia":620},{"nome":"Palácio Tiradentes","distancia":658},{"nome":"Parque das Ruínas","distancia":1912},{"nome":"Praça Paris","distancia":1884},{"nome":"Real Gabinete Português de Leitura","distancia":611},{"nome":"Sala Cecília Meireles","distancia":1533},{"nome":"Teatro Carlos Gomes","distancia":803},{"nome":"Teatro Dulcina","distancia":1148},{"nome":"Teatro Glauce Rocha","distancia":790},{"nome":"Teatro João Caetano","distancia":709},{"nome":"Teatro Municipal","distancia":1025},{"nome":"Teatro Rival Petrobras","distancia":1221}]},{"linha":"341","descricao_ponto":"Avenida Geremario Dantas próximo ao 293","sequencia":"57","latitude":"-22.9249","longitude":"-43.3584","pontos_turisticos":[]},{"linha":"341","descricao_ponto":"Avenida Menezes Cortes próximo ao 159","sequencia":"21","latitude":"-22.9155","longitude":"-43.2707","pontos_turisticos":[]},{"linha":"341","descricao_ponto":"Avenida Menezes Cortes próximo ao 37","sequencia":"50","latitude":"-22.9156","longitude":"-43.2674","pontos_turisticos":[]},{"linha":"341","descricao_ponto":"Rua Teixeira Soares próximo ao 1","sequencia":"75","latitude":"-22.9114","longitude":"-43.2144","pontos_turisticos":[{"nome":"Centro Luiz Gonzaga de Tradições Nordestinas","distancia":1700},{"nome":"Estádio do Maracanã","distancia":1725},{"nome":"Jardim Zoológico (Riozoo)","distancia":1670},{"nome":"Quinta da Boa Vista/Museu Nacional","distancia":1262},{"nome":"Sambódromo","distancia":1799},{"nome":"Teatro Mário Lago","distancia":1511},{"nome":"Teatro Ziembinski","distancia":1441}]},{"linha":"341","descricao_ponto":"BRS 3, 4 - CENTRAL","sequencia":"4","latitude":"-22.9058","longitude":"-43.1934","pontos_turisticos":[{"nome":"Arcos da Lapa","distancia":1590},{"nome":"Biblioteca Nacional","distancia":1867},{"nome":"Campo de Santana","distancia":528},{"nome":"Casa França Brasil","distancia":1882},{"nome":"Catedral Metropolitana","distancia":1416},{"nome":"Centro Cultural Banco do Brasil","distancia":1823},{"nome":"Centro Cultural dos Correios","distancia":1867},{"nome":"Cidade do Samba","distancia":1327},{"nome":"Confeitaria Colombo","distancia":1496},{"nome":"Igreja de São Francisco da Penitência","distancia":1453},{"nome":"Igreja e Convento de Santa Teresa","distancia":1732},{"nome":"Igreja Nossa Senhora da Candelária","distancia":1709},{"nome":"Igreja Nossa Senhora do Carmo da Antiga Sé","distancia":1879},{"nome":"Memorial dos Pretos Novos","distancia":1083},{"nome":"Mosteiro de São Bento","distancia":1881},{"nome":"Museu de Arte do Rio","distancia":1604},{"nome":"Museu da Chácara do Céu","distancia":1596},{"nome":"Museu do Clube Naval","distancia":1739},{"nome":"Museu Nacional de Belas Artes","distancia":1806},{"nome":"Paço Imperial","distancia":1976},{"nome":"Palácio Tiradentes","distancia":1973},{"nome":"Parque das Ruínas","distancia":1722},{"nome":"Real Gabinete Português de Leitura","distancia":1151},{"nome":"Sala Cecília Meireles","distancia":1821},{"nome":"Sambódromo","distancia":722},{"nome":"Teatro Carlos Gomes","distancia":1126},{"nome":"Teatro Dulcina","distancia":1760},{"nome":"Teatro Glauce Rocha","distancia":1716},{"nome":"Teatro João Caetano","distancia":1140},{"nome":"Teatro Municipal","distancia":1788},{"nome":"Teatro Rival Petrobras","distancia":1855}]},{"linha":"341","descricao_ponto":"BRS 2, 6, 7 - VISCONDE DE ABAETÉ","sequencia":"13","latitude":"-22.9153","longitude":"-43.2438","pontos_turisticos":[{"nome":"Estádio do Maracanã","distancia":1318},{"nome":"Jardim Zoológico (Riozoo)","distancia":1956},{"nome":"Teatro Noel Rosa","distancia":812},{"nome":"Teatro Odylo Costa Filho","distancia":1044}]},{"linha":"341","descricao_ponto":"Avenida Menezes Cortes próximo ao 37","sequencia":"28","latitude":"-22.9171","longitude":"-43.2789","pontos_turisticos":[]},{"linha":"341","descricao_ponto":"Nome do ponto nao identificado","sequencia":"33","latitude":"-22.9177","longitude":"-43.2465","pontos_turisticos":[{"nome":"Estádio do Maracanã","distancia":1645},{"nome":"Teatro Noel Rosa","distancia":1195},{"nome":"Teatro Odylo Costa Filho","distancia":1421}]},{"linha":"341","descricao_ponto":"Avenida Geremario Dantas próximo ao 232","sequencia":"16","latitude":"-22.9217","longitude":"-43.3606","pontos_turisticos":[]},{"linha":"341","descricao_ponto":"Nome do ponto nao identificado","sequencia":"65","latitude":"-22.9164","longitude":"-43.2386","pontos_turisticos":[{"nome":"Estádio do Maracanã","distancia":832},{"nome":"Jardim Zoológico (Riozoo)","distancia":1669},{"nome":"Quinta da Boa Vista/Museu Nacional","distancia":1860},{"nome":"Teatro Noel Rosa","distancia":638},{"nome":"Teatro Odylo Costa Filho","distancia":747},{"nome":"Teatro Ziembinski","distancia":1587}]},{"linha":"341","descricao_ponto":"Avenida Geremario Dantas próximo ao 1207","sequencia":"56","latitude":"-22.9259","longitude":"-43.3568","pontos_turisticos":[]},{"linha":"341","descricao_ponto":"Avenida Geremario Dantas próximo ao 183","sequencia":"60","latitude":"-22.9205","longitude":"-43.3603","pontos_turisticos":[]},{"linha":"341","descricao_ponto":"Rua Apiacas próximo ao 110","sequencia":"70","latitude":"-22.9205","longitude":"-43.3707","pontos_turisticos":[]},{"linha":"341","descricao_ponto":"Estrada Dos Tres Rios próximo ao S/n","sequencia":"12","latitude":"-22.9256","longitude":"-43.3149","pontos_turisticos":[]},{"linha":"341","descricao_ponto":"Avenida Nelson Cardoso próximo ao 141","sequencia":"13","latitude":"-22.9174","longitude":"-43.3632","pontos_turisticos":[]},{"linha":"341","descricao_ponto":"Avenida Maracana próximo ao 467","sequencia":"70","latitude":"-22.9156","longitude":"-43.2291","pontos_turisticos":[{"nome":"Estádio do Maracanã","distancia":300},{"nome":"Jardim Zoológico (Riozoo)","distancia":1246},{"nome":"Quinta da Boa Vista/Museu Nacional","distancia":1209},{"nome":"Teatro Noel Rosa","distancia":1027},{"nome":"Teatro Odylo Costa Filho","distancia":824},{"nome":"Teatro Ziembinski","distancia":797}]},{"linha":"341","descricao_ponto":"Avenida Menezes Cortes próximo ao 37","sequencia":"22","latitude":"-22.9156","longitude":"-43.2674","pontos_turisticos":[]},{"linha":"341","descricao_ponto":"Nome do ponto nao identificado","sequencia":"30","latitude":"-22.9189","longitude":"-43.253","pontos_turisticos":[{"nome":"Teatro Noel Rosa","distancia":1819}]},{"linha":"341","descricao_ponto":"Avenida Geremario Dantas próximo ao 778","sequencia":"20","latitude":"-22.9297","longitude":"-43.3537","pontos_turisticos":[]},{"linha":"341","descricao_ponto":"Rua Comte Rubens Silva próximo ao 417","sequencia":"31","latitude":"-22.9386","longitude":"-43.337","pontos_turisticos":[]},{"linha":"341","descricao_ponto":"Avenida Menezes Cortes próximo ao 3817","sequencia":"43","latitude":"-22.9243","longitude":"-43.2836","pontos_turisticos":[]},{"linha":"341","descricao_ponto":"Avenida Maracana próximo ao 331","sequencia":"71","latitude":"-22.9132","longitude":"-43.2271","pontos_turisticos":[{"nome":"Centro Luiz Gonzaga de Tradições Nordestinas","distancia":1988},{"nome":"Estádio do Maracanã","distancia":409},{"nome":"Jardim Zoológico (Riozoo)","distancia":995},{"nome":"Quinta da Boa Vista/Museu Nacional","distancia":892},{"nome":"Teatro Mário Lago","distancia":1685},{"nome":"Teatro Noel Rosa","distancia":1112},{"nome":"Teatro Odylo Costa Filho","distancia":861},{"nome":"Teatro Ziembinski","distancia":921}]},{"linha":"341","descricao_ponto":"Avenida Geremario Dantas próximo ao 968","sequencia":"52","latitude":"-22.9345","longitude":"-43.3525","pontos_turisticos":[]},{"linha":"341","descricao_ponto":"Estrada Do Tindiba próximo ao 2828","sequencia":"76","latitude":"-22.9177","longitude":"-43.3767","pontos_turisticos":[]},{"linha":"341","descricao_ponto":"Avenida Geremario Dantas próximo ao 7783","sequencia":"26","latitude":"-22.9392","longitude":"-43.3442","pontos_turisticos":[]},{"linha":"341","descricao_ponto":"Estrada Dos Tres Rios próximo ao 795","sequencia":"32","latitude":"-22.9371","longitude":"-43.3361","pontos_turisticos":[]},{"linha":"341","descricao_ponto":"BRS 4, 5, I - BARÃO DE SÃO FRANCISCO","sequencia":"59","latitude":"-22.9187","longitude":"-43.2518","pontos_turisticos":[{"nome":"Teatro Noel Rosa","distancia":1702},{"nome":"Teatro Odylo Costa Filho","distancia":1944}]},{"linha":"341","descricao_ponto":"Rua Dona Zulmira próximo ao 244","sequencia":"67","latitude":"-22.9144","longitude":"-43.2336","pontos_turisticos":[{"nome":"Estádio do Maracanã","distancia":274},{"nome":"Jardim Zoológico (Riozoo)","distancia":1216},{"nome":"Quinta da Boa Vista/Museu Nacional","distancia":1338},{"nome":"Teatro Noel Rosa","distancia":579},{"nome":"Teatro Odylo Costa Filho","distancia":451},{"nome":"Teatro Ziembinski","distancia":1230}]},{"linha":"341","descricao_ponto":"Nome do ponto nao identificado","sequencia":"19","latitude":"-22.917","longitude":"-43.2581","pontos_turisticos":[]},{"linha":"341","descricao_ponto":"Avenida Menezes Cortes próximo ao 832","sequencia":"29","latitude":"-22.9172","longitude":"-43.2821","pontos_turisticos":[]},{"linha":"341","descricao_ponto":"Avenida Menezes Cortes próximo ao 752","sequencia":"31","latitude":"-22.9188","longitude":"-43.2841","pontos_turisticos":[]},{"linha":"341","descricao_ponto":"Avenida Menezes Cortes próximo ao 2426","sequencia":"33","latitude":"-22.924","longitude":"-43.2838","pontos_turisticos":[]},{"linha":"341","descricao_ponto":"Rua Ariperana próximo ao 138","sequencia":"77","latitude":"-22.9148","longitude":"-43.3751","pontos_turisticos":[]},{"linha":"341","descricao_ponto":"Rua Jose Do Patrocinio próximo ao 290","sequencia":"23","latitude":"-22.9182","longitude":"-43.263","pontos_turisticos":[]},{"linha":"341","descricao_ponto":"Rua Jose Do Patrocinio próximo ao 290","sequencia":"51","latitude":"-22.9182","longitude":"-43.263","pontos_turisticos":[]},{"linha":"341","descricao_ponto":"Avenida Menezes Cortes próximo ao 2426","sequencia":"34","latitude":"-22.9252","longitude":"-43.2854","pontos_turisticos":[]},{"linha":"341","descricao_ponto":"Estrada Do Tindiba próximo ao 2475","sequencia":"6","latitude":"-22.921","longitude":"-43.3743","pontos_turisticos":[]},{"linha":"341","descricao_ponto":"BRS 5 - CENTRAL","sequencia":"79","latitude":"-22.9056","longitude":"-43.1917","pontos_turisticos":[{"nome":"Arcos da Lapa","distancia":1453},{"nome":"Biblioteca Nacional","distancia":1704},{"nome":"Campo de Santana","distancia":365},{"nome":"Casa França Brasil","distancia":1711},{"nome":"Catedral Metropolitana","distancia":1268},{"nome":"Centro Cultural Banco do Brasil","distancia":1651},{"nome":"Centro Cultural dos Correios","distancia":1694},{"nome":"Cidade do Samba","distancia":1366},{"nome":"Confeitaria Colombo","distancia":1322},{"nome":"Espaço Cultural da Marinha","distancia":1837},{"nome":"Igreja de São Francisco da Penitência","distancia":1282},{"nome":"Igreja e Convento de Santa Teresa","distancia":1616},{"nome":"Igreja Nossa Senhora da Candelária","distancia":1538},{"nome":"Igreja Nossa Senhora do Carmo da Antiga Sé","distancia":1704},{"nome":"Memorial dos Pretos Novos","distancia":1067},{"nome":"Mosteiro de São Bento","distancia":1724},{"nome":"Museu de Arte do Rio","distancia":1463},{"nome":"Museu da Chácara do Céu","distancia":1519},{"nome":"Museu do Clube Naval","distancia":1571},{"nome":"Museu Nacional de Belas Artes","distancia":1640},{"nome":"Paço Imperial","distancia":1800},{"nome":"Palácio Tiradentes","distancia":1797},{"nome":"Parque das Ruínas","distancia":1632},{"nome":"Real Gabinete Português de Leitura","distancia":976},{"nome":"Sala Cecília Meireles","distancia":1688},{"nome":"Sambódromo","distancia":838},{"nome":"Teatro Carlos Gomes","distancia":958},{"nome":"Teatro Dulcina","distancia":1603},{"nome":"Teatro Glauce Rocha","distancia":1545},{"nome":"Teatro João Caetano","distancia":968},{"nome":"Teatro Municipal","distancia":1624},{"nome":"Teatro Rival Petrobras","distancia":1699}]},{"linha":"341","descricao_ponto":"BRS 2, 6, 7 - VIANA DRUMMOND","sequencia":"18","latitude":"-22.9169","longitude":"-43.256","pontos_turisticos":[]},{"linha":"341","descricao_ponto":"Avenida Nelson Cardoso próximo ao 653","sequencia":"11","latitude":"-22.9195","longitude":"-43.3671","pontos_turisticos":[]},{"linha":"341","descricao_ponto":"Estrada Dos Tres Rios próximo ao S/n","sequencia":"40","latitude":"-22.9256","longitude":"-43.3149","pontos_turisticos":[]},{"linha":"341","descricao_ponto":"BRS 4, 5 - PRAÇA ONZE","sequencia":"77","latitude":"-22.9077","longitude":"-43.1982","pontos_turisticos":[{"nome":"Arcos da Lapa","distancia":1960},{"nome":"Campo de Santana","distancia":1017},{"nome":"Catedral Metropolitana","distancia":1824},{"nome":"Cidade do Samba","distancia":1491},{"nome":"Igreja de São Francisco da Penitência","distancia":1942},{"nome":"Memorial dos Pretos Novos","distancia":1400},{"nome":"Museu da Chácara do Céu","distancia":1796},{"nome":"Parque das Ruínas","distancia":1949},{"nome":"Real Gabinete Português de Leitura","distancia":1660},{"nome":"Sambódromo","distancia":442},{"nome":"Teatro Carlos Gomes","distancia":1607},{"nome":"Teatro João Caetano","distancia":1636}]},{"linha":"341","descricao_ponto":"BRS 5 - RIO BRANCO","sequencia":"2","latitude":"-22.9014","longitude":"-43.1799","pontos_turisticos":[{"nome":"Academia Brasileira de Letras","distancia":1271},{"nome":"Arcos da Lapa","distancia":1275},{"nome":"Biblioteca Nacional","distancia":1026},{"nome":"Campo de Santana","distancia":1044},{"nome":"Casa França Brasil","distancia":416},{"nome":"Catedral Metropolitana","distancia":1058},{"nome":"Centro Cultural Banco do Brasil","distancia":358},{"nome":"Centro Cultural dos Correios","distancia":416},{"nome":"Cidade do Samba","distancia":1921},{"nome":"Confeitaria Colombo","distancia":442},{"nome":"Espaço Cultural da Marinha","distancia":560},{"nome":"Igreja de São Francisco da Penitência","distancia":616},{"nome":"Igreja e Convento de Santa Teresa","distancia":1586},{"nome":"Igreja Nossa Senhora da Candelária","distancia":243},{"nome":"Igreja Nossa Senhora do Carmo da Antiga Sé","distancia":517},{"nome":"Ilha Fiscal","distancia":1497},{"nome":"Memorial dos Pretos Novos","distancia":1463},{"nome":"Monumento aos Pracinhas","distancia":1782},{"nome":"Mosteiro de São Bento","distancia":557},{"nome":"Museu de Arte do Rio","distancia":611},{"nome":"Museu da Chácara do Céu","distancia":1825},{"nome":"Museu de Arte Moderna","distancia":1542},{"nome":"Museu do Clube Naval","distancia":826},{"nome":"Museu Histórico Nacional","distancia":1166},{"nome":"Museu Nacional de Belas Artes","distancia":920},{"nome":"Paço Imperial","distancia":624},{"nome":"Palácio Tiradentes","distancia":654},{"nome":"Parque das Ruínas","distancia":1816},{"nome":"Praça Paris","distancia":1808},{"nome":"Real Gabinete Português de Leitura","distancia":508},{"nome":"Sala Cecília Meireles","distancia":1450},{"nome":"Teatro Carlos Gomes","distancia":701},{"nome":"Teatro Dulcina","distancia":1074},{"nome":"Teatro Glauce Rocha","distancia":729},{"nome":"Teatro João Caetano","distancia":606},{"nome":"Teatro Municipal","distancia":959},{"nome":"Teatro Rival Petrobras","distancia":1151}]},{"linha":"341","descricao_ponto":"Avenida Menezes Cortes próximo ao 2593","sequencia":"37","latitude":"-22.925","longitude":"-43.3151","pontos_turisticos":[]},{"linha":"341","descricao_ponto":"Estrada Dos Tres Rios próximo ao 1466","sequencia":"41","latitude":"-22.9352","longitude":"-43.33","pontos_turisticos":[]},{"linha":"341","descricao_ponto":"Estrada Dos Tres Rios próximo ao 1067","sequencia":"44","latitude":"-22.9365","longitude":"-43.3339","pontos_turisticos":[]},{"linha":"341","descricao_ponto":"Rua Tirol próximo ao 280","sequencia":"2","latitude":"-22.9407","longitude":"-43.3393","pontos_turisticos":[]},{"linha":"341","descricao_ponto":"Rua Luiz Guimaraes próximo ao 923","sequencia":"26","latitude":"-22.92","longitude":"-43.2589","pontos_turisticos":[]},{"linha":"341","descricao_ponto":"Avenida Menezes Cortes próximo ao 37","sequencia":"45","latitude":"-22.9176","longitude":"-43.2824","pontos_turisticos":[]},{"linha":"341","descricao_ponto":"Avenida Professor Manoel De Abreu próximo ao 1","sequencia":"10","latitude":"-22.9117","longitude":"-43.234","pontos_turisticos":[{"nome":"Estádio do Maracanã","distancia":367},{"nome":"Jardim Zoológico (Riozoo)","distancia":970},{"nome":"Quinta da Boa Vista/Museu Nacional","distancia":1165},{"nome":"Teatro Mário Lago","distancia":1937},{"nome":"Teatro Noel Rosa","distancia":386},{"nome":"Teatro Odylo Costa Filho","distancia":163},{"nome":"Teatro Ziembinski","distancia":1457}]},{"linha":"341","descricao_ponto":"Avenida Menezes Cortes próximo ao 517","sequencia":"24","latitude":"-22.9153","longitude":"-43.2686","pontos_turisticos":[]},{"linha":"341","descricao_ponto":"BRS 4, 5, I - BARÃO DE SÃO FRANCISCO","sequencia":"31","latitude":"-22.9187","longitude":"-43.2518","pontos_turisticos":[{"nome":"Teatro Noel Rosa","distancia":1702},{"nome":"Teatro Odylo Costa Filho","distancia":1944}]},{"linha":"341","descricao_ponto":"BRS 2, 6, 7 - HIPÓLITO DA COSTA","sequencia":"12","latitude":"-22.9145","longitude":"-43.2397","pontos_turisticos":[{"nome":"Estádio do Maracanã","distancia":890},{"nome":"Jardim Zoológico (Riozoo)","distancia":1583},{"nome":"Quinta da Boa Vista/Museu Nacional","distancia":1821},{"nome":"Teatro Noel Rosa","distancia":470},{"nome":"Teatro Odylo Costa Filho","distancia":651},{"nome":"Teatro Ziembinski","distancia":1768}]},{"linha":"341","descricao_ponto":"Avenida Menezes Cortes próximo ao 159","sequencia":"25","latitude":"-22.9154","longitude":"-43.2706","pontos_turisticos":[]},{"linha":"341","descricao_ponto":"Avenida Menezes Cortes próximo ao 4800","sequencia":"36","latitude":"-22.9245","longitude":"-43.291","pontos_turisticos":[]},{"linha":"341","descricao_ponto":"Avenida Geremario Dantas próximo ao 921","sequencia":"53","latitude":"-22.9338","longitude":"-43.3525","pontos_turisticos":[]},{"linha":"341","descricao_ponto":"Nome do ponto nao identificado","sequencia":"37","latitude":"-22.9164","longitude":"-43.2386","pontos_turisticos":[{"nome":"Estádio do Maracanã","distancia":832},{"nome":"Jardim Zoológico (Riozoo)","distancia":1669},{"nome":"Quinta da Boa Vista/Museu Nacional","distancia":1860},{"nome":"Teatro Noel Rosa","distancia":638},{"nome":"Teatro Odylo Costa Filho","distancia":747},{"nome":"Teatro Ziembinski","distancia":1587}]},{"linha":"341","descricao_ponto":"BRS 5 - CENTRAL","sequencia":"51","latitude":"-22.9056","longitude":"-43.1917","pontos_turisticos":[{"nome":"Arcos da Lapa","distancia":1453},{"nome":"Biblioteca Nacional","distancia":1704},{"nome":"Campo de Santana","distancia":365},{"nome":"Casa França Brasil","distancia":1711},{"nome":"Catedral Metropolitana","distancia":1268},{"nome":"Centro Cultural Banco do Brasil","distancia":1651},{"nome":"Centro Cultural dos Correios","distancia":1694},{"nome":"Cidade do Samba","distancia":1366},{"nome":"Confeitaria Colombo","distancia":1322},{"nome":"Espaço Cultural da Marinha","distancia":1837},{"nome":"Igreja de São Francisco da Penitência","distancia":1282},{"nome":"Igreja e Convento de Santa Teresa","distancia":1616},{"nome":"Igreja Nossa Senhora da Candelária","distancia":1538},{"nome":"Igreja Nossa Senhora do Carmo da Antiga Sé","distancia":1704},{"nome":"Memorial dos Pretos Novos","distancia":1067},{"nome":"Mosteiro de São Bento","distancia":1724},{"nome":"Museu de Arte do Rio","distancia":1463},{"nome":"Museu da Chácara do Céu","distancia":1519},{"nome":"Museu do Clube Naval","distancia":1571},{"nome":"Museu Nacional de Belas Artes","distancia":1640},{"nome":"Paço Imperial","distancia":1800},{"nome":"Palácio Tiradentes","distancia":1797},{"nome":"Parque das Ruínas","distancia":1632},{"nome":"Real Gabinete Português de Leitura","distancia":976},{"nome":"Sala Cecília Meireles","distancia":1688},{"nome":"Sambódromo","distancia":838},{"nome":"Teatro Carlos Gomes","distancia":958},{"nome":"Teatro Dulcina","distancia":1603},{"nome":"Teatro Glauce Rocha","distancia":1545},{"nome":"Teatro João Caetano","distancia":968},{"nome":"Teatro Municipal","distancia":1624},{"nome":"Teatro Rival Petrobras","distancia":1699}]},{"linha":"341","descricao_ponto":"Nome do ponto nao identificado","sequencia":"66","latitude":"-22.9159","longitude":"-43.2364","pontos_turisticos":[{"nome":"Estádio do Maracanã","distancia":603},{"nome":"Jardim Zoológico (Riozoo)","distancia":1497},{"nome":"Quinta da Boa Vista/Museu Nacional","distancia":1656},{"nome":"Teatro Noel Rosa","distancia":588},{"nome":"Teatro Odylo Costa Filho","distancia":611},{"nome":"Teatro Ziembinski","distancia":1396}]},{"linha":"341","descricao_ponto":"Avenida Menezes Cortes próximo ao 2426","sequencia":"35","latitude":"-22.9252","longitude":"-43.2877","pontos_turisticos":[]},{"linha":"341","descricao_ponto":"Rua Bacairis próximo ao 2558","sequencia":"71","latitude":"-22.9201","longitude":"-43.3724","pontos_turisticos":[]},{"linha":"341","descricao_ponto":"Rua Atituba próximo ao 156","sequencia":"73","latitude":"-22.9201","longitude":"-43.3744","pontos_turisticos":[]},{"linha":"341","descricao_ponto":"Avenida Geremario Dantas próximo ao 888","sequencia":"22","latitude":"-22.9322","longitude":"-43.3531","pontos_turisticos":[]},{"linha":"341","descricao_ponto":"Rua Sao Francisco Xavier próximo ao 579","sequencia":"68","latitude":"-22.9152","longitude":"-43.2325","pontos_turisticos":[{"nome":"Estádio do Maracanã","distancia":230},{"nome":"Jardim Zoológico (Riozoo)","distancia":1259},{"nome":"Quinta da Boa Vista/Museu Nacional","distancia":1336},{"nome":"Teatro Noel Rosa","distancia":722},{"nome":"Teatro Odylo Costa Filho","distancia":576},{"nome":"Teatro Ziembinski","distancia":1087}]},{"linha":"341","descricao_ponto":"Estrada Do Tindiba próximo ao 3148","sequencia":"1","latitude":"-22.9161","longitude":"-43.3783","pontos_turisticos":[]},{"linha":"341","descricao_ponto":"Avenida Geremario Dantas próximo ao 1103","sequencia":"24","latitude":"-22.9371","longitude":"-43.3509","pontos_turisticos":[]},{"linha":"341","descricao_ponto":"Estrada De Jacarepagua próximo ao 280","sequencia":"29","latitude":"-22.9411","longitude":"-43.3418","pontos_turisticos":[]},{"linha":"341","descricao_ponto":"Avenida Maracana próximo ao S/n","sequencia":"72","latitude":"-22.9114","longitude":"-43.2248","pontos_turisticos":[{"nome":"Centro Luiz Gonzaga de Tradições Nordestinas","distancia":1716},{"nome":"Estádio do Maracanã","distancia":687},{"nome":"Jardim Zoológico (Riozoo)","distancia":881},{"nome":"Quinta da Boa Vista/Museu Nacional","distancia":663},{"nome":"Teatro Mário Lago","distancia":1418},{"nome":"Teatro Noel Rosa","distancia":1315},{"nome":"Teatro Odylo Costa Filho","distancia":1049},{"nome":"Teatro Ziembinski","distancia":1065}]},{"linha":"341","descricao_ponto":"Avenida Geremario Dantas próximo ao 324","sequencia":"58","latitude":"-22.9237","longitude":"-43.3615","pontos_turisticos":[]},{"linha":"341","descricao_ponto":"Rua Sao Francisco Xavier próximo ao 579","sequencia":"40","latitude":"-22.9152","longitude":"-43.2325","pontos_turisticos":[{"nome":"Estádio do Maracanã","distancia":230},{"nome":"Jardim Zoológico (Riozoo)","distancia":1259},{"nome":"Quinta da Boa Vista/Museu Nacional","distancia":1336},{"nome":"Teatro Noel Rosa","distancia":722},{"nome":"Teatro Odylo Costa Filho","distancia":576},{"nome":"Teatro Ziembinski","distancia":1087}]},{"linha":"341","descricao_ponto":"Estrada Do Tindiba próximo ao 2637","sequencia":"4","latitude":"-22.9191","longitude":"-43.3756","pontos_turisticos":[]},{"linha":"341","descricao_ponto":"Avenida Geremario Dantas próximo ao 136","sequencia":"15","latitude":"-22.9193","longitude":"-43.3605","pontos_turisticos":[]},{"linha":"341","descricao_ponto":"Nome do ponto nao identificado","sequencia":"55","latitude":"-22.9197","longitude":"-43.2573","pontos_turisticos":[]},{"linha":"341","descricao_ponto":"Avenida Geremario Dantas próximo ao 48","sequencia":"61","latitude":"-22.9176","longitude":"-43.3612","pontos_turisticos":[]},{"linha":"341","descricao_ponto":"Nome do ponto nao identificado","sequencia":"32","latitude":"-22.9182","longitude":"-43.2492","pontos_turisticos":[{"nome":"Estádio do Maracanã","distancia":1926},{"nome":"Teatro Noel Rosa","distancia":1448},{"nome":"Teatro Odylo Costa Filho","distancia":1685}]},{"linha":"341","descricao_ponto":"Rua Sao Francisco Xavier próximo ao 367","sequencia":"41","latitude":"-22.916","longitude":"-43.2304","pontos_turisticos":[{"nome":"Estádio do Maracanã","distancia":275},{"nome":"Jardim Zoológico (Riozoo)","distancia":1301},{"nome":"Quinta da Boa Vista/Museu Nacional","distancia":1303},{"nome":"Teatro Noel Rosa","distancia":943},{"nome":"Teatro Odylo Costa Filho","distancia":767},{"nome":"Teatro Ziembinski","distancia":862}]},{"linha":"341","descricao_ponto":"BRS 1, 3, 5 - CIDADE NOVA","sequencia":"48","latitude":"-22.9101","longitude":"-43.2055","pontos_turisticos":[{"nome":"Campo de Santana","distancia":1799},{"nome":"Cidade do Samba","distancia":1956},{"nome":"Sambódromo","distancia":900},{"nome":"Teatro Mário Lago","distancia":1987}]},{"linha":"341","descricao_ponto":"Rua Godofredo Viana próximo ao 258","sequencia":"67","latitude":"-22.9149","longitude":"-43.3661","pontos_turisticos":[]},{"linha":"341","descricao_ponto":"Estrada Dos Tres Rios próximo ao 2134","sequencia":"9","latitude":"-22.9314","longitude":"-43.3254","pontos_turisticos":[]},{"linha":"341","descricao_ponto":"BRS 2, 6, 7 - VIANA DRUMOND","sequencia":"29","latitude":"-22.9193","longitude":"-43.2552","pontos_turisticos":[]},{"linha":"341","descricao_ponto":"Estrada Dos Tres Rios próximo ao 2782","sequencia":"39","latitude":"-22.9286","longitude":"-43.3191","pontos_turisticos":[]},{"linha":"341","descricao_ponto":"BRS 2, 6, 7 - VIANA DRUMOND","sequencia":"57","latitude":"-22.9193","longitude":"-43.2552","pontos_turisticos":[]},{"linha":"341","descricao_ponto":"Nome do ponto nao identificado","sequencia":"80","latitude":"-22.9039","longitude":"-43.1866","pontos_turisticos":[{"nome":"Academia Brasileira de Letras","distancia":1597},{"nome":"Arcos da Lapa","distancia":1210},{"nome":"Biblioteca Nacional","distancia":1294},{"nome":"Campo de Santana","distancia":355},{"nome":"Casa França Brasil","distancia":1155},{"nome":"Catedral Metropolitana","distancia":983},{"nome":"Centro Cultural Banco do Brasil","distancia":1096},{"nome":"Centro Cultural dos Correios","distancia":1140},{"nome":"Cidade do Samba","distancia":1506},{"nome":"Confeitaria Colombo","distancia":813},{"nome":"Espaço Cultural da Marinha","distancia":1284},{"nome":"Igreja de São Francisco da Penitência","distancia":823},{"nome":"Igreja e Convento de Santa Teresa","distancia":1458},{"nome":"Igreja Nossa Senhora da Candelária","distancia":983},{"nome":"Igreja Nossa Senhora do Carmo da Antiga Sé","distancia":1163},{"nome":"Memorial dos Pretos Novos","distancia":1087},{"nome":"Monumento aos Pracinhas","distancia":1901},{"nome":"Mosteiro de São Bento","distancia":1196},{"nome":"Museu de Arte do Rio","distancia":993},{"nome":"Museu da Chácara do Céu","distancia":1516},{"nome":"Museu de Arte Moderna","distancia":1760},{"nome":"Museu do Clube Naval","distancia":1128},{"nome":"Museu Histórico Nacional","distancia":1767},{"nome":"Museu Nacional de Belas Artes","distancia":1211},{"nome":"Paço Imperial","distancia":1264},{"nome":"Palácio Tiradentes","distancia":1268},{"nome":"Parque das Ruínas","distancia":1577},{"nome":"Praça Paris","distancia":1847},{"nome":"Real Gabinete Português de Leitura","distancia":486},{"nome":"Sala Cecília Meireles","distancia":1444},{"nome":"Sambódromo","distancia":1345},{"nome":"Teatro Carlos Gomes","distancia":558},{"nome":"Teatro Dulcina","distancia":1236},{"nome":"Teatro Glauce Rocha","distancia":1078},{"nome":"Teatro João Caetano","distancia":521},{"nome":"Teatro Municipal","distancia":1211},{"nome":"Teatro Rival Petrobras","distancia":1334}]},{"linha":"341","descricao_ponto":"Estrada Do Pau Ferro próximo ao 1403","sequencia":"40","latitude":"-22.9318","longitude":"-43.3283","pontos_turisticos":[]},{"linha":"341","descricao_ponto":"Rua Godofredo Viana próximo ao 119","sequencia":"65","latitude":"-22.9124","longitude":"-43.3619","pontos_turisticos":[]},{"linha":"341","descricao_ponto":"Avenida Menezes Cortes próximo ao 1910","sequencia":"20","latitude":"-22.9166","longitude":"-43.2739","pontos_turisticos":[]},{"linha":"341","descricao_ponto":"BRS 2, 6, 7 - VISCONDE DE ABAETÉ","sequencia":"34","latitude":"-22.9173","longitude":"-43.244","pontos_turisticos":[{"nome":"Estádio do Maracanã","distancia":1387},{"nome":"Teatro Noel Rosa","distancia":980},{"nome":"Teatro Odylo Costa Filho","distancia":1188}]},{"linha":"341","descricao_ponto":"Avenida Maracana próximo ao 467","sequencia":"42","latitude":"-22.9156","longitude":"-43.2291","pontos_turisticos":[{"nome":"Estádio do Maracanã","distancia":300},{"nome":"Jardim Zoológico (Riozoo)","distancia":1246},{"nome":"Quinta da Boa Vista/Museu Nacional","distancia":1209},{"nome":"Teatro Noel Rosa","distancia":1027},{"nome":"Teatro Odylo Costa Filho","distancia":824},{"nome":"Teatro Ziembinski","distancia":797}]},{"linha":"341","descricao_ponto":"BRS 4, 5 - RUA DE SANTANA","sequencia":"50","latitude":"-22.9067","longitude":"-43.195","pontos_turisticos":[{"nome":"Arcos da Lapa","distancia":1691},{"nome":"Campo de Santana","distancia":683},{"nome":"Catedral Metropolitana","distancia":1534},{"nome":"Cidade do Samba","distancia":1390},{"nome":"Confeitaria Colombo","distancia":1667},{"nome":"Igreja de São Francisco da Penitência","distancia":1612},{"nome":"Igreja e Convento de Santa Teresa","distancia":1805},{"nome":"Igreja Nossa Senhora da Candelária","distancia":1898},{"nome":"Memorial dos Pretos Novos","distancia":1200},{"nome":"Museu de Arte do Rio","distancia":1793},{"nome":"Museu da Chácara do Céu","distancia":1625},{"nome":"Museu do Clube Naval","distancia":1890},{"nome":"Museu Nacional de Belas Artes","distancia":1952},{"nome":"Parque das Ruínas","distancia":1763},{"nome":"Real Gabinete Português de Leitura","distancia":1321},{"nome":"Sala Cecília Meireles","distancia":1916},{"nome":"Sambódromo","distancia":563},{"nome":"Teatro Carlos Gomes","distancia":1280},{"nome":"Teatro Dulcina","distancia":1891},{"nome":"Teatro Glauce Rocha","distancia":1873},{"nome":"Teatro João Caetano","distancia":1302},{"nome":"Teatro Municipal","distancia":1930},{"nome":"Teatro Rival Petrobras","distancia":1983}]},{"linha":"341","descricao_ponto":"Estrada Dos Tres Rios próximo ao 4800","sequencia":"10","latitude":"-22.9304","longitude":"-43.3227","pontos_turisticos":[]},{"linha":"341","descricao_ponto":"Avenida Menezes Cortes próximo ao 37","sequencia":"17","latitude":"-22.9176","longitude":"-43.2824","pontos_turisticos":[]},{"linha":"341","descricao_ponto":"Nome do ponto nao identificado","sequencia":"28","latitude":"-22.9196","longitude":"-43.2565","pontos_turisticos":[]},{"linha":"341","descricao_ponto":"Estrada Do Tindiba próximo ao 2947","sequencia":"2","latitude":"-22.9172","longitude":"-43.377","pontos_turisticos":[]},{"linha":"341","descricao_ponto":"Rua Luiz Guimaraes próximo ao 923","sequencia":"54","latitude":"-22.92","longitude":"-43.2589","pontos_turisticos":[]},{"linha":"341","descricao_ponto":"Nome do ponto nao identificado","sequencia":"60","latitude":"-22.9182","longitude":"-43.2492","pontos_turisticos":[{"nome":"Estádio do Maracanã","distancia":1926},{"nome":"Teatro Noel Rosa","distancia":1448},{"nome":"Teatro Odylo Costa Filho","distancia":1685}]},{"linha":"341","descricao_ponto":"Nome do ponto nao identificado","sequencia":"81","latitude":"-22.9008","longitude":"-43.182","pontos_turisticos":[{"nome":"Academia Brasileira de Letras","distancia":1453},{"nome":"Arcos da Lapa","distancia":1359},{"nome":"Biblioteca Nacional","distancia":1189},{"nome":"Campo de Santana","distancia":920},{"nome":"Casa França Brasil","distancia":618},{"nome":"Catedral Metropolitana","distancia":1129},{"nome":"Centro Cultural Banco do Brasil","distancia":562},{"nome":"Centro Cultural dos Correios","distancia":633},{"nome":"Cidade do Samba","distancia":1698},{"nome":"Confeitaria Colombo","distancia":593},{"nome":"Espaço Cultural da Marinha","distancia":774},{"nome":"Igreja de São Francisco da Penitência","distancia":735},{"nome":"Igreja e Convento de Santa Teresa","distancia":1661},{"nome":"Igreja Nossa Senhora da Candelária","distancia":446},{"nome":"Igreja Nossa Senhora do Carmo da Antiga Sé","distancia":741},{"nome":"Ilha Fiscal","distancia":1683},{"nome":"Memorial dos Pretos Novos","distancia":1240},{"nome":"Monumento aos Pracinhas","distancia":1926},{"nome":"Mosteiro de São Bento","distancia":617},{"nome":"Museu de Arte do Rio","distancia":515},{"nome":"Museu da Chácara do Céu","distancia":1853},{"nome":"Museu de Arte Moderna","distancia":1705},{"nome":"Museu do Clube Naval","distancia":989},{"nome":"Museu Histórico Nacional","distancia":1391},{"nome":"Museu Nacional de Belas Artes","distancia":1085},{"nome":"Paço Imperial","distancia":849},{"nome":"Palácio Tiradentes","distancia":877},{"nome":"Parque das Ruínas","distancia":1864},{"nome":"Praça Paris","distancia":1932},{"nome":"Real Gabinete Português de Leitura","distancia":519},{"nome":"Sala Cecília Meireles","distancia":1555},{"nome":"Sambódromo","distancia":1928},{"nome":"Teatro Carlos Gomes","distancia":716},{"nome":"Teatro Dulcina","distancia":1212},{"nome":"Teatro Glauce Rocha","distancia":899},{"nome":"Teatro João Caetano","distancia":622},{"nome":"Teatro Municipal","distancia":1115},{"nome":"Teatro Rival Petrobras","distancia":1297}]},{"linha":"341","descricao_ponto":"Nome do ponto nao identificado","sequencia":"82","latitude":"-22.9006","longitude":"-43.1794","pontos_turisticos":[{"nome":"Academia Brasileira de Letras","distancia":1319},{"nome":"Arcos da Lapa","distancia":1365},{"nome":"Biblioteca Nacional","distancia":1088},{"nome":"Campo de Santana","distancia":1137},{"nome":"Casa França Brasil","distancia":350},{"nome":"Catedral Metropolitana","distancia":1152},{"nome":"Centro Cultural Banco do Brasil","distancia":295},{"nome":"Centro Cultural dos Correios","distancia":373},{"nome":"Cidade do Samba","distancia":1934},{"nome":"Confeitaria Colombo","distancia":521},{"nome":"Espaço Cultural da Marinha","distancia":510},{"nome":"Igreja de São Francisco da Penitência","distancia":701},{"nome":"Igreja e Convento de Santa Teresa","distancia":1677},{"nome":"Igreja Nossa Senhora da Candelária","distancia":181},{"nome":"Igreja Nossa Senhora do Carmo da Antiga Sé","distancia":515},{"nome":"Ilha Fiscal","distancia":1421},{"nome":"Memorial dos Pretos Novos","distancia":1477},{"nome":"Monumento aos Pracinhas","distancia":1850},{"nome":"Mosteiro de São Bento","distancia":456},{"nome":"Museu de Arte do Rio","distancia":547},{"nome":"Museu da Chácara do Céu","distancia":1924},{"nome":"Museu de Arte Moderna","distancia":1601},{"nome":"Museu do Clube Naval","distancia":890},{"nome":"Museu Histórico Nacional","distancia":1159},{"nome":"Museu Nacional de Belas Artes","distancia":983},{"nome":"Paço Imperial","distancia":620},{"nome":"Palácio Tiradentes","distancia":658},{"nome":"Parque das Ruínas","distancia":1912},{"nome":"Praça Paris","distancia":1884},{"nome":"Real Gabinete Português de Leitura","distancia":611},{"nome":"Sala Cecília Meireles","distancia":1533},{"nome":"Teatro Carlos Gomes","distancia":803},{"nome":"Teatro Dulcina","distancia":1148},{"nome":"Teatro Glauce Rocha","distancia":790},{"nome":"Teatro João Caetano","distancia":709},{"nome":"Teatro Municipal","distancia":1025},{"nome":"Teatro Rival Petrobras","distancia":1221}]},{"linha":"341","descricao_ponto":"Avenida Oswaldo Aranha próximo ao 200","sequencia":"8","latitude":"-22.9099","longitude":"-43.221","pontos_turisticos":[{"nome":"Centro Luiz Gonzaga de Tradições Nordestinas","distancia":1466},{"nome":"Estádio do Maracanã","distancia":1110},{"nome":"Jardim Zoológico (Riozoo)","distancia":1008},{"nome":"Quinta da Boa Vista/Museu Nacional","distancia":636},{"nome":"Teatro Mário Lago","distancia":1192},{"nome":"Teatro Noel Rosa","distancia":1704},{"nome":"Teatro Odylo Costa Filho","distancia":1436},{"nome":"Teatro Ziembinski","distancia":1264}]},{"linha":"341","descricao_ponto":"BRS 4, 5, I - JORGE RUDGE","sequencia":"11","latitude":"-22.9139","longitude":"-43.237","pontos_turisticos":[{"nome":"Estádio do Maracanã","distancia":608},{"nome":"Jardim Zoológico (Riozoo)","distancia":1349},{"nome":"Quinta da Boa Vista/Museu Nacional","distancia":1557},{"nome":"Teatro Noel Rosa","distancia":358},{"nome":"Teatro Odylo Costa Filho","distancia":425},{"nome":"Teatro Ziembinski","distancia":1552}]},{"linha":"341","descricao_ponto":"Avenida Menezes Cortes próximo ao 835","sequencia":"26","latitude":"-22.9161","longitude":"-43.2745","pontos_turisticos":[]},{"linha":"341","descricao_ponto":"Estrada Dos Tres Rios próximo ao 1196","sequencia":"43","latitude":"-22.9362","longitude":"-43.3328","pontos_turisticos":[]},{"linha":"341","descricao_ponto":"Avenida Nelson Cardoso próximo ao 373","sequencia":"12","latitude":"-22.9184","longitude":"-43.3651","pontos_turisticos":[]},{"linha":"341","descricao_ponto":"Avenida Menezes Cortes próximo ao 37","sequencia":"47","latitude":"-22.9166","longitude":"-43.2762","pontos_turisticos":[]},{"linha":"341","descricao_ponto":"Nome do ponto nao identificado","sequencia":"63","latitude":"-22.9169","longitude":"-43.2423","pontos_turisticos":[{"nome":"Estádio do Maracanã","distancia":1207},{"nome":"Jardim Zoológico (Riozoo)","distancia":1960},{"nome":"Teatro Noel Rosa","distancia":837},{"nome":"Teatro Odylo Costa Filho","distancia":1028},{"nome":"Teatro Ziembinski","distancia":1936}]},{"linha":"341","descricao_ponto":"Rua Teixeira Soares próximo ao 139","sequencia":"74","latitude":"-22.9107","longitude":"-43.2182","pontos_turisticos":[{"nome":"Centro Luiz Gonzaga de Tradições Nordestinas","distancia":1549},{"nome":"Estádio do Maracanã","distancia":1357},{"nome":"Jardim Zoológico (Riozoo)","distancia":1294},{"nome":"Quinta da Boa Vista/Museu Nacional","distancia":900},{"nome":"Teatro Mário Lago","distancia":1310},{"nome":"Teatro Noel Rosa","distancia":1989},{"nome":"Teatro Odylo Costa Filho","distancia":1721},{"nome":"Teatro Ziembinski","distancia":1281}]},{"linha":"341","descricao_ponto":"BRS 5 - TOMÉ DE SOUSA","sequencia":"3","latitude":"-22.904","longitude":"-43.1879","pontos_turisticos":[{"nome":"Academia Brasileira de Letras","distancia":1710},{"nome":"Arcos da Lapa","distancia":1281},{"nome":"Biblioteca Nacional","distancia":1406},{"nome":"Campo de Santana","distancia":300},{"nome":"Casa França Brasil","distancia":1285},{"nome":"Catedral Metropolitana","distancia":1061},{"nome":"Centro Cultural Banco do Brasil","distancia":1226},{"nome":"Centro Cultural dos Correios","distancia":1272},{"nome":"Cidade do Samba","distancia":1423},{"nome":"Confeitaria Colombo","distancia":942},{"nome":"Espaço Cultural da Marinha","distancia":1416},{"nome":"Igreja de São Francisco da Penitência","distancia":942},{"nome":"Igreja e Convento de Santa Teresa","distancia":1512},{"nome":"Igreja Nossa Senhora da Candelária","distancia":1112},{"nome":"Igreja Nossa Senhora do Carmo da Antiga Sé","distancia":1297},{"nome":"Memorial dos Pretos Novos","distancia":1023},{"nome":"Monumento aos Pracinhas","distancia":1985},{"nome":"Mosteiro de São Bento","distancia":1305},{"nome":"Museu de Arte do Rio","distancia":1075},{"nome":"Museu da Chácara do Céu","distancia":1533},{"nome":"Museu de Arte Moderna","distancia":1859},{"nome":"Museu do Clube Naval","distancia":1246},{"nome":"Museu Histórico Nacional","distancia":1898},{"nome":"Museu Nacional de Belas Artes","distancia":1326},{"nome":"Paço Imperial","distancia":1398},{"nome":"Palácio Tiradentes","distancia":1401},{"nome":"Parque das Ruínas","distancia":1607},{"nome":"Praça Paris","distancia":1921},{"nome":"Real Gabinete Português de Leitura","distancia":609},{"nome":"Sala Cecília Meireles","distancia":1518},{"nome":"Sambódromo","distancia":1236},{"nome":"Teatro Carlos Gomes","distancia":657},{"nome":"Teatro Dulcina","distancia":1337},{"nome":"Teatro Glauce Rocha","distancia":1201},{"nome":"Teatro João Caetano","distancia":633},{"nome":"Teatro Municipal","distancia":1323},{"nome":"Teatro Rival Petrobras","distancia":1435}]},{"linha":"341","descricao_ponto":"Estrada Do Pau Ferro próximo ao 1377","sequencia":"39","latitude":"-22.9308","longitude":"-43.3259","pontos_turisticos":[]},{"linha":"341","descricao_ponto":"Estrada Dos Tres Rios próximo ao 329","sequencia":"47","latitude":"-22.9388","longitude":"-43.3404","pontos_turisticos":[]},{"linha":"341","descricao_ponto":"Estrada Do Tindiba próximo ao 2672","sequencia":"75","latitude":"-22.9188","longitude":"-43.3759","pontos_turisticos":[]},{"linha":"341","descricao_ponto":"Avenida Menezes Cortes próximo ao 37","sequencia":"16","latitude":"-22.9228","longitude":"-43.2824","pontos_turisticos":[]},{"linha":"341","descricao_ponto":"Rua Jose Do Patrocinio próximo ao 2266","sequencia":"25","latitude":"-22.9197","longitude":"-43.2611","pontos_turisticos":[]},{"linha":"341","descricao_ponto":"Avenida Geremario Dantas próximo ao 615","sequencia":"19","latitude":"-22.9279","longitude":"-43.3555","pontos_turisticos":[]},{"linha":"341","descricao_ponto":"BRS 2, 6, 7 - VISCONDE DE ABAETÉ","sequencia":"62","latitude":"-22.9173","longitude":"-43.244","pontos_turisticos":[{"nome":"Estádio do Maracanã","distancia":1387},{"nome":"Teatro Noel Rosa","distancia":980},{"nome":"Teatro Odylo Costa Filho","distancia":1188}]},{"linha":"341","descricao_ponto":"Rua Teixeira Soares próximo ao 59","sequencia":"73","latitude":"-22.9104","longitude":"-43.2217","pontos_turisticos":[{"nome":"Centro Luiz Gonzaga de Tradições Nordestinas","distancia":1530},{"nome":"Estádio do Maracanã","distancia":1023},{"nome":"Jardim Zoológico (Riozoo)","distancia":989},{"nome":"Quinta da Boa Vista/Museu Nacional","distancia":641},{"nome":"Teatro Mário Lago","distancia":1251},{"nome":"Teatro Noel Rosa","distancia":1631},{"nome":"Teatro Odylo Costa Filho","distancia":1362},{"nome":"Teatro Ziembinski","distancia":1195}]},{"linha":"341","descricao_ponto":"BRS 5 - RIO BRANCO","sequencia":"83","latitude":"-22.9014","longitude":"-43.1799","pontos_turisticos":[{"nome":"Academia Brasileira de Letras","distancia":1271},{"nome":"Arcos da Lapa","distancia":1275},{"nome":"Biblioteca Nacional","distancia":1026},{"nome":"Campo de Santana","distancia":1044},{"nome":"Casa França Brasil","distancia":416},{"nome":"Catedral Metropolitana","distancia":1058},{"nome":"Centro Cultural Banco do Brasil","distancia":358},{"nome":"Centro Cultural dos Correios","distancia":416},{"nome":"Cidade do Samba","distancia":1921},{"nome":"Confeitaria Colombo","distancia":442},{"nome":"Espaço Cultural da Marinha","distancia":560},{"nome":"Igreja de São Francisco da Penitência","distancia":616},{"nome":"Igreja e Convento de Santa Teresa","distancia":1586},{"nome":"Igreja Nossa Senhora da Candelária","distancia":243},{"nome":"Igreja Nossa Senhora do Carmo da Antiga Sé","distancia":517},{"nome":"Ilha Fiscal","distancia":1497},{"nome":"Memorial dos Pretos Novos","distancia":1463},{"nome":"Monumento aos Pracinhas","distancia":1782},{"nome":"Mosteiro de São Bento","distancia":557},{"nome":"Museu de Arte do Rio","distancia":611},{"nome":"Museu da Chácara do Céu","distancia":1825},{"nome":"Museu de Arte Moderna","distancia":1542},{"nome":"Museu do Clube Naval","distancia":826},{"nome":"Museu Histórico Nacional","distancia":1166},{"nome":"Museu Nacional de Belas Artes","distancia":920},{"nome":"Paço Imperial","distancia":624},{"nome":"Palácio Tiradentes","distancia":654},{"nome":"Parque das Ruínas","distancia":1816},{"nome":"Praça Paris","distancia":1808},{"nome":"Real Gabinete Português de Leitura","distancia":508},{"nome":"Sala Cecília Meireles","distancia":1450},{"nome":"Teatro Carlos Gomes","distancia":701},{"nome":"Teatro Dulcina","distancia":1074},{"nome":"Teatro Glauce Rocha","distancia":729},{"nome":"Teatro João Caetano","distancia":606},{"nome":"Teatro Municipal","distancia":959},{"nome":"Teatro Rival Petrobras","distancia":1151}]},{"linha":"341","descricao_ponto":"Avenida Oswaldo Aranha próximo ao 714","sequencia":"9","latitude":"-22.9106","longitude":"-43.2235","pontos_turisticos":[{"nome":"Centro Luiz Gonzaga de Tradições Nordestinas","distancia":1592},{"nome":"Estádio do Maracanã","distancia":844},{"nome":"Jardim Zoológico (Riozoo)","distancia":879},{"nome":"Quinta da Boa Vista/Museu Nacional","distancia":591},{"nome":"Teatro Mário Lago","distancia":1299},{"nome":"Teatro Noel Rosa","distancia":1446},{"nome":"Teatro Odylo Costa Filho","distancia":1178},{"nome":"Teatro Ziembinski","distancia":1151}]},{"linha":"341","descricao_ponto":"Rua Candido Benicio próximo ao 3815","sequencia":"63","latitude":"-22.9135","longitude":"-43.3605","pontos_turisticos":[]},{"linha":"341","descricao_ponto":"Estrada Dos Tres Rios próximo ao 795","sequencia":"4","latitude":"-22.9371","longitude":"-43.3361","pontos_turisticos":[]},{"linha":"341","descricao_ponto":"Avenida Menezes Cortes próximo ao 3817","sequencia":"15","latitude":"-22.9243","longitude":"-43.2836","pontos_turisticos":[]},{"linha":"341","descricao_ponto":"Nome do ponto nao identificado","sequencia":"38","latitude":"-22.9159","longitude":"-43.2364","pontos_turisticos":[{"nome":"Estádio do Maracanã","distancia":603},{"nome":"Jardim Zoológico (Riozoo)","distancia":1497},{"nome":"Quinta da Boa Vista/Museu Nacional","distancia":1656},{"nome":"Teatro Noel Rosa","distancia":588},{"nome":"Teatro Odylo Costa Filho","distancia":611},{"nome":"Teatro Ziembinski","distancia":1396}]},{"linha":"341","descricao_ponto":"Rua Tirol próximo ao 280","sequencia":"30","latitude":"-22.9407","longitude":"-43.3393","pontos_turisticos":[]},{"linha":"341","descricao_ponto":"Rua Elpidio Boamorte próximo ao 323","sequencia":"7","latitude":"-22.9104","longitude":"-43.2152","pontos_turisticos":[{"nome":"Centro Luiz Gonzaga de Tradições Nordestinas","distancia":1570},{"nome":"Estádio do Maracanã","distancia":1664},{"nome":"Jardim Zoológico (Riozoo)","distancia":1547},{"nome":"Quinta da Boa Vista/Museu Nacional","distancia":1135},{"nome":"Sambódromo","distancia":1884},{"nome":"Teatro Mário Lago","distancia":1376},{"nome":"Teatro Ziembinski","distancia":1474}]},{"linha":"341","descricao_ponto":"BRS 4, 5, I - MENDES TAVARES","sequencia":"17","latitude":"-22.9165","longitude":"-43.2537","pontos_turisticos":[{"nome":"Teatro Noel Rosa","distancia":1768}]},{"linha":"341","descricao_ponto":"Avenida Menezes Cortes próximo ao 37","sequencia":"27","latitude":"-22.9165","longitude":"-43.2761","pontos_turisticos":[]},{"linha":"341","descricao_ponto":"Estrada Dos Tres Rios próximo ao 2516","sequencia":"38","latitude":"-22.9295","longitude":"-43.322","pontos_turisticos":[]},{"linha":"341","descricao_ponto":"Estrada Dos Tres Rios próximo ao 795","sequencia":"45","latitude":"-22.9371","longitude":"-43.3362","pontos_turisticos":[]},{"linha":"341","descricao_ponto":"Rua Candido Benicio próximo ao 48","sequencia":"64","latitude":"-22.9131","longitude":"-43.3604","pontos_turisticos":[]},{"linha":"341","descricao_ponto":"Estrada De Jacarepagua próximo ao S/n","sequencia":"28","latitude":"-22.9408","longitude":"-43.3428","pontos_turisticos":[]},{"linha":"341","descricao_ponto":"Rua Jose Do Patrocinio próximo ao 410","sequencia":"52","latitude":"-22.9192","longitude":"-43.2621","pontos_turisticos":[]},{"linha":"341","descricao_ponto":"Nome do ponto nao identificado","sequencia":"64","latitude":"-22.9167","longitude":"-43.2411","pontos_turisticos":[{"nome":"Estádio do Maracanã","distancia":1084},{"nome":"Jardim Zoológico (Riozoo)","distancia":1859},{"nome":"Teatro Noel Rosa","distancia":754},{"nome":"Teatro Odylo Costa Filho","distancia":926},{"nome":"Teatro Ziembinski","distancia":1822}]},{"linha":"341","descricao_ponto":"BRS 4, 5 - RUA DE SANTANA","sequencia":"78","latitude":"-22.9067","longitude":"-43.195","pontos_turisticos":[{"nome":"Arcos da Lapa","distancia":1691},{"nome":"Campo de Santana","distancia":683},{"nome":"Catedral Metropolitana","distancia":1534},{"nome":"Cidade do Samba","distancia":1390},{"nome":"Confeitaria Colombo","distancia":1667},{"nome":"Igreja de São Francisco da Penitência","distancia":1612},{"nome":"Igreja e Convento de Santa Teresa","distancia":1805},{"nome":"Igreja Nossa Senhora da Candelária","distancia":1898},{"nome":"Memorial dos Pretos Novos","distancia":1200},{"nome":"Museu de Arte do Rio","distancia":1793},{"nome":"Museu da Chácara do Céu","distancia":1625},{"nome":"Museu do Clube Naval","distancia":1890},{"nome":"Museu Nacional de Belas Artes","distancia":1952},{"nome":"Parque das Ruínas","distancia":1763},{"nome":"Real Gabinete Português de Leitura","distancia":1321},{"nome":"Sala Cecília Meireles","distancia":1916},{"nome":"Sambódromo","distancia":563},{"nome":"Teatro Carlos Gomes","distancia":1280},{"nome":"Teatro Dulcina","distancia":1891},{"nome":"Teatro Glauce Rocha","distancia":1873},{"nome":"Teatro João Caetano","distancia":1302},{"nome":"Teatro Municipal","distancia":1930},{"nome":"Teatro Rival Petrobras","distancia":1983}]},{"linha":"341","descricao_ponto":"Avenida Geremario Dantas próximo ao 1093","sequencia":"51","latitude":"-22.9369","longitude":"-43.3511","pontos_turisticos":[]},{"linha":"341","descricao_ponto":"Avenida Menezes Cortes próximo ao 159","sequencia":"49","latitude":"-22.9155","longitude":"-43.2707","pontos_turisticos":[]},{"linha":"341","descricao_ponto":"Nome do ponto nao identificado","sequencia":"56","latitude":"-22.9196","longitude":"-43.2565","pontos_turisticos":[]},{"linha":"341","descricao_ponto":"Nome do ponto nao identificado","sequencia":"27","latitude":"-22.9197","longitude":"-43.2573","pontos_turisticos":[]},{"linha":"341","descricao_ponto":"Nome do ponto nao identificado","sequencia":"35","latitude":"-22.9169","longitude":"-43.2423","pontos_turisticos":[{"nome":"Estádio do Maracanã","distancia":1207},{"nome":"Jardim Zoológico (Riozoo)","distancia":1960},{"nome":"Teatro Noel Rosa","distancia":837},{"nome":"Teatro Odylo Costa Filho","distancia":1028},{"nome":"Teatro Ziembinski","distancia":1936}]},{"linha":"341","descricao_ponto":"Avenida Nelson Cardoso próximo ao 1270","sequencia":"10","latitude":"-22.9208","longitude":"-43.3696","pontos_turisticos":[]},{"linha":"341","descricao_ponto":"Avenida Geremario Dantas próximo ao 968","sequencia":"23","latitude":"-22.9345","longitude":"-43.3525","pontos_turisticos":[]},{"linha":"341","descricao_ponto":"Avenida Geremario Dantas próximo ao 1260","sequencia":"25","latitude":"-22.9385","longitude":"-43.347","pontos_turisticos":[]},{"linha":"341","descricao_ponto":"Avenida Menezes Cortes próximo ao 4612","sequencia":"42","latitude":"-22.9254","longitude":"-43.2879","pontos_turisticos":[]},{"linha":"341","descricao_ponto":"Nome do ponto nao identificado","sequencia":"20","latitude":"-22.917","longitude":"-43.2596","pontos_turisticos":[]},{"linha":"341","descricao_ponto":"Estrada Dos Tres Rios próximo ao 1786","sequencia":"8","latitude":"-22.9335","longitude":"-43.3279","pontos_turisticos":[]},{"linha":"341","descricao_ponto":"Estrada Dos Tres Rios próximo ao 1786","sequencia":"36","latitude":"-22.9335","longitude":"-43.3279","pontos_turisticos":[]},{"linha":"341","descricao_ponto":"BRS 1, 3, 5 - CIDADE NOVA","sequencia":"76","latitude":"-22.9101","longitude":"-43.2055","pontos_turisticos":[{"nome":"Campo de Santana","distancia":1799},{"nome":"Cidade do Samba","distancia":1956},{"nome":"Sambódromo","distancia":900},{"nome":"Teatro Mário Lago","distancia":1987}]},{"linha":"341","descricao_ponto":"BRS 4, 5, I - BARÃO DE DRUMMOND","sequencia":"15","latitude":"-22.9164","longitude":"-43.2495","pontos_turisticos":[{"nome":"Estádio do Maracanã","distancia":1913},{"nome":"Teatro Noel Rosa","distancia":1371},{"nome":"Teatro Odylo Costa Filho","distancia":1621}]},{"linha":"341","descricao_ponto":"BRS 2, 5, 6, I - ALEXANDRE CALAZA","sequencia":"21","latitude":"-22.917","longitude":"-43.2608","pontos_turisticos":[]},{"linha":"341","descricao_ponto":"Avenida Geremario Dantas próximo ao 615","sequencia":"55","latitude":"-22.9279","longitude":"-43.3555","pontos_turisticos":[]},{"linha":"341","descricao_ponto":"Avenida Geremario Dantas próximo ao 235","sequencia":"59","latitude":"-22.9225","longitude":"-43.3608","pontos_turisticos":[]},{"linha":"341","descricao_ponto":"Estrada Do Tindiba próximo ao 2828","sequencia":"5","latitude":"-22.9196","longitude":"-43.3753","pontos_turisticos":[]},{"linha":"341","descricao_ponto":"Avenida Maracana próximo ao S/n","sequencia":"44","latitude":"-22.9114","longitude":"-43.2248","pontos_turisticos":[{"nome":"Centro Luiz Gonzaga de Tradições Nordestinas","distancia":1716},{"nome":"Estádio do Maracanã","distancia":687},{"nome":"Jardim Zoológico (Riozoo)","distancia":881},{"nome":"Quinta da Boa Vista/Museu Nacional","distancia":663},{"nome":"Teatro Mário Lago","distancia":1418},{"nome":"Teatro Noel Rosa","distancia":1315},{"nome":"Teatro Odylo Costa Filho","distancia":1049},{"nome":"Teatro Ziembinski","distancia":1065}]},{"linha":"341","descricao_ponto":"Avenida Menezes Cortes próximo ao 37","sequencia":"30","latitude":"-22.9177","longitude":"-43.2831","pontos_turisticos":[]},{"linha":"341","descricao_ponto":"Avenida Geremario Dantas próximo ao 1323","sequencia":"49","latitude":"-22.9386","longitude":"-43.3455","pontos_turisticos":[]},{"linha":"341","descricao_ponto":"Avenida Geremario Dantas próximo ao 1237","sequencia":"50","latitude":"-22.9384","longitude":"-43.3479","pontos_turisticos":[]},{"linha":"341","descricao_ponto":"Estrada Dos Tres Rios próximo ao 2782","sequencia":"11","latitude":"-22.9286","longitude":"-43.3191","pontos_turisticos":[]},{"linha":"341","descricao_ponto":"Rua Candido Benicio próximo ao 3985","sequencia":"62","latitude":"-22.9151","longitude":"-43.3607","pontos_turisticos":[]},{"linha":"341","descricao_ponto":"Avenida Menezes Cortes próximo ao 37","sequencia":"19","latitude":"-22.9166","longitude":"-43.2762","pontos_turisticos":[]},{"linha":"341","descricao_ponto":"Rua Dona Zulmira próximo ao 244","sequencia":"39","latitude":"-22.9144","longitude":"-43.2336","pontos_turisticos":[{"nome":"Estádio do Maracanã","distancia":274},{"nome":"Jardim Zoológico (Riozoo)","distancia":1216},{"nome":"Quinta da Boa Vista/Museu Nacional","distancia":1338},{"nome":"Teatro Noel Rosa","distancia":579},{"nome":"Teatro Odylo Costa Filho","distancia":451},{"nome":"Teatro Ziembinski","distancia":1230}]},{"linha":"341","descricao_ponto":"Rua Teixeira Soares próximo ao 1","sequencia":"47","latitude":"-22.9114","longitude":"-43.2144","pontos_turisticos":[{"nome":"Centro Luiz Gonzaga de Tradições Nordestinas","distancia":1700},{"nome":"Estádio do Maracanã","distancia":1725},{"nome":"Jardim Zoológico (Riozoo)","distancia":1670},{"nome":"Quinta da Boa Vista/Museu Nacional","distancia":1262},{"nome":"Sambódromo","distancia":1799},{"nome":"Teatro Mário Lago","distancia":1511},{"nome":"Teatro Ziembinski","distancia":1441}]},{"linha":"341","descricao_ponto":"BRS 4, 5 - PRAÇA ONZE","sequencia":"49","latitude":"-22.9077","longitude":"-43.1982","pontos_turisticos":[{"nome":"Arcos da Lapa","distancia":1960},{"nome":"Campo de Santana","distancia":1017},{"nome":"Catedral Metropolitana","distancia":1824},{"nome":"Cidade do Samba","distancia":1491},{"nome":"Igreja de São Francisco da Penitência","distancia":1942},{"nome":"Memorial dos Pretos Novos","distancia":1400},{"nome":"Museu da Chácara do Céu","distancia":1796},{"nome":"Parque das Ruínas","distancia":1949},{"nome":"Real Gabinete Português de Leitura","distancia":1660},{"nome":"Sambódromo","distancia":442},{"nome":"Teatro Carlos Gomes","distancia":1607},{"nome":"Teatro João Caetano","distancia":1636}]},{"linha":"341","descricao_ponto":"Avenida Menezes Cortes próximo ao 211","sequencia":"22","latitude":"-22.9149","longitude":"-43.2657","pontos_turisticos":[]},{"linha":"341","descricao_ponto":"Avenida Geremario Dantas próximo ao 48","sequencia":"14","latitude":"-22.9175","longitude":"-43.3613","pontos_turisticos":[]},{"linha":"341","descricao_ponto":"Avenida Menezes Cortes próximo ao 48800","sequencia":"13","latitude":"-22.9245","longitude":"-43.2919","pontos_turisticos":[]},{"linha":"341","descricao_ponto":"Avenida Maracana próximo ao 331","sequencia":"43","latitude":"-22.9132","longitude":"-43.2271","pontos_turisticos":[{"nome":"Centro Luiz Gonzaga de Tradições Nordestinas","distancia":1988},{"nome":"Estádio do Maracanã","distancia":409},{"nome":"Jardim Zoológico (Riozoo)","distancia":995},{"nome":"Quinta da Boa Vista/Museu Nacional","distancia":892},{"nome":"Teatro Mário Lago","distancia":1685},{"nome":"Teatro Noel Rosa","distancia":1112},{"nome":"Teatro Odylo Costa Filho","distancia":861},{"nome":"Teatro Ziembinski","distancia":921}]},{"linha":"341","descricao_ponto":"Rua Teixeira Soares próximo ao 59","sequencia":"45","latitude":"-22.9104","longitude":"-43.2217","pontos_turisticos":[{"nome":"Centro Luiz Gonzaga de Tradições Nordestinas","distancia":1530},{"nome":"Estádio do Maracanã","distancia":1023},{"nome":"Jardim Zoológico (Riozoo)","distancia":989},{"nome":"Quinta da Boa Vista/Museu Nacional","distancia":641},{"nome":"Teatro Mário Lago","distancia":1251},{"nome":"Teatro Noel Rosa","distancia":1631},{"nome":"Teatro Odylo Costa Filho","distancia":1362},{"nome":"Teatro Ziembinski","distancia":1195}]},{"linha":"341","descricao_ponto":"BRS 4, 5, I - SOUZA FRANCO","sequencia":"14","latitude":"-22.9158","longitude":"-43.2464","pontos_turisticos":[{"nome":"Estádio do Maracanã","distancia":1589},{"nome":"Teatro Noel Rosa","distancia":1062},{"nome":"Teatro Odylo Costa Filho","distancia":1305}]},{"linha":"341","descricao_ponto":"Rua Godofredo Viana próximo ao 948","sequencia":"69","latitude":"-22.9195","longitude":"-43.3687","pontos_turisticos":[]},{"linha":"341","descricao_ponto":"Estrada Do Tindiba próximo ao 2828","sequencia":"74","latitude":"-22.9197","longitude":"-43.3752","pontos_turisticos":[]}]