[{"linha":"345","descricao_ponto":"Rua Dom Rosalvo Costa Rego próximo ao 2703","sequencia":"33","latitude":"-22.989","longitude":"-43.3014","pontos_turisticos":[]},{"linha":"345","descricao_ponto":"Estrada Das Furnas próximo ao 221","sequencia":"43","latitude":"-22.9701","longitude":"-43.2809","pontos_turisticos":[{"nome":"Museu do Açude","distancia":745},{"nome":"Parque Nacional da Tijuca","distancia":1173}]},{"linha":"345","descricao_ponto":"BRS 2, 5, 6, I - PROFESSOR GABIZO","sequencia":"11","latitude":"-22.9195","longitude":"-43.2202","pontos_turisticos":[{"nome":"Estádio do Maracanã","distancia":1292},{"nome":"Jardim Zoológico (Riozoo)","distancia":1898},{"nome":"Quinta da Boa Vista/Museu Nacional","distancia":1635},{"nome":"Teatro Odylo Costa Filho","distancia":1813},{"nome":"Teatro Ziembinski","distancia":413}]},{"linha":"345","descricao_ponto":"Rua Conde De Bonfim próximo ao 1287","sequencia":"34","latitude":"-22.9463","longitude":"-43.2555","pontos_turisticos":[]},{"linha":"345","descricao_ponto":"Avenida Edison Passos próximo ao 119","sequencia":"35","latitude":"-22.9463","longitude":"-43.2578","pontos_turisticos":[]},{"linha":"345","descricao_ponto":"Avenida Das Americas próximo ao 3979","sequencia":"10","latitude":"-23.0004","longitude":"-43.3475","pontos_turisticos":[{"nome":"Centro Cultural Anglo Americano (Suassuna)","distancia":1344},{"nome":"Cidade das Artes","distancia":1859},{"nome":"Teatro dos Grandes Atores","distancia":250}]},{"linha":"345","descricao_ponto":"Avenida Das Americas próximo ao 2250","sequencia":"12","latitude":"-23.0005","longitude":"-43.3428","pontos_turisticos":[{"nome":"Centro Cultural Anglo Americano (Suassuna)","distancia":863},{"nome":"Teatro dos Grandes Atores","distancia":731}]},{"linha":"345","descricao_ponto":"Avenida Das Americas próximo ao 1981","sequencia":"14","latitude":"-23.0008","longitude":"-43.3357","pontos_turisticos":[{"nome":"Centro Cultural Anglo Americano (Suassuna)","distancia":136},{"nome":"Teatro dos Grandes Atores","distancia":1458}]},{"linha":"345","descricao_ponto":"Estrada Barra Da Tijuca próximo ao 231","sequencia":"25","latitude":"-23.0093","longitude":"-43.2995","pontos_turisticos":[{"nome":"Praia da Joatinga","distancia":1090},{"nome":"Praia do Pepê","distancia":902}]},{"linha":"345","descricao_ponto":"Rua Boa Vista próximo ao 117","sequencia":"45","latitude":"-22.9644","longitude":"-43.2769","pontos_turisticos":[{"nome":"Museu do Açude","distancia":604},{"nome":"Parque Nacional da Tijuca","distancia":528}]},{"linha":"345","descricao_ponto":"Rua Conde De Bonfim próximo ao 412","sequencia":"15","latitude":"-22.9252","longitude":"-43.2343","pontos_turisticos":[{"nome":"Estádio do Maracanã","distancia":1331},{"nome":"Teatro Noel Rosa","distancia":1644},{"nome":"Teatro Odylo Costa Filho","distancia":1630},{"nome":"Teatro Ziembinski","distancia":1164}]},{"linha":"345","descricao_ponto":"Rua Conde De Bonfim próximo ao 758","sequencia":"23","latitude":"-22.9339","longitude":"-43.2424","pontos_turisticos":[]},{"linha":"345","descricao_ponto":"Avenida Edison Passos próximo ao 1783","sequencia":"41","latitude":"-22.9531","longitude":"-43.2615","pontos_turisticos":[{"nome":"Parque Nacional da Tijuca","distancia":1875}]},{"linha":"345","descricao_ponto":"Estrada Barra Da Tijuca próximo ao 1353","sequencia":"66","latitude":"-22.996","longitude":"-43.3047","pontos_turisticos":[]},{"linha":"345","descricao_ponto":"Estrada Barra Da Tijuca próximo ao 1353","sequencia":"67","latitude":"-23.0001","longitude":"-43.3049","pontos_turisticos":[{"nome":"Praia do Pepê","distancia":1706}]},{"linha":"345","descricao_ponto":"Avenida Das Americas próximo ao 500","sequencia":"76","latitude":"-23.0047","longitude":"-43.3198","pontos_turisticos":[{"nome":"Centro Cultural Anglo Americano (Suassuna)","distancia":1549},{"nome":"Praia do Pepê","distancia":1909}]},{"linha":"345","descricao_ponto":"Avenida Das Americas próximo ao 1500","sequencia":"79","latitude":"-23.0006","longitude":"-43.3303","pontos_turisticos":[{"nome":"Centro Cultural Anglo Americano (Suassuna)","distancia":420}]},{"linha":"345","descricao_ponto":"Avenida Das Americas próximo ao 1976","sequencia":"81","latitude":"-23","longitude":"-43.3386","pontos_turisticos":[{"nome":"Centro Cultural Anglo Americano (Suassuna)","distancia":445},{"nome":"Teatro dos Grandes Atores","distancia":1162}]},{"linha":"345","descricao_ponto":"Avenida Das Americas próximo ao 1501","sequencia":"16","latitude":"-23.0014","longitude":"-43.3294","pontos_turisticos":[{"nome":"Centro Cultural Anglo Americano (Suassuna)","distancia":512}]},{"linha":"345","descricao_ponto":"Estrada Das Furnas próximo ao 1399","sequencia":"38","latitude":"-22.9779","longitude":"-43.2914","pontos_turisticos":[{"nome":"Museu do Açude","distancia":1819}]},{"linha":"345","descricao_ponto":"Rua Conde De Bonfim próximo ao 579","sequencia":"71","latitude":"-22.9306","longitude":"-43.2379","pontos_turisticos":[{"nome":"Teatro Ziembinski","distancia":1790}]},{"linha":"345","descricao_ponto":"BRS 5, I - PRAÇA DA REPÚBLICA","sequencia":"91","latitude":"-22.9044","longitude":"-43.1887","pontos_turisticos":[{"nome":"Academia Brasileira de Letras","distancia":1765},{"nome":"Arcos da Lapa","distancia":1303},{"nome":"Biblioteca Nacional","distancia":1460},{"nome":"Campo de Santana","distancia":255},{"nome":"Casa França Brasil","distancia":1376},{"nome":"Catedral Metropolitana","distancia":1090},{"nome":"Centro Cultural Banco do Brasil","distancia":1317},{"nome":"Centro Cultural dos Correios","distancia":1362},{"nome":"Cidade do Samba","distancia":1406},{"nome":"Confeitaria Colombo","distancia":1018},{"nome":"Espaço Cultural da Marinha","distancia":1506},{"nome":"Igreja de São Francisco da Penitência","distancia":1006},{"nome":"Igreja e Convento de Santa Teresa","distancia":1518},{"nome":"Igreja Nossa Senhora da Candelária","distancia":1204},{"nome":"Igreja Nossa Senhora do Carmo da Antiga Sé","distancia":1382},{"nome":"Memorial dos Pretos Novos","distancia":1024},{"nome":"Mosteiro de São Bento","distancia":1397},{"nome":"Museu de Arte do Rio","distancia":1160},{"nome":"Museu da Chácara do Céu","distancia":1513},{"nome":"Museu de Arte Moderna","distancia":1901},{"nome":"Museu do Clube Naval","distancia":1307},{"nome":"Museu Histórico Nacional","distancia":1977},{"nome":"Museu Nacional de Belas Artes","distancia":1385},{"nome":"Paço Imperial","distancia":1482},{"nome":"Palácio Tiradentes","distancia":1483},{"nome":"Parque das Ruínas","distancia":1597},{"nome":"Praça Paris","distancia":1942},{"nome":"Real Gabinete Português de Leitura","distancia":679},{"nome":"Sala Cecília Meireles","distancia":1540},{"nome":"Sambódromo","distancia":1146},{"nome":"Teatro Carlos Gomes","distancia":707},{"nome":"Teatro Dulcina","distancia":1383},{"nome":"Teatro Glauce Rocha","distancia":1267},{"nome":"Teatro João Caetano","distancia":693},{"nome":"Teatro Municipal","distancia":1378},{"nome":"Teatro Rival Petrobras","distancia":1481}]},{"linha":"345","descricao_ponto":"Avenida Edison Passos próximo ao 879","sequencia":"38","latitude":"-22.9507","longitude":"-43.2619","pontos_turisticos":[{"nome":"Parque Nacional da Tijuca","distancia":1961}]},{"linha":"345","descricao_ponto":"Estrada Das Furnas próximo ao 2711","sequencia":"59","latitude":"-22.9803","longitude":"-43.2934","pontos_turisticos":[]},{"linha":"345","descricao_ponto":"Avenida Das Americas próximo ao 3665","sequencia":"8","latitude":"-23.0003","longitude":"-43.3525","pontos_turisticos":[{"nome":"Bosque da Barra","distancia":1978},{"nome":"Centro Cultural Anglo Americano (Suassuna)","distancia":1856},{"nome":"Cidade das Artes","distancia":1349},{"nome":"Praia da Barra da Tijuca","distancia":1849},{"nome":"Teatro CEC Antonio Fagundes","distancia":1809},{"nome":"Teatro dos Grandes Atores","distancia":262}]},{"linha":"345","descricao_ponto":"Avenida Das Americas próximo ao 2151","sequencia":"15","latitude":"-23.001","longitude":"-43.3319","pontos_turisticos":[{"nome":"Centro Cultural Anglo Americano (Suassuna)","distancia":254},{"nome":"Teatro dos Grandes Atores","distancia":1848}]},{"linha":"345","descricao_ponto":"Estrada Das Furnas próximo ao 3925","sequencia":"34","latitude":"-22.9843","longitude":"-43.3","pontos_turisticos":[]},{"linha":"345","descricao_ponto":"Estrada Das Furnas próximo ao 1281","sequencia":"40","latitude":"-22.9743","longitude":"-43.2859","pontos_turisticos":[{"nome":"Museu do Açude","distancia":1231},{"nome":"Parque Nacional da Tijuca","distancia":1788}]},{"linha":"345","descricao_ponto":"BRS 2, 4, 5 - BARÃO DE UBÁ","sequencia":"85","latitude":"-22.9174","longitude":"-43.2111","pontos_turisticos":[{"nome":"Quinta da Boa Vista/Museu Nacional","distancia":1939},{"nome":"Sambódromo","distancia":1603},{"nome":"Teatro Ziembinski","distancia":1371}]},{"linha":"345","descricao_ponto":"Rua Afonso Cavalcanti próximo ao 55","sequencia":"87","latitude":"-22.9094","longitude":"-43.2009","pontos_turisticos":[{"nome":"Campo de Santana","distancia":1323},{"nome":"Cidade do Samba","distancia":1721},{"nome":"Memorial dos Pretos Novos","distancia":1691},{"nome":"Museu da Chácara do Céu","distancia":1931},{"nome":"Real Gabinete Português de Leitura","distancia":1968},{"nome":"Sambódromo","distancia":475},{"nome":"Teatro Carlos Gomes","distancia":1898},{"nome":"Teatro João Caetano","distancia":1935}]},{"linha":"345","descricao_ponto":"Rua Benedito Hipolito próximo ao 425","sequencia":"88","latitude":"-22.9085","longitude":"-43.198","pontos_turisticos":[{"nome":"Arcos da Lapa","distancia":1916},{"nome":"Campo de Santana","distancia":1011},{"nome":"Catedral Metropolitana","distancia":1789},{"nome":"Cidade do Samba","distancia":1578},{"nome":"Confeitaria Colombo","distancia":1999},{"nome":"Igreja de São Francisco da Penitência","distancia":1928},{"nome":"Igreja e Convento de Santa Teresa","distancia":1979},{"nome":"Memorial dos Pretos Novos","distancia":1475},{"nome":"Museu da Chácara do Céu","distancia":1727},{"nome":"Parque das Ruínas","distancia":1883},{"nome":"Real Gabinete Português de Leitura","distancia":1656},{"nome":"Sambódromo","distancia":351},{"nome":"Teatro Carlos Gomes","distancia":1592},{"nome":"Teatro João Caetano","distancia":1626}]},{"linha":"345","descricao_ponto":"BRS 5, 6, I - S. FRANCISCO XAVIER","sequencia":"12","latitude":"-22.9207","longitude":"-43.223","pontos_turisticos":[{"nome":"Estádio do Maracanã","distancia":1143},{"nome":"Jardim Zoológico (Riozoo)","distancia":1909},{"nome":"Quinta da Boa Vista/Museu Nacional","distancia":1708},{"nome":"Teatro Noel Rosa","distancia":1863},{"nome":"Teatro Odylo Costa Filho","distancia":1668},{"nome":"Teatro Ziembinski","distancia":98}]},{"linha":"345","descricao_ponto":"Avenida Armando Lombardi próximo ao 350","sequencia":"74","latitude":"-23.0065","longitude":"-43.3098","pontos_turisticos":[{"nome":"Praia do Pepê","distancia":1098}]},{"linha":"345","descricao_ponto":"Avenida Das Americas próximo ao 3973","sequencia":"7","latitude":"-23.0003","longitude":"-43.3549","pontos_turisticos":[{"nome":"Bosque da Barra","distancia":1732},{"nome":"Cidade das Artes","distancia":1107},{"nome":"Praia da Barra da Tijuca","distancia":1672},{"nome":"Teatro CEC Antonio Fagundes","distancia":1626},{"nome":"Teatro dos Grandes Atores","distancia":508}]},{"linha":"345","descricao_ponto":"Estrada Das Furnas próximo ao 1135","sequencia":"41","latitude":"-22.9738","longitude":"-43.2854","pontos_turisticos":[{"nome":"Museu do Açude","distancia":1164},{"nome":"Parque Nacional da Tijuca","distancia":1715}]},{"linha":"345","descricao_ponto":"BRS 1B, 2B, 5, 6 - SAMPAIO FERRAZ","sequencia":"86","latitude":"-22.9154","longitude":"-43.2079","pontos_turisticos":[{"nome":"Sambódromo","distancia":1214},{"nome":"Teatro Ziembinski","distancia":1753}]},{"linha":"345","descricao_ponto":"BRS 5, 6, I - AFONSO PENA","sequencia":"10","latitude":"-22.9184","longitude":"-43.2177","pontos_turisticos":[{"nome":"Estádio do Maracanã","distancia":1469},{"nome":"Jardim Zoológico (Riozoo)","distancia":1930},{"nome":"Quinta da Boa Vista/Museu Nacional","distancia":1618},{"nome":"Teatro Odylo Costa Filho","distancia":1975},{"nome":"Teatro Ziembinski","distancia":697}]},{"linha":"345","descricao_ponto":"Avenida Edison Passos próximo ao 2059","sequencia":"42","latitude":"-22.9545","longitude":"-43.2637","pontos_turisticos":[{"nome":"Parque Nacional da Tijuca","distancia":1607}]},{"linha":"345","descricao_ponto":"Avenida Ministro Ivan Lins próximo ao 480","sequencia":"22","latitude":"-23.0111","longitude":"-43.3013","pontos_turisticos":[{"nome":"Praia da Joatinga","distancia":1156},{"nome":"Praia do Pepê","distancia":630}]},{"linha":"345","descricao_ponto":"Avenida Ministro Ivan Lins próximo ao S/n","sequencia":"23","latitude":"-23.0129","longitude":"-43.2985","pontos_turisticos":[{"nome":"Praia da Joatinga","distancia":819},{"nome":"Praia do Pepê","distancia":747}]},{"linha":"345","descricao_ponto":"Rua Conde De Bonfim próximo ao 665","sequencia":"69","latitude":"-22.9323","longitude":"-43.2407","pontos_turisticos":[]},{"linha":"345","descricao_ponto":"Rua Conde De Bonfim próximo ao 796","sequencia":"24","latitude":"-22.9349","longitude":"-43.2434","pontos_turisticos":[]},{"linha":"345","descricao_ponto":"Avenida Das Americas próximo ao 4043","sequencia":"6","latitude":"-23.0002","longitude":"-43.3578","pontos_turisticos":[{"nome":"Bosque da Barra","distancia":1435},{"nome":"Cidade das Artes","distancia":813},{"nome":"Praia da Barra da Tijuca","distancia":1493},{"nome":"Teatro CEC Antonio Fagundes","distancia":1421},{"nome":"Teatro dos Grandes Atores","distancia":805}]},{"linha":"345","descricao_ponto":"Rua Conde De Bonfim próximo ao 753","sequencia":"68","latitude":"-22.9336","longitude":"-43.2421","pontos_turisticos":[]},{"linha":"345","descricao_ponto":"BRS 5,I - CENTRAL","sequencia":"90","latitude":"-22.9061","longitude":"-43.1941","pontos_turisticos":[{"nome":"Arcos da Lapa","distancia":1637},{"nome":"Biblioteca Nacional","distancia":1929},{"nome":"Campo de Santana","distancia":594},{"nome":"Casa França Brasil","distancia":1961},{"nome":"Catedral Metropolitana","distancia":1469},{"nome":"Centro Cultural Banco do Brasil","distancia":1902},{"nome":"Centro Cultural dos Correios","distancia":1945},{"nome":"Cidade do Samba","distancia":1342},{"nome":"Confeitaria Colombo","distancia":1570},{"nome":"Igreja de São Francisco da Penitência","distancia":1523},{"nome":"Igreja e Convento de Santa Teresa","distancia":1768},{"nome":"Igreja Nossa Senhora da Candelária","distancia":1788},{"nome":"Igreja Nossa Senhora do Carmo da Antiga Sé","distancia":1955},{"nome":"Memorial dos Pretos Novos","distancia":1121},{"nome":"Mosteiro de São Bento","distancia":1960},{"nome":"Museu de Arte do Rio","distancia":1680},{"nome":"Museu da Chácara do Céu","distancia":1614},{"nome":"Museu do Clube Naval","distancia":1806},{"nome":"Museu Nacional de Belas Artes","distancia":1870},{"nome":"Parque das Ruínas","distancia":1745},{"nome":"Real Gabinete Português de Leitura","distancia":1224},{"nome":"Sala Cecília Meireles","distancia":1866},{"nome":"Sambódromo","distancia":660},{"nome":"Teatro Carlos Gomes","distancia":1193},{"nome":"Teatro Dulcina","distancia":1819},{"nome":"Teatro Glauce Rocha","distancia":1784},{"nome":"Teatro João Caetano","distancia":1210},{"nome":"Teatro Municipal","distancia":1851},{"nome":"Teatro Rival Petrobras","distancia":1913}]},{"linha":"345","descricao_ponto":"Rua Conde De Bonfim próximo ao 155","sequencia":"78","latitude":"-22.925","longitude":"-43.226","pontos_turisticos":[{"nome":"Estádio do Maracanã","distancia":1369},{"nome":"Teatro Noel Rosa","distancia":1983},{"nome":"Teatro Odylo Costa Filho","distancia":1852},{"nome":"Teatro Ziembinski","distancia":499}]},{"linha":"345","descricao_ponto":"Avenida Edison Passos próximo ao 2181","sequencia":"44","latitude":"-22.9572","longitude":"-43.2678","pontos_turisticos":[{"nome":"Museu do Açude","distancia":1688},{"nome":"Parque Nacional da Tijuca","distancia":1113}]},{"linha":"345","descricao_ponto":"Estrada Das Furnas próximo ao 1805","sequencia":"39","latitude":"-22.9766","longitude":"-43.2897","pontos_turisticos":[{"nome":"Museu do Açude","distancia":1610}]},{"linha":"345","descricao_ponto":"Rua Conde De Bonfim próximo ao 1287","sequencia":"57","latitude":"-22.9462","longitude":"-43.2555","pontos_turisticos":[]},{"linha":"345","descricao_ponto":"BRS 4, 5 - PRAÇA ONZE","sequencia":"5","latitude":"-22.9077","longitude":"-43.1997","pontos_turisticos":[{"nome":"Campo de Santana","distancia":1170},{"nome":"Catedral Metropolitana","distancia":1975},{"nome":"Cidade do Samba","distancia":1511},{"nome":"Memorial dos Pretos Novos","distancia":1466},{"nome":"Museu da Chácara do Céu","distancia":1921},{"nome":"Real Gabinete Português de Leitura","distancia":1813},{"nome":"Sambódromo","distancia":512},{"nome":"Teatro Carlos Gomes","distancia":1761},{"nome":"Teatro João Caetano","distancia":1789}]},{"linha":"345","descricao_ponto":"Rua Conde De Bonfim próximo ao 644","sequencia":"21","latitude":"-22.9314","longitude":"-43.2391","pontos_turisticos":[{"nome":"Teatro Ziembinski","distancia":1941}]},{"linha":"345","descricao_ponto":"Rua Einstein próximo ao 439","sequencia":"72","latitude":"-23.0089","longitude":"-43.2983","pontos_turisticos":[{"nome":"Pedra da Gávea","distancia":1935},{"nome":"Praia da Joatinga","distancia":1022},{"nome":"Praia do Pepê","distancia":1018}]},{"linha":"345","descricao_ponto":"Avenida Das Americas próximo ao 3362","sequencia":"1","latitude":"-22.9876","longitude":"-43.3661","pontos_turisticos":[{"nome":"Bosque da Barra","distancia":1481},{"nome":"Cidade das Artes","distancia":1226},{"nome":"Teatro CEC Antonio Fagundes","distancia":270}]},{"linha":"345","descricao_ponto":"Estrada Das Furnas próximo ao 3805","sequencia":"35","latitude":"-22.9819","longitude":"-43.3004","pontos_turisticos":[]},{"linha":"345","descricao_ponto":"Rua Conde De Bonfim próximo ao 597","sequencia":"70","latitude":"-22.9311","longitude":"-43.2384","pontos_turisticos":[{"nome":"Teatro Ziembinski","distancia":1864}]},{"linha":"345","descricao_ponto":"Rua Haddock Lobo próximo ao 269","sequencia":"82","latitude":"-22.9207","longitude":"-43.2176","pontos_turisticos":[{"nome":"Estádio do Maracanã","distancia":1589},{"nome":"Quinta da Boa Vista/Museu Nacional","distancia":1853},{"nome":"Teatro Ziembinski","distancia":648}]},{"linha":"345","descricao_ponto":"Avenida Ayrton Senna próximo ao 380","sequencia":"92","latitude":"-22.9916","longitude":"-43.3655","pontos_turisticos":[{"nome":"Bosque da Barra","distancia":1121},{"nome":"Cidade das Artes","distancia":780},{"nome":"Teatro CEC Antonio Fagundes","distancia":189},{"nome":"Teatro dos Grandes Atores","distancia":1871}]},{"linha":"345","descricao_ponto":"Rua Conde De Bonfim próximo ao 1235","sequencia":"58","latitude":"-22.9434","longitude":"-43.254","pontos_turisticos":[]},{"linha":"345","descricao_ponto":"BRS 1, 4, 5, 6, I - BARÃO DE UBÁ","sequencia":"8","latitude":"-22.9159","longitude":"-43.211","pontos_turisticos":[{"nome":"Quinta da Boa Vista/Museu Nacional","distancia":1837},{"nome":"Sambódromo","distancia":1532},{"nome":"Teatro Ziembinski","distancia":1437}]},{"linha":"345","descricao_ponto":"Rua Conde De Bonfim próximo ao 977","sequencia":"28","latitude":"-22.9393","longitude":"-43.2482","pontos_turisticos":[]},{"linha":"345","descricao_ponto":"Estrada Das Furnas próximo ao 221","sequencia":"52","latitude":"-22.9701","longitude":"-43.2809","pontos_turisticos":[{"nome":"Museu do Açude","distancia":745},{"nome":"Parque Nacional da Tijuca","distancia":1173}]},{"linha":"345","descricao_ponto":"Avenida Das Americas próximo ao 1114","sequencia":"77","latitude":"-23.0027","longitude":"-43.3246","pontos_turisticos":[{"nome":"Centro Cultural Anglo Americano (Suassuna)","distancia":1020}]},{"linha":"345","descricao_ponto":"Avenida Das Americas próximo ao 3120","sequencia":"83","latitude":"-22.9998","longitude":"-43.344","pontos_turisticos":[{"nome":"Centro Cultural Anglo Americano (Suassuna)","distancia":993},{"nome":"Teatro dos Grandes Atores","distancia":612}]},{"linha":"345","descricao_ponto":"Terminal Alvorada - Plataforma 3","sequencia":"4","latitude":"-23.0012","longitude":"-43.3657","pontos_turisticos":[{"nome":"Bosque da Barra","distancia":644},{"nome":"Cidade das Artes","distancia":288},{"nome":"Praia da Barra da Tijuca","distancia":1115},{"nome":"Teatro CEC Antonio Fagundes","distancia":1244},{"nome":"Teatro dos Grandes Atores","distancia":1615}]},{"linha":"345","descricao_ponto":"Rua Conde De Bonfim próximo ao 929","sequencia":"27","latitude":"-22.9383","longitude":"-43.247","pontos_turisticos":[]},{"linha":"345","descricao_ponto":"Rua Boa Vista próximo ao 64","sequencia":"49","latitude":"-22.964","longitude":"-43.2764","pontos_turisticos":[{"nome":"Museu do Açude","distancia":650},{"nome":"Parque Nacional da Tijuca","distancia":502}]},{"linha":"345","descricao_ponto":"Avenida Das Americas próximo ao 4485","sequencia":"5","latitude":"-23.0002","longitude":"-43.3597","pontos_turisticos":[{"nome":"Bosque da Barra","distancia":1241},{"nome":"Cidade das Artes","distancia":625},{"nome":"Praia da Barra da Tijuca","distancia":1391},{"nome":"Teatro CEC Antonio Fagundes","distancia":1313},{"nome":"Teatro dos Grandes Atores","distancia":999}]},{"linha":"345","descricao_ponto":"Avenida Ministro Ivan Lins próximo ao S/n","sequencia":"21","latitude":"-23.0084","longitude":"-43.3036","pontos_turisticos":[{"nome":"Praia da Joatinga","distancia":1499},{"nome":"Praia do Pepê","distancia":801}]},{"linha":"345","descricao_ponto":"Avenida Edison Passos próximo ao 2029","sequencia":"50","latitude":"-22.9543","longitude":"-43.2627","pontos_turisticos":[{"nome":"Parque Nacional da Tijuca","distancia":1710}]},{"linha":"345","descricao_ponto":"Estrada Barra Da Tijuca próximo ao 1336","sequencia":"28","latitude":"-23.0043","longitude":"-43.3042","pontos_turisticos":[{"nome":"Praia da Joatinga","distancia":1813},{"nome":"Praia do Pepê","distancia":1244}]},{"linha":"345","descricao_ponto":"Estrada Das Furnas próximo ao 2235","sequencia":"37","latitude":"-22.9794","longitude":"-43.2923","pontos_turisticos":[]},{"linha":"345","descricao_ponto":"Rua Conde De Bonfim próximo ao 496","sequencia":"16","latitude":"-22.9259","longitude":"-43.235","pontos_turisticos":[{"nome":"Estádio do Maracanã","distancia":1425},{"nome":"Teatro Noel Rosa","distancia":1708},{"nome":"Teatro Odylo Costa Filho","distancia":1706},{"nome":"Teatro Ziembinski","distancia":1262}]},{"linha":"345","descricao_ponto":"Estrada Das Furnas próximo ao 1399","sequencia":"57","latitude":"-22.9784","longitude":"-43.2917","pontos_turisticos":[{"nome":"Museu do Açude","distancia":1882}]},{"linha":"345","descricao_ponto":"Estrada Barra Da Tijuca próximo ao 542","sequencia":"64","latitude":"-22.9905","longitude":"-43.3019","pontos_turisticos":[]},{"linha":"345","descricao_ponto":"Praca Euvaldo Lodi próximo ao S/n","sequencia":"69","latitude":"-23.0074","longitude":"-43.3039","pontos_turisticos":[{"nome":"Praia da Joatinga","distancia":1582},{"nome":"Praia do Pepê","distancia":905}]},{"linha":"345","descricao_ponto":"Rua Sargento Joao De Faria próximo ao S/n","sequencia":"24","latitude":"-23.0129","longitude":"-43.2979","pontos_turisticos":[{"nome":"Praia da Joatinga","distancia":760},{"nome":"Praia do Pepê","distancia":804}]},{"linha":"345","descricao_ponto":"Avenida Paulo De Frontin próximo ao 119","sequencia":"7","latitude":"-22.9136","longitude":"-43.2102","pontos_turisticos":[{"nome":"Quinta da Boa Vista/Museu Nacional","distancia":1756},{"nome":"Sambódromo","distancia":1389},{"nome":"Teatro Mário Lago","distancia":1940},{"nome":"Teatro Ziembinski","distancia":1625}]},{"linha":"345","descricao_ponto":"BRS 4, 5, 6, I - SÃO VICENTE","sequencia":"9","latitude":"-22.9169","longitude":"-43.2139","pontos_turisticos":[{"nome":"Estádio do Maracanã","distancia":1796},{"nome":"Quinta da Boa Vista/Museu Nacional","distancia":1700},{"nome":"Sambódromo","distancia":1849},{"nome":"Teatro Ziembinski","distancia":1120}]},{"linha":"345","descricao_ponto":"Rua Conde De Bonfim próximo ao 481","sequencia":"18","latitude":"-22.9282","longitude":"-43.2365","pontos_turisticos":[{"nome":"Estádio do Maracanã","distancia":1716},{"nome":"Teatro Noel Rosa","distancia":1946},{"nome":"Teatro Odylo Costa Filho","distancia":1968},{"nome":"Teatro Ziembinski","distancia":1520}]},{"linha":"345","descricao_ponto":"Avenida Ayrton Senna próximo ao 3435","sequencia":"93","latitude":"-22.9877","longitude":"-43.3654","pontos_turisticos":[{"nome":"Bosque da Barra","distancia":1501},{"nome":"Cidade das Artes","distancia":1213},{"nome":"Teatro CEC Antonio Fagundes","distancia":271}]},{"linha":"345","descricao_ponto":"Rua Conde De Bonfim próximo ao 1139","sequencia":"60","latitude":"-22.9414","longitude":"-43.2523","pontos_turisticos":[]},{"linha":"345","descricao_ponto":"Rua Haddock Lobo próximo ao 135","sequencia":"84","latitude":"-22.9182","longitude":"-43.2123","pontos_turisticos":[{"nome":"Estádio do Maracanã","distancia":1989},{"nome":"Quinta da Boa Vista/Museu Nacional","distancia":1917},{"nome":"Sambódromo","distancia":1752},{"nome":"Teatro Ziembinski","distancia":1228}]},{"linha":"345","descricao_ponto":"Rua Boa Vista próximo ao 4575","sequencia":"47","latitude":"-22.9615","longitude":"-43.2733","pontos_turisticos":[{"nome":"Museu do Açude","distancia":995},{"nome":"Parque Nacional da Tijuca","distancia":543}]},{"linha":"345","descricao_ponto":"Rua Boa Vista próximo ao 51","sequencia":"48","latitude":"-22.963","longitude":"-43.2752","pontos_turisticos":[{"nome":"Museu do Açude","distancia":775},{"nome":"Parque Nacional da Tijuca","distancia":473}]},{"linha":"345","descricao_ponto":"Estrada Barra Da Tijuca próximo ao 231","sequencia":"70","latitude":"-23.0093","longitude":"-43.2995","pontos_turisticos":[{"nome":"Praia da Joatinga","distancia":1090},{"nome":"Praia do Pepê","distancia":902}]},{"linha":"345","descricao_ponto":"Avenida Ayrton Senna próximo ao 200","sequencia":"91","latitude":"-22.9937","longitude":"-43.3655","pontos_turisticos":[{"nome":"Bosque da Barra","distancia":940},{"nome":"Cidade das Artes","distancia":546},{"nome":"Praia da Barra da Tijuca","distancia":1949},{"nome":"Teatro CEC Antonio Fagundes","distancia":415},{"nome":"Teatro dos Grandes Atores","distancia":1760}]},{"linha":"345","descricao_ponto":"BRS 5 - RIO BRANCO","sequencia":"2","latitude":"-22.9014","longitude":"-43.1799","pontos_turisticos":[{"nome":"Academia Brasileira de Letras","distancia":1271},{"nome":"Arcos da Lapa","distancia":1275},{"nome":"Biblioteca Nacional","distancia":1026},{"nome":"Campo de Santana","distancia":1044},{"nome":"Casa França Brasil","distancia":416},{"nome":"Catedral Metropolitana","distancia":1058},{"nome":"Centro Cultural Banco do Brasil","distancia":358},{"nome":"Centro Cultural dos Correios","distancia":416},{"nome":"Cidade do Samba","distancia":1921},{"nome":"Confeitaria Colombo","distancia":442},{"nome":"Espaço Cultural da Marinha","distancia":560},{"nome":"Igreja de São Francisco da Penitência","distancia":616},{"nome":"Igreja e Convento de Santa Teresa","distancia":1586},{"nome":"Igreja Nossa Senhora da Candelária","distancia":243},{"nome":"Igreja Nossa Senhora do Carmo da Antiga Sé","distancia":517},{"nome":"Ilha Fiscal","distancia":1497},{"nome":"Memorial dos Pretos Novos","distancia":1463},{"nome":"Monumento aos Pracinhas","distancia":1782},{"nome":"Mosteiro de São Bento","distancia":557},{"nome":"Museu de Arte do Rio","distancia":611},{"nome":"Museu da Chácara do Céu","distancia":1825},{"nome":"Museu de Arte Moderna","distancia":1542},{"nome":"Museu do Clube Naval","distancia":826},{"nome":"Museu Histórico Nacional","distancia":1166},{"nome":"Museu Nacional de Belas Artes","distancia":920},{"nome":"Paço Imperial","distancia":624},{"nome":"Palácio Tiradentes","distancia":654},{"nome":"Parque das Ruínas","distancia":1816},{"nome":"Praça Paris","distancia":1808},{"nome":"Real Gabinete Português de Leitura","distancia":508},{"nome":"Sala Cecília Meireles","distancia":1450},{"nome":"Teatro Carlos Gomes","distancia":701},{"nome":"Teatro Dulcina","distancia":1074},{"nome":"Teatro Glauce Rocha","distancia":729},{"nome":"Teatro João Caetano","distancia":606},{"nome":"Teatro Municipal","distancia":959},{"nome":"Teatro Rival Petrobras","distancia":1151}]},{"linha":"345","descricao_ponto":"Estrada Das Furnas próximo ao 3800","sequencia":"61","latitude":"-22.9814","longitude":"-43.3006","pontos_turisticos":[]},{"linha":"345","descricao_ponto":"Avenida Das Americas próximo ao 720","sequencia":"2","latitude":"-22.9914","longitude":"-43.3662","pontos_turisticos":[{"nome":"Bosque da Barra","distancia":1101},{"nome":"Cidade das Artes","distancia":805},{"nome":"Teatro CEC Antonio Fagundes","distancia":153},{"nome":"Teatro dos Grandes Atores","distancia":1944}]},{"linha":"345","descricao_ponto":"BRS 5, I - PRAÇA SAENS PENA","sequencia":"14","latitude":"-22.9237","longitude":"-43.2322","pontos_turisticos":[{"nome":"Estádio do Maracanã","distancia":1129},{"nome":"Teatro Noel Rosa","distancia":1545},{"nome":"Teatro Odylo Costa Filho","distancia":1489},{"nome":"Teatro Ziembinski","distancia":902}]},{"linha":"345","descricao_ponto":"Rua Conde De Bonfim próximo ao 1103","sequencia":"31","latitude":"-22.9411","longitude":"-43.2516","pontos_turisticos":[]},{"linha":"345","descricao_ponto":"Estrada Das Furnas próximo ao 1112","sequencia":"54","latitude":"-22.9728","longitude":"-43.2843","pontos_turisticos":[{"nome":"Museu do Açude","distancia":1033},{"nome":"Parque Nacional da Tijuca","distancia":1568}]},{"linha":"345","descricao_ponto":"Terminal Alvorada - Plataforma 3","sequencia":"90","latitude":"-23.0012","longitude":"-43.3657","pontos_turisticos":[{"nome":"Bosque da Barra","distancia":644},{"nome":"Cidade das Artes","distancia":288},{"nome":"Praia da Barra da Tijuca","distancia":1115},{"nome":"Teatro CEC Antonio Fagundes","distancia":1244},{"nome":"Teatro dos Grandes Atores","distancia":1615}]},{"linha":"345","descricao_ponto":"Avenida Ayrton Senna próximo ao 250","sequencia":"3","latitude":"-22.9945","longitude":"-43.3662","pontos_turisticos":[{"nome":"Bosque da Barra","distancia":826},{"nome":"Cidade das Artes","distancia":462},{"nome":"Praia da Barra da Tijuca","distancia":1859},{"nome":"Teatro CEC Antonio Fagundes","distancia":498},{"nome":"Teatro dos Grandes Atores","distancia":1790}]},{"linha":"345","descricao_ponto":"Rua Dom Rosalvo Costa Rego próximo ao 1904","sequencia":"30","latitude":"-22.9957","longitude":"-43.3042","pontos_turisticos":[]},{"linha":"345","descricao_ponto":"Rua Conde De Bonfim próximo ao 560","sequencia":"19","latitude":"-22.9293","longitude":"-43.2371","pontos_turisticos":[{"nome":"Estádio do Maracanã","distancia":1851},{"nome":"Teatro Ziembinski","distancia":1639}]},{"linha":"345","descricao_ponto":"Estrada Bigua próximo ao 805","sequencia":"53","latitude":"-22.971","longitude":"-43.2828","pontos_turisticos":[{"nome":"Museu do Açude","distancia":821},{"nome":"Parque Nacional da Tijuca","distancia":1325}]},{"linha":"345","descricao_ponto":"Avenida Das Americas próximo ao 4002","sequencia":"89","latitude":"-22.9994","longitude":"-43.3623","pontos_turisticos":[{"nome":"Bosque da Barra","distancia":975},{"nome":"Cidade das Artes","distancia":345},{"nome":"Praia da Barra da Tijuca","distancia":1371},{"nome":"Teatro CEC Antonio Fagundes","distancia":1116},{"nome":"Teatro dos Grandes Atores","distancia":1270}]},{"linha":"345","descricao_ponto":"Avenida Edison Passos próximo ao 3123","sequencia":"45","latitude":"-22.9575","longitude":"-43.2647","pontos_turisticos":[{"nome":"Museu do Açude","distancia":1968},{"nome":"Parque Nacional da Tijuca","distancia":1415}]},{"linha":"345","descricao_ponto":"Estrada Barra Da Tijuca próximo ao 1613","sequencia":"63","latitude":"-22.9883","longitude":"-43.3018","pontos_turisticos":[]},{"linha":"345","descricao_ponto":"Estrada Barra Da Tijuca próximo ao 2199","sequencia":"65","latitude":"-22.9933","longitude":"-43.3033","pontos_turisticos":[]},{"linha":"345","descricao_ponto":"Estrada Barra Da Tijuca próximo ao 1011","sequencia":"68","latitude":"-23.0037","longitude":"-43.3046","pontos_turisticos":[{"nome":"Praia da Joatinga","distancia":1888},{"nome":"Praia do Pepê","distancia":1307}]},{"linha":"345","descricao_ponto":"Avenida Das Americas próximo ao 1880","sequencia":"80","latitude":"-23.0003","longitude":"-43.3339","pontos_turisticos":[{"nome":"Centro Cultural Anglo Americano (Suassuna)","distancia":89},{"nome":"Teatro dos Grandes Atores","distancia":1642}]},{"linha":"345","descricao_ponto":"Rua Dom Rosalvo Costa Rego próximo ao 473","sequencia":"32","latitude":"-22.991","longitude":"-43.302","pontos_turisticos":[{"nome":"Pedra da Gávea","distancia":1999}]},{"linha":"345","descricao_ponto":"Rua Conde De Bonfim próximo ao 377","sequencia":"74","latitude":"-22.9252","longitude":"-43.2341","pontos_turisticos":[{"nome":"Estádio do Maracanã","distancia":1326},{"nome":"Teatro Noel Rosa","distancia":1649},{"nome":"Teatro Odylo Costa Filho","distancia":1631},{"nome":"Teatro Ziembinski","distancia":1145}]},{"linha":"345","descricao_ponto":"BRS 4, 5 - CIDADE NOVA","sequencia":"6","latitude":"-22.9098","longitude":"-43.2061","pontos_turisticos":[{"nome":"Campo de Santana","distancia":1853},{"nome":"Centro Luiz Gonzaga de Tradições Nordestinas","distancia":1981},{"nome":"Cidade do Samba","distancia":1955},{"nome":"Quinta da Boa Vista/Museu Nacional","distancia":1984},{"nome":"Sambódromo","distancia":967},{"nome":"Teatro Mário Lago","distancia":1918}]},{"linha":"345","descricao_ponto":"Estrada Das Furnas próximo ao 1135","sequencia":"55","latitude":"-22.9738","longitude":"-43.2855","pontos_turisticos":[{"nome":"Museu do Açude","distancia":1167},{"nome":"Parque Nacional da Tijuca","distancia":1720}]},{"linha":"345","descricao_ponto":"Avenida Das Americas próximo ao 3328","sequencia":"85","latitude":"-22.9998","longitude":"-43.3503","pontos_turisticos":[{"nome":"Centro Cultural Anglo Americano (Suassuna)","distancia":1634},{"nome":"Cidade das Artes","distancia":1567},{"nome":"Teatro CEC Antonio Fagundes","distancia":1958},{"nome":"Teatro dos Grandes Atores","distancia":80}]},{"linha":"345","descricao_ponto":"Rua Dom Rosalvo Costa Rego próximo ao 2500","sequencia":"31","latitude":"-22.9932","longitude":"-43.303","pontos_turisticos":[]},{"linha":"345","descricao_ponto":"Rua Boa Vista próximo ao 719","sequencia":"44","latitude":"-22.9655","longitude":"-43.2773","pontos_turisticos":[{"nome":"Museu do Açude","distancia":595},{"nome":"Parque Nacional da Tijuca","distancia":638}]},{"linha":"345","descricao_ponto":"Rua Conde De Bonfim próximo ao 1103","sequencia":"30","latitude":"-22.9407","longitude":"-43.2505","pontos_turisticos":[]},{"linha":"345","descricao_ponto":"Avenida Edison Passos próximo ao 313","sequencia":"37","latitude":"-22.9487","longitude":"-43.2599","pontos_turisticos":[]},{"linha":"345","descricao_ponto":"Avenida Das Americas próximo ao 2300","sequencia":"82","latitude":"-22.9999","longitude":"-43.3408","pontos_turisticos":[{"nome":"Centro Cultural Anglo Americano (Suassuna)","distancia":668},{"nome":"Teatro dos Grandes Atores","distancia":938}]},{"linha":"345","descricao_ponto":"Avenida Das Americas próximo ao 4790","sequencia":"88","latitude":"-22.9995","longitude":"-43.3574","pontos_turisticos":[{"nome":"Bosque da Barra","distancia":1476},{"nome":"Cidade das Artes","distancia":841},{"nome":"Praia da Barra da Tijuca","distancia":1580},{"nome":"Teatro CEC Antonio Fagundes","distancia":1386},{"nome":"Teatro dos Grandes Atores","distancia":770}]},{"linha":"345","descricao_ponto":"Avenida Edison Passos próximo ao 3123","sequencia":"48","latitude":"-22.9574","longitude":"-43.2649","pontos_turisticos":[{"nome":"Museu do Açude","distancia":1953},{"nome":"Parque Nacional da Tijuca","distancia":1397}]},{"linha":"345","descricao_ponto":"Rua Conde De Bonfim próximo ao 822","sequencia":"25","latitude":"-22.9358","longitude":"-43.2444","pontos_turisticos":[]},{"linha":"345","descricao_ponto":"Rua Boa Vista próximo ao 719","sequencia":"51","latitude":"-22.9658","longitude":"-43.2774","pontos_turisticos":[{"nome":"Museu do Açude","distancia":598},{"nome":"Parque Nacional da Tijuca","distancia":670}]},{"linha":"345","descricao_ponto":"Rua Boa Vista próximo ao 4575","sequencia":"47","latitude":"-22.9615","longitude":"-43.2733","pontos_turisticos":[{"nome":"Museu do Açude","distancia":995},{"nome":"Parque Nacional da Tijuca","distancia":543}]},{"linha":"345","descricao_ponto":"Avenida Edison Passos próximo ao 1142","sequencia":"52","latitude":"-22.9515","longitude":"-43.2607","pontos_turisticos":[]},{"linha":"345","descricao_ponto":"Rua Conde De Bonfim próximo ao 1139","sequencia":"59","latitude":"-22.9423","longitude":"-43.2532","pontos_turisticos":[]},{"linha":"345","descricao_ponto":"Rua Boa Vista próximo ao 117","sequencia":"50","latitude":"-22.9644","longitude":"-43.2769","pontos_turisticos":[{"nome":"Museu do Açude","distancia":604},{"nome":"Parque Nacional da Tijuca","distancia":528}]},{"linha":"345","descricao_ponto":"Avenida Armando Lombardi próximo ao 870","sequencia":"75","latitude":"-23.0064","longitude":"-43.3121","pontos_turisticos":[{"nome":"Praia do Pepê","distancia":1225}]},{"linha":"345","descricao_ponto":"Avenida Das Americas próximo ao 3307","sequencia":"9","latitude":"-23.0004","longitude":"-43.3502","pontos_turisticos":[{"nome":"Centro Cultural Anglo Americano (Suassuna)","distancia":1620},{"nome":"Cidade das Artes","distancia":1584},{"nome":"Teatro dos Grandes Atores","distancia":27}]},{"linha":"345","descricao_ponto":"Estrada Barra Da Tijuca próximo ao 439","sequencia":"26","latitude":"-23.0104","longitude":"-43.2974","pontos_turisticos":[{"nome":"Pedra da Gávea","distancia":1981},{"nome":"Praia da Joatinga","distancia":845},{"nome":"Praia do Pepê","distancia":980}]},{"linha":"345","descricao_ponto":"Rua Conde De Bonfim próximo ao 927","sequencia":"64","latitude":"-22.9384","longitude":"-43.2471","pontos_turisticos":[]},{"linha":"345","descricao_ponto":"Rua Conde De Bonfim próximo ao 370","sequencia":"75","latitude":"-22.9245","longitude":"-43.2331","pontos_turisticos":[{"nome":"Estádio do Maracanã","distancia":1229},{"nome":"Teatro Noel Rosa","distancia":1599},{"nome":"Teatro Odylo Costa Filho","distancia":1563},{"nome":"Teatro Ziembinski","distancia":1020}]},{"linha":"345","descricao_ponto":"Rua Conde De Bonfim próximo ao 25","sequencia":"79","latitude":"-22.9245","longitude":"-43.2242","pontos_turisticos":[{"nome":"Estádio do Maracanã","distancia":1401},{"nome":"Teatro Odylo Costa Filho","distancia":1905},{"nome":"Teatro Ziembinski","distancia":396}]},{"linha":"345","descricao_ponto":"Rua Boa Vista próximo ao 56","sequencia":"46","latitude":"-22.9632","longitude":"-43.2753","pontos_turisticos":[{"nome":"Museu do Açude","distancia":763},{"nome":"Parque Nacional da Tijuca","distancia":484}]},{"linha":"345","descricao_ponto":"Avenida Das Americas próximo ao 3255","sequencia":"11","latitude":"-23.0004","longitude":"-43.3465","pontos_turisticos":[{"nome":"Centro Cultural Anglo Americano (Suassuna)","distancia":1242},{"nome":"Cidade das Artes","distancia":1961},{"nome":"Teatro dos Grandes Atores","distancia":352}]},{"linha":"345","descricao_ponto":"Estrada Das Furnas próximo ao 1112","sequencia":"42","latitude":"-22.9728","longitude":"-43.2843","pontos_turisticos":[{"nome":"Museu do Açude","distancia":1033},{"nome":"Parque Nacional da Tijuca","distancia":1568}]},{"linha":"345","descricao_ponto":"Avenida Edison Passos próximo ao 2181","sequencia":"49","latitude":"-22.9572","longitude":"-43.2676","pontos_turisticos":[{"nome":"Museu do Açude","distancia":1706},{"nome":"Parque Nacional da Tijuca","distancia":1133}]},{"linha":"345","descricao_ponto":"Rua Conde De Bonfim próximo ao 1033","sequencia":"62","latitude":"-22.9396","longitude":"-43.2487","pontos_turisticos":[]},{"linha":"345","descricao_ponto":"Rua Conde De Bonfim próximo ao 915","sequencia":"65","latitude":"-22.9379","longitude":"-43.2466","pontos_turisticos":[]},{"linha":"345","descricao_ponto":"Rua Conde De Bonfim próximo ao 862","sequencia":"66","latitude":"-22.9364","longitude":"-43.2451","pontos_turisticos":[]},{"linha":"345","descricao_ponto":"Rua Conde De Bonfim próximo ao 862","sequencia":"26","latitude":"-22.9365","longitude":"-43.2451","pontos_turisticos":[]},{"linha":"345","descricao_ponto":"Rua Einstein próximo ao 439","sequencia":"27","latitude":"-23.0089","longitude":"-43.2983","pontos_turisticos":[{"nome":"Pedra da Gávea","distancia":1935},{"nome":"Praia da Joatinga","distancia":1022},{"nome":"Praia do Pepê","distancia":1018}]},{"linha":"345","descricao_ponto":"Avenida Edison Passos próximo ao 879","sequencia":"53","latitude":"-22.9507","longitude":"-43.2619","pontos_turisticos":[{"nome":"Parque Nacional da Tijuca","distancia":1961}]},{"linha":"345","descricao_ponto":"Rua Conde De Bonfim próximo ao 25","sequencia":"80","latitude":"-22.9228","longitude":"-43.2223","pontos_turisticos":[{"nome":"Estádio do Maracanã","distancia":1361},{"nome":"Quinta da Boa Vista/Museu Nacional","distancia":1948},{"nome":"Teatro Odylo Costa Filho","distancia":1883},{"nome":"Teatro Ziembinski","distancia":264}]},{"linha":"345","descricao_ponto":"Rua Conde De Bonfim próximo ao 469","sequencia":"17","latitude":"-22.9274","longitude":"-43.236","pontos_turisticos":[{"nome":"Estádio do Maracanã","distancia":1615},{"nome":"Teatro Noel Rosa","distancia":1861},{"nome":"Teatro Odylo Costa Filho","distancia":1876},{"nome":"Teatro Ziembinski","distancia":1430}]},{"linha":"345","descricao_ponto":"Avenida Armando Lombardi próximo ao 385","sequencia":"20","latitude":"-23.0065","longitude":"-43.3156","pontos_turisticos":[{"nome":"Praia do Pepê","distancia":1452}]},{"linha":"345","descricao_ponto":"Avenida Edison Passos próximo ao 15","sequencia":"56","latitude":"-22.9467","longitude":"-43.2571","pontos_turisticos":[]},{"linha":"345","descricao_ponto":"Rua Conde De Bonfim próximo ao 822","sequencia":"67","latitude":"-22.9355","longitude":"-43.244","pontos_turisticos":[]},{"linha":"345","descricao_ponto":"Rua Conde De Bonfim próximo ao 1052","sequencia":"29","latitude":"-22.9403","longitude":"-43.2497","pontos_turisticos":[]},{"linha":"345","descricao_ponto":"Avenida Edison Passos próximo ao 185","sequencia":"36","latitude":"-22.9469","longitude":"-43.2592","pontos_turisticos":[]},{"linha":"345","descricao_ponto":"Estrada Velha Da Tijuca próximo ao 4272","sequencia":"46","latitude":"-22.9601","longitude":"-43.2696","pontos_turisticos":[{"nome":"Museu do Açude","distancia":1401},{"nome":"Parque Nacional da Tijuca","distancia":890}]},{"linha":"345","descricao_ponto":"Estrada Das Furnas próximo ao 2711","sequencia":"60","latitude":"-22.9815","longitude":"-43.2948","pontos_turisticos":[]},{"linha":"345","descricao_ponto":"Avenida Das Americas próximo ao 3434","sequencia":"84","latitude":"-22.9998","longitude":"-43.3463","pontos_turisticos":[{"nome":"Centro Cultural Anglo Americano (Suassuna)","distancia":1227},{"nome":"Cidade das Artes","distancia":1975},{"nome":"Teatro dos Grandes Atores","distancia":380}]},{"linha":"345","descricao_ponto":"Avenida Das Americas próximo ao 4666","sequencia":"87","latitude":"-22.9997","longitude":"-43.3539","pontos_turisticos":[{"nome":"Bosque da Barra","distancia":1834},{"nome":"Cidade das Artes","distancia":1199},{"nome":"Praia da Barra da Tijuca","distancia":1791},{"nome":"Teatro CEC Antonio Fagundes","distancia":1656},{"nome":"Teatro dos Grandes Atores","distancia":413}]},{"linha":"345","descricao_ponto":"Avenida Das Americas próximo ao 297","sequencia":"19","latitude":"-23.0055","longitude":"-43.3186","pontos_turisticos":[{"nome":"Centro Cultural Anglo Americano (Suassuna)","distancia":1692},{"nome":"Praia do Pepê","distancia":1757}]},{"linha":"345","descricao_ponto":"Avenida Edison Passos próximo ao 1359","sequencia":"51","latitude":"-22.9514","longitude":"-43.2591","pontos_turisticos":[]},{"linha":"345","descricao_ponto":"Rua Conde De Bonfim próximo ao 481","sequencia":"72","latitude":"-22.9283","longitude":"-43.2364","pontos_turisticos":[{"nome":"Estádio do Maracanã","distancia":1723},{"nome":"Teatro Noel Rosa","distancia":1958},{"nome":"Teatro Odylo Costa Filho","distancia":1978},{"nome":"Teatro Ziembinski","distancia":1518}]},{"linha":"345","descricao_ponto":"Avenida Das Americas próximo ao 1917","sequencia":"13","latitude":"-23.0006","longitude":"-43.3397","pontos_turisticos":[{"nome":"Centro Cultural Anglo Americano (Suassuna)","distancia":546},{"nome":"Teatro dos Grandes Atores","distancia":1049}]},{"linha":"345","descricao_ponto":"Rua Conde De Bonfim próximo ao 447","sequencia":"73","latitude":"-22.927","longitude":"-43.2356","pontos_turisticos":[{"nome":"Estádio do Maracanã","distancia":1560},{"nome":"Teatro Noel Rosa","distancia":1821},{"nome":"Teatro Odylo Costa Filho","distancia":1830},{"nome":"Teatro Ziembinski","distancia":1373}]},{"linha":"345","descricao_ponto":"Rua Conde De Bonfim próximo ao 193","sequencia":"77","latitude":"-22.9242","longitude":"-43.2279","pontos_turisticos":[{"nome":"Estádio do Maracanã","distancia":1222},{"nome":"Teatro Noel Rosa","distancia":1798},{"nome":"Teatro Odylo Costa Filho","distancia":1682},{"nome":"Teatro Ziembinski","distancia":545}]},{"linha":"345","descricao_ponto":"BRS 5, 6, I - CARMELA DUTRA","sequencia":"13","latitude":"-22.921","longitude":"-43.2268","pontos_turisticos":[{"nome":"Estádio do Maracanã","distancia":931},{"nome":"Jardim Zoológico (Riozoo)","distancia":1858},{"nome":"Quinta da Boa Vista/Museu Nacional","distancia":1741},{"nome":"Teatro Noel Rosa","distancia":1591},{"nome":"Teatro Odylo Costa Filho","distancia":1433},{"nome":"Teatro Ziembinski","distancia":295}]},{"linha":"345","descricao_ponto":"Rua Conde De Bonfim próximo ao 1139","sequencia":"33","latitude":"-22.9439","longitude":"-43.2541","pontos_turisticos":[]},{"linha":"345","descricao_ponto":"Estrada Das Furnas próximo ao 1399","sequencia":"56","latitude":"-22.9764","longitude":"-43.2889","pontos_turisticos":[{"nome":"Museu do Açude","distancia":1555}]},{"linha":"345","descricao_ponto":"Avenida Das Americas próximo ao 1276","sequencia":"78","latitude":"-23.0015","longitude":"-43.3275","pontos_turisticos":[{"nome":"Centro Cultural Anglo Americano (Suassuna)","distancia":707}]},{"linha":"345","descricao_ponto":"Avenida Edison Passos próximo ao 1359","sequencia":"40","latitude":"-22.9512","longitude":"-43.2586","pontos_turisticos":[]},{"linha":"345","descricao_ponto":"Avenida Das Americas próximo ao 1245","sequencia":"17","latitude":"-23.0021","longitude":"-43.3278","pontos_turisticos":[{"nome":"Centro Cultural Anglo Americano (Suassuna)","distancia":685}]},{"linha":"345","descricao_ponto":"Estrada Das Furnas próximo ao 3001","sequencia":"36","latitude":"-22.9822","longitude":"-43.2954","pontos_turisticos":[]},{"linha":"345","descricao_ponto":"Rua Conde De Bonfim próximo ao 1103","sequencia":"61","latitude":"-22.9407","longitude":"-43.2505","pontos_turisticos":[]},{"linha":"345","descricao_ponto":"Rua Conde De Bonfim próximo ao 685","sequencia":"22","latitude":"-22.9323","longitude":"-43.2409","pontos_turisticos":[]},{"linha":"345","descricao_ponto":"Rua Conde De Bonfim próximo ao 1139","sequencia":"32","latitude":"-22.9421","longitude":"-43.2531","pontos_turisticos":[]},{"linha":"345","descricao_ponto":"Avenida Edison Passos próximo ao 1142","sequencia":"39","latitude":"-22.9515","longitude":"-43.2607","pontos_turisticos":[]},{"linha":"345","descricao_ponto":"Avenida Das Americas próximo ao 4200","sequencia":"86","latitude":"-22.9997","longitude":"-43.3517","pontos_turisticos":[{"nome":"Centro Cultural Anglo Americano (Suassuna)","distancia":1778},{"nome":"Cidade das Artes","distancia":1423},{"nome":"Praia da Barra da Tijuca","distancia":1955},{"nome":"Teatro CEC Antonio Fagundes","distancia":1834},{"nome":"Teatro dos Grandes Atores","distancia":198}]},{"linha":"345","descricao_ponto":"Rua Dom Rosalvo Costa Rego próximo ao 1636","sequencia":"29","latitude":"-23.0004","longitude":"-43.3046","pontos_turisticos":[{"nome":"Praia do Pepê","distancia":1674}]},{"linha":"345","descricao_ponto":"Rua Benedito Hipolito próximo ao 514 ","sequencia":"89","latitude":"-22.9079","longitude":"-43.1958","pontos_turisticos":[{"nome":"Arcos da Lapa","distancia":1719},{"nome":"Campo de Santana","distancia":777},{"nome":"Catedral Metropolitana","distancia":1579},{"nome":"Cidade do Samba","distancia":1513},{"nome":"Confeitaria Colombo","distancia":1766},{"nome":"Igreja de São Francisco da Penitência","distancia":1698},{"nome":"Igreja e Convento de Santa Teresa","distancia":1806},{"nome":"Memorial dos Pretos Novos","distancia":1347},{"nome":"Museu de Arte do Rio","distancia":1943},{"nome":"Museu da Chácara do Céu","distancia":1591},{"nome":"Museu do Clube Naval","distancia":1965},{"nome":"Parque das Ruínas","distancia":1738},{"nome":"Real Gabinete Português de Leitura","distancia":1422},{"nome":"Sala Cecília Meireles","distancia":1937},{"nome":"Sambódromo","distancia":411},{"nome":"Teatro Carlos Gomes","distancia":1362},{"nome":"Teatro Dulcina","distancia":1945},{"nome":"Teatro Glauce Rocha","distancia":1955},{"nome":"Teatro João Caetano","distancia":1394},{"nome":"Teatro Municipal","distancia":1995}]},{"linha":"345","descricao_ponto":"Estrada Das Furnas próximo ao 1","sequencia":"58","latitude":"-22.9794","longitude":"-43.2925","pontos_turisticos":[]},{"linha":"345","descricao_ponto":"Estrada Barra Da Tijuca próximo ao 439","sequencia":"71","latitude":"-23.0104","longitude":"-43.2974","pontos_turisticos":[{"nome":"Pedra da Gávea","distancia":1981},{"nome":"Praia da Joatinga","distancia":845},{"nome":"Praia do Pepê","distancia":980}]},{"linha":"345","descricao_ponto":"Avenida Armando Lombardi próximo ao 800","sequencia":"73","latitude":"-23.0069","longitude":"-43.3074","pontos_turisticos":[{"nome":"Praia da Joatinga","distancia":1920},{"nome":"Praia do Pepê","distancia":975}]},{"linha":"345","descricao_ponto":"Avenida Edison Passos próximo ao 567","sequencia":"54","latitude":"-22.9492","longitude":"-43.2602","pontos_turisticos":[]},{"linha":"345","descricao_ponto":"Avenida Edison Passos próximo ao 313","sequencia":"55","latitude":"-22.9475","longitude":"-43.2593","pontos_turisticos":[]},{"linha":"345","descricao_ponto":"Rua Conde De Bonfim próximo ao 189","sequencia":"76","latitude":"-22.9233","longitude":"-43.2301","pontos_turisticos":[{"nome":"Estádio do Maracanã","distancia":1083},{"nome":"Teatro Noel Rosa","distancia":1596},{"nome":"Teatro Odylo Costa Filho","distancia":1503},{"nome":"Teatro Ziembinski","distancia":685}]},{"linha":"345","descricao_ponto":"Rua Haddock Lobo próximo ao 347","sequencia":"81","latitude":"-22.9213","longitude":"-43.2198","pontos_turisticos":[{"nome":"Estádio do Maracanã","distancia":1437},{"nome":"Quinta da Boa Vista/Museu Nacional","distancia":1839},{"nome":"Teatro Odylo Costa Filho","distancia":1962},{"nome":"Teatro Ziembinski","distancia":423}]},{"linha":"345","descricao_ponto":"Rua Haddock Lobo próximo ao 153","sequencia":"83","latitude":"-22.9197","longitude":"-43.2152","pontos_turisticos":[{"nome":"Estádio do Maracanã","distancia":1761},{"nome":"Quinta da Boa Vista/Museu Nacional","distancia":1870},{"nome":"Teatro Ziembinski","distancia":903}]},{"linha":"345","descricao_ponto":"BRS 5 - TOMÉ DE SOUSA","sequencia":"3","latitude":"-22.904","longitude":"-43.1879","pontos_turisticos":[{"nome":"Academia Brasileira de Letras","distancia":1710},{"nome":"Arcos da Lapa","distancia":1281},{"nome":"Biblioteca Nacional","distancia":1406},{"nome":"Campo de Santana","distancia":300},{"nome":"Casa França Brasil","distancia":1285},{"nome":"Catedral Metropolitana","distancia":1061},{"nome":"Centro Cultural Banco do Brasil","distancia":1226},{"nome":"Centro Cultural dos Correios","distancia":1272},{"nome":"Cidade do Samba","distancia":1423},{"nome":"Confeitaria Colombo","distancia":942},{"nome":"Espaço Cultural da Marinha","distancia":1416},{"nome":"Igreja de São Francisco da Penitência","distancia":942},{"nome":"Igreja e Convento de Santa Teresa","distancia":1512},{"nome":"Igreja Nossa Senhora da Candelária","distancia":1112},{"nome":"Igreja Nossa Senhora do Carmo da Antiga Sé","distancia":1297},{"nome":"Memorial dos Pretos Novos","distancia":1023},{"nome":"Monumento aos Pracinhas","distancia":1985},{"nome":"Mosteiro de São Bento","distancia":1305},{"nome":"Museu de Arte do Rio","distancia":1075},{"nome":"Museu da Chácara do Céu","distancia":1533},{"nome":"Museu de Arte Moderna","distancia":1859},{"nome":"Museu do Clube Naval","distancia":1246},{"nome":"Museu Histórico Nacional","distancia":1898},{"nome":"Museu Nacional de Belas Artes","distancia":1326},{"nome":"Paço Imperial","distancia":1398},{"nome":"Palácio Tiradentes","distancia":1401},{"nome":"Parque das Ruínas","distancia":1607},{"nome":"Praça Paris","distancia":1921},{"nome":"Real Gabinete Português de Leitura","distancia":609},{"nome":"Sala Cecília Meireles","distancia":1518},{"nome":"Sambódromo","distancia":1236},{"nome":"Teatro Carlos Gomes","distancia":657},{"nome":"Teatro Dulcina","distancia":1337},{"nome":"Teatro Glauce Rocha","distancia":1201},{"nome":"Teatro João Caetano","distancia":633},{"nome":"Teatro Municipal","distancia":1323},{"nome":"Teatro Rival Petrobras","distancia":1435}]},{"linha":"345","descricao_ponto":"Estrada Das Furnas próximo ao 3925","sequencia":"62","latitude":"-22.9844","longitude":"-43.3","pontos_turisticos":[]},{"linha":"345","descricao_ponto":"Rua Shubert Magalhaes próximo ao 777","sequencia":"18","latitude":"-23.004","longitude":"-43.3231","pontos_turisticos":[{"nome":"Centro Cultural Anglo Americano (Suassuna)","distancia":1203}]},{"linha":"345","descricao_ponto":"Rua Conde De Bonfim próximo ao 977","sequencia":"63","latitude":"-22.9393","longitude":"-43.2482","pontos_turisticos":[]},{"linha":"345","descricao_ponto":"Rua Conde De Bonfim próximo ao 570","sequencia":"20","latitude":"-22.9311","longitude":"-43.2387","pontos_turisticos":[{"nome":"Teatro Ziembinski","distancia":1889}]},{"linha":"345","descricao_ponto":"Avenida Edison Passos próximo ao 2181","sequencia":"43","latitude":"-22.9569","longitude":"-43.2678","pontos_turisticos":[{"nome":"Museu do Açude","distancia":1702},{"nome":"Parque Nacional da Tijuca","distancia":1122}]}]