[{"linha":"348","descricao_ponto":"Avenida Francisco Bicalho próximo ao 337","sequencia":"46","latitude":"-22.9003","longitude":"-43.2106","pontos_turisticos":[{"nome":"Centro Luiz Gonzaga de Tradições Nordestinas","distancia":976},{"nome":"Cidade do Samba","distancia":1541},{"nome":"Jardim Zoológico (Riozoo)","distancia":1921},{"nome":"Memorial dos Pretos Novos","distancia":1867},{"nome":"Quinta da Boa Vista/Museu Nacional","distancia":1571},{"nome":"Sambódromo","distancia":1879},{"nome":"Teatro Mário Lago","distancia":1058}]},{"linha":"348","descricao_ponto":"Avenida Brasil próximo ao 4036","sequencia":"24","latitude":"-22.8813","longitude":"-43.2384","pontos_turisticos":[]},{"linha":"348","descricao_ponto":"Estrada Dos Bandeirantes próximo ao 6333","sequencia":"9","latitude":"-22.9628","longitude":"-43.4012","pontos_turisticos":[]},{"linha":"348","descricao_ponto":"Estrada Dos Bandeirantes próximo ao 2699","sequencia":"20","latitude":"-22.9523","longitude":"-43.3745","pontos_turisticos":[]},{"linha":"348","descricao_ponto":"Estrada Marechal Miguel Salazar M Morais próximo ao 1454","sequencia":"31","latitude":"-22.946","longitude":"-43.3625","pontos_turisticos":[]},{"linha":"348","descricao_ponto":"Estrada Dos Bandeirantes próximo ao 6471","sequencia":"8","latitude":"-22.9632","longitude":"-43.4027","pontos_turisticos":[]},{"linha":"348","descricao_ponto":"10722","sequencia":"27","latitude":"-22.8718","longitude":"-43.2492","pontos_turisticos":[]},{"linha":"348","descricao_ponto":"Estrada Dos Bandeirantes próximo ao 7028","sequencia":"54","latitude":"-22.9645","longitude":"-43.4063","pontos_turisticos":[]},{"linha":"348","descricao_ponto":"Estrada Dos Bandeirantes próximo ao 8341","sequencia":"2","latitude":"-22.9723","longitude":"-43.414","pontos_turisticos":[]},{"linha":"348","descricao_ponto":"Avenida Ttecel Muniz De Aragao próximo ao 2487","sequencia":"34","latitude":"-22.9543","longitude":"-43.3548","pontos_turisticos":[]},{"linha":"348","descricao_ponto":"Avenida Ttecel Muniz De Aragao próximo ao 2487","sequencia":"28","latitude":"-22.9543","longitude":"-43.3548","pontos_turisticos":[]},{"linha":"348","descricao_ponto":"BRS 5 - CENTRAL","sequencia":"50","latitude":"-22.9056","longitude":"-43.1917","pontos_turisticos":[{"nome":"Arcos da Lapa","distancia":1453},{"nome":"Biblioteca Nacional","distancia":1704},{"nome":"Campo de Santana","distancia":365},{"nome":"Casa França Brasil","distancia":1711},{"nome":"Catedral Metropolitana","distancia":1268},{"nome":"Centro Cultural Banco do Brasil","distancia":1651},{"nome":"Centro Cultural dos Correios","distancia":1694},{"nome":"Cidade do Samba","distancia":1366},{"nome":"Confeitaria Colombo","distancia":1322},{"nome":"Espaço Cultural da Marinha","distancia":1837},{"nome":"Igreja de São Francisco da Penitência","distancia":1282},{"nome":"Igreja e Convento de Santa Teresa","distancia":1616},{"nome":"Igreja Nossa Senhora da Candelária","distancia":1538},{"nome":"Igreja Nossa Senhora do Carmo da Antiga Sé","distancia":1704},{"nome":"Memorial dos Pretos Novos","distancia":1067},{"nome":"Mosteiro de São Bento","distancia":1724},{"nome":"Museu de Arte do Rio","distancia":1463},{"nome":"Museu da Chácara do Céu","distancia":1519},{"nome":"Museu do Clube Naval","distancia":1571},{"nome":"Museu Nacional de Belas Artes","distancia":1640},{"nome":"Paço Imperial","distancia":1800},{"nome":"Palácio Tiradentes","distancia":1797},{"nome":"Parque das Ruínas","distancia":1632},{"nome":"Real Gabinete Português de Leitura","distancia":976},{"nome":"Sala Cecília Meireles","distancia":1688},{"nome":"Sambódromo","distancia":838},{"nome":"Teatro Carlos Gomes","distancia":958},{"nome":"Teatro Dulcina","distancia":1603},{"nome":"Teatro Glauce Rocha","distancia":1545},{"nome":"Teatro João Caetano","distancia":968},{"nome":"Teatro Municipal","distancia":1624},{"nome":"Teatro Rival Petrobras","distancia":1699}]},{"linha":"348","descricao_ponto":"Estrada Dos Bandeirantes próximo ao 7213","sequencia":"55","latitude":"-22.9655","longitude":"-43.4091","pontos_turisticos":[]},{"linha":"348","descricao_ponto":"Estrada Dos Bandeirantes próximo ao 7390","sequencia":"56","latitude":"-22.9663","longitude":"-43.4118","pontos_turisticos":[]},{"linha":"348","descricao_ponto":"Avenida Brasil próximo ao 3141","sequencia":"38","latitude":"-22.875","longitude":"-43.2435","pontos_turisticos":[]},{"linha":"348","descricao_ponto":"Avenida Brasil próximo ao 414","sequencia":"39","latitude":"-22.8859","longitude":"-43.2349","pontos_turisticos":[]},{"linha":"348","descricao_ponto":"Avenida Brasil próximo ao 1211","sequencia":"44","latitude":"-22.8893","longitude":"-43.2204","pontos_turisticos":[{"nome":"Centro Luiz Gonzaga de Tradições Nordestinas","distancia":842},{"nome":"Jardim Zoológico (Riozoo)","distancia":1887},{"nome":"Quinta da Boa Vista/Museu Nacional","distancia":1853},{"nome":"Teatro Mário Lago","distancia":1099}]},{"linha":"348","descricao_ponto":"Avenida Brasil próximo ao 49","sequencia":"18","latitude":"-22.8886","longitude":"-43.2201","pontos_turisticos":[{"nome":"Centro Luiz Gonzaga de Tradições Nordestinas","distancia":916},{"nome":"Jardim Zoológico (Riozoo)","distancia":1970},{"nome":"Quinta da Boa Vista/Museu Nacional","distancia":1936},{"nome":"Teatro Mário Lago","distancia":1179}]},{"linha":"348","descricao_ponto":"Estrada Dos Bandeirantes próximo ao 5324","sequencia":"49","latitude":"-22.9606","longitude":"-43.3925","pontos_turisticos":[]},{"linha":"348","descricao_ponto":"Estrada Dos Bandeirantes próximo ao 5985","sequencia":"10","latitude":"-22.962","longitude":"-43.3979","pontos_turisticos":[]},{"linha":"348","descricao_ponto":"Estrada Dos Bandeirantes próximo ao 2697","sequencia":"21","latitude":"-22.9485","longitude":"-43.3724","pontos_turisticos":[]},{"linha":"348","descricao_ponto":"Estrada Dos Bandeirantes próximo ao 2627","sequencia":"22","latitude":"-22.9475","longitude":"-43.372","pontos_turisticos":[]},{"linha":"348","descricao_ponto":"Estrada Dos Bandeirantes próximo ao 2179","sequencia":"23","latitude":"-22.9446","longitude":"-43.372","pontos_turisticos":[]},{"linha":"348","descricao_ponto":"Estrada Marechal Miguel Salazar M Morais próximo ao 731","sequencia":"29","latitude":"-22.9431","longitude":"-43.366","pontos_turisticos":[]},{"linha":"348","descricao_ponto":"Avenida Brasil próximo ao 3666","sequencia":"22","latitude":"-22.886","longitude":"-43.2341","pontos_turisticos":[{"nome":"Centro Luiz Gonzaga de Tradições Nordestinas","distancia":1931},{"nome":"Teatro Mário Lago","distancia":1997}]},{"linha":"348","descricao_ponto":"30585","sequencia":"36","latitude":"-22.8716","longitude":"-43.2588","pontos_turisticos":[]},{"linha":"348","descricao_ponto":"Estrada Dos Bandeirantes próximo ao 2352","sequencia":"40","latitude":"-22.9454","longitude":"-43.3722","pontos_turisticos":[]},{"linha":"348","descricao_ponto":"Estrada Dos Bandeirantes próximo ao 8464","sequencia":"58","latitude":"-22.9724","longitude":"-43.4141","pontos_turisticos":[]},{"linha":"348","descricao_ponto":"Estrada Dos Bandeirantes próximo ao 1963","sequencia":"24","latitude":"-22.942","longitude":"-43.3723","pontos_turisticos":[]},{"linha":"348","descricao_ponto":"BRS 3A, 5 - PRAÇA ONZE","sequencia":"13","latitude":"-22.9076","longitude":"-43.1997","pontos_turisticos":[{"nome":"Campo de Santana","distancia":1169},{"nome":"Catedral Metropolitana","distancia":1977},{"nome":"Cidade do Samba","distancia":1500},{"nome":"Memorial dos Pretos Novos","distancia":1456},{"nome":"Museu da Chácara do Céu","distancia":1928},{"nome":"Real Gabinete Português de Leitura","distancia":1811},{"nome":"Sambódromo","distancia":521},{"nome":"Teatro Carlos Gomes","distancia":1760},{"nome":"Teatro João Caetano","distancia":1788}]},{"linha":"348","descricao_ponto":"Avenida Brasil próximo ao","sequencia":"23","latitude":"-22.8839","longitude":"-43.2361","pontos_turisticos":[]},{"linha":"348","descricao_ponto":"Avenida Brasil próximo ao 2482","sequencia":"21","latitude":"-22.8854","longitude":"-43.2289","pontos_turisticos":[{"nome":"Centro Luiz Gonzaga de Tradições Nordestinas","distancia":1603},{"nome":"Teatro Mário Lago","distancia":1739}]},{"linha":"348","descricao_ponto":"Estrada Dos Bandeirantes próximo ao 4836","sequencia":"47","latitude":"-22.9593","longitude":"-43.3869","pontos_turisticos":[]},{"linha":"348","descricao_ponto":"Rua Edgard Werneck próximo ao 1698","sequencia":"33","latitude":"-22.9519","longitude":"-43.3582","pontos_turisticos":[]},{"linha":"348","descricao_ponto":"Rua Araujo Porto Alegre próximo ao 27","sequencia":"60","latitude":"-22.9083","longitude":"-43.1731","pontos_turisticos":[{"nome":"Academia Brasileira de Letras","distancia":287},{"nome":"Arcos da Lapa","distancia":863},{"nome":"Biblioteca Nacional","distancia":312},{"nome":"Campo de Santana","distancia":1571},{"nome":"Casa França Brasil","distancia":927},{"nome":"Catedral Metropolitana","distancia":833},{"nome":"Centro Cultural Banco do Brasil","distancia":924},{"nome":"Centro Cultural dos Correios","distancia":828},{"nome":"Confeitaria Colombo","distancia":676},{"nome":"Espaço Cultural da Marinha","distancia":814},{"nome":"Igreja de São Francisco da Penitência","distancia":650},{"nome":"Igreja e Convento de Santa Teresa","distancia":1102},{"nome":"Igreja Nossa Senhora da Candelária","distancia":961},{"nome":"Igreja Nossa Senhora da Glória do Outeiro","distancia":1467},{"nome":"Igreja Nossa Senhora do Carmo da Antiga Sé","distancia":605},{"nome":"Ilha Fiscal","distancia":1452},{"nome":"Monumento aos Pracinhas","distancia":916},{"nome":"Mosteiro de São Bento","distancia":1375},{"nome":"Museu de Arte do Rio","distancia":1613},{"nome":"Museu da Chácara do Céu","distancia":1513},{"nome":"Museu da República","distancia":1983},{"nome":"Museu de Arte Moderna","distancia":614},{"nome":"Museu do Clube Naval","distancia":360},{"nome":"Museu Histórico Nacional","distancia":483},{"nome":"Museu Nacional de Belas Artes","distancia":314},{"nome":"Paço Imperial","distancia":542},{"nome":"Palácio Tiradentes","distancia":480},{"nome":"Parque das Ruínas","distancia":1407},{"nome":"Praça Paris","distancia":1031},{"nome":"Real Gabinete Português de Leitura","distancia":981},{"nome":"Sala Cecília Meireles","distancia":854},{"nome":"Teatro Carlos Gomes","distancia":972},{"nome":"Teatro Dulcina","distancia":485},{"nome":"Teatro Glauce Rocha","distancia":389},{"nome":"Teatro Glória","distancia":1632},{"nome":"Teatro João Caetano","distancia":965},{"nome":"Teatro Municipal","distancia":358},{"nome":"Teatro Rival Petrobras","distancia":457}]},{"linha":"348","descricao_ponto":"Estrada Dos Bandeirantes próximo ao 3965","sequencia":"19","latitude":"-22.9547","longitude":"-43.3765","pontos_turisticos":[]},{"linha":"348","descricao_ponto":"Avenida Brasil próximo ao 2231","sequencia":"40","latitude":"-22.8872","longitude":"-43.2308","pontos_turisticos":[{"nome":"Centro Luiz Gonzaga de Tradições Nordestinas","distancia":1587},{"nome":"Jardim Zoológico (Riozoo)","distancia":1923},{"nome":"Teatro Mário Lago","distancia":1677}]},{"linha":"348","descricao_ponto":"Avenida Brasil próximo ao 1940","sequencia":"42","latitude":"-22.8853","longitude":"-43.2265","pontos_turisticos":[{"nome":"Centro Luiz Gonzaga de Tradições Nordestinas","distancia":1475},{"nome":"Teatro Mário Lago","distancia":1648}]},{"linha":"348","descricao_ponto":"Avenida Brasil próximo ao 2482","sequencia":"20","latitude":"-22.8847","longitude":"-43.2265","pontos_turisticos":[{"nome":"Centro Luiz Gonzaga de Tradições Nordestinas","distancia":1533},{"nome":"Teatro Mário Lago","distancia":1710}]},{"linha":"348","descricao_ponto":"Avenida Brasil próximo ao 4036","sequencia":"25","latitude":"-22.8777","longitude":"-43.2409","pontos_turisticos":[]},{"linha":"348","descricao_ponto":"Estrada Dos Bandeirantes próximo ao 2447","sequencia":"38","latitude":"-22.9386","longitude":"-43.3725","pontos_turisticos":[]},{"linha":"348","descricao_ponto":"Estrada Dos Bandeirantes próximo ao 7213","sequencia":"5","latitude":"-22.9656","longitude":"-43.4092","pontos_turisticos":[]},{"linha":"348","descricao_ponto":"Rua Araujo Porto Alegre próximo ao 71","sequencia":"58","latitude":"-22.9089","longitude":"-43.1748","pontos_turisticos":[{"nome":"Academia Brasileira de Letras","distancia":289},{"nome":"Arcos da Lapa","distancia":684},{"nome":"Biblioteca Nacional","distancia":133},{"nome":"Campo de Santana","distancia":1408},{"nome":"Casa França Brasil","distancia":954},{"nome":"Catedral Metropolitana","distancia":646},{"nome":"Centro Cultural Banco do Brasil","distancia":939},{"nome":"Centro Cultural dos Correios","distancia":853},{"nome":"Confeitaria Colombo","distancia":577},{"nome":"Espaço Cultural da Marinha","distancia":870},{"nome":"Igreja de São Francisco da Penitência","distancia":508},{"nome":"Igreja e Convento de Santa Teresa","distancia":939},{"nome":"Igreja Nossa Senhora da Candelária","distancia":953},{"nome":"Igreja Nossa Senhora da Glória do Outeiro","distancia":1383},{"nome":"Igreja Nossa Senhora do Carmo da Antiga Sé","distancia":631},{"nome":"Ilha Fiscal","distancia":1600},{"nome":"Monumento aos Pracinhas","distancia":848},{"nome":"Mosteiro de São Bento","distancia":1388},{"nome":"Museu de Arte do Rio","distancia":1583},{"nome":"Museu da Chácara do Céu","distancia":1340},{"nome":"Museu da República","distancia":1894},{"nome":"Museu de Arte Moderna","distancia":571},{"nome":"Museu de Folclore Edison Carneiro","distancia":1915},{"nome":"Museu do Clube Naval","distancia":203},{"nome":"Museu Histórico Nacional","distancia":663},{"nome":"Museu Nacional de Belas Artes","distancia":133},{"nome":"Paço Imperial","distancia":598},{"nome":"Palácio Tiradentes","distancia":536},{"nome":"Parque das Ruínas","distancia":1242},{"nome":"Praça Paris","distancia":931},{"nome":"Real Gabinete Português de Leitura","distancia":846},{"nome":"Sala Cecília Meireles","distancia":700},{"nome":"Teatro Carlos Gomes","distancia":812},{"nome":"Teatro Dulcina","distancia":306},{"nome":"Teatro Glauce Rocha","distancia":268},{"nome":"Teatro Glória","distancia":1579},{"nome":"Teatro João Caetano","distancia":816},{"nome":"Teatro Municipal","distancia":172},{"nome":"Teatro Rival Petrobras","distancia":296}]},{"linha":"348","descricao_ponto":"Estrada Dos Bandeirantes próximo ao 7960","sequencia":"57","latitude":"-22.9687","longitude":"-43.4136","pontos_turisticos":[]},{"linha":"348","descricao_ponto":"BRS 4, 5 - PRAÇA ONZE","sequencia":"49","latitude":"-22.9086","longitude":"-43.2013","pontos_turisticos":[{"nome":"Campo de Santana","distancia":1345},{"nome":"Cidade do Samba","distancia":1645},{"nome":"Memorial dos Pretos Novos","distancia":1634},{"nome":"Real Gabinete Português de Leitura","distancia":1990},{"nome":"Sambódromo","distancia":557},{"nome":"Teatro Carlos Gomes","distancia":1930},{"nome":"Teatro João Caetano","distancia":1963}]},{"linha":"348","descricao_ponto":"BRS 5 - PRAÇA DA REPÚBLICA","sequencia":"10","latitude":"-22.9089","longitude":"-43.1884","pontos_turisticos":[{"nome":"Academia Brasileira de Letras","distancia":1596},{"nome":"Arcos da Lapa","distancia":975},{"nome":"Biblioteca Nacional","distancia":1306},{"nome":"Campo de Santana","distancia":248},{"nome":"Casa França Brasil","distancia":1585},{"nome":"Catedral Metropolitana","distancia":816},{"nome":"Centro Cultural Banco do Brasil","distancia":1527},{"nome":"Centro Cultural dos Correios","distancia":1540},{"nome":"Cidade do Samba","distancia":1844},{"nome":"Confeitaria Colombo","distancia":1064},{"nome":"Espaço Cultural da Marinha","distancia":1673},{"nome":"Igreja de São Francisco da Penitência","distancia":962},{"nome":"Igreja e Convento de Santa Teresa","distancia":1119},{"nome":"Igreja Nossa Senhora da Candelária","distancia":1428},{"nome":"Igreja Nossa Senhora da Glória do Outeiro","distancia":1923},{"nome":"Igreja Nossa Senhora do Carmo da Antiga Sé","distancia":1485},{"nome":"Memorial dos Pretos Novos","distancia":1501},{"nome":"Monumento aos Pracinhas","distancia":1695},{"nome":"Mosteiro de São Bento","distancia":1728},{"nome":"Museu de Arte do Rio","distancia":1571},{"nome":"Museu da Chácara do Céu","distancia":1036},{"nome":"Museu de Arte Moderna","distancia":1649},{"nome":"Museu do Clube Naval","distancia":1210},{"nome":"Museu Histórico Nacional","distancia":1977},{"nome":"Museu Nacional de Belas Artes","distancia":1260},{"nome":"Paço Imperial","distancia":1566},{"nome":"Palácio Tiradentes","distancia":1546},{"nome":"Parque das Ruínas","distancia":1139},{"nome":"Praça Paris","distancia":1585},{"nome":"Real Gabinete Português de Leitura","distancia":744},{"nome":"Sala Cecília Meireles","distancia":1205},{"nome":"Sambódromo","distancia":910},{"nome":"Teatro Carlos Gomes","distancia":631},{"nome":"Teatro Dulcina","distancia":1179},{"nome":"Teatro Glauce Rocha","distancia":1209},{"nome":"Teatro João Caetano","distancia":685},{"nome":"Teatro Municipal","distancia":1232},{"nome":"Teatro Rival Petrobras","distancia":1269}]},{"linha":"348","descricao_ponto":"Estrada Dos Bandeirantes próximo ao 5555","sequencia":"11","latitude":"-22.9614","longitude":"-43.3954","pontos_turisticos":[]},{"linha":"348","descricao_ponto":"Estrada Marechal Miguel Salazar M Morais próximo ao 731","sequencia":"33","latitude":"-22.9431","longitude":"-43.3659","pontos_turisticos":[]},{"linha":"348","descricao_ponto":"Estrada Marechal Miguel Salazar M Morais próximo ao 39","sequencia":"35","latitude":"-22.9367","longitude":"-43.3707","pontos_turisticos":[]},{"linha":"348","descricao_ponto":"PONTO B - Estrada dos Bandeirantes, próximo a Estação Merck - LINHAS DESTINO EST. BANDEIRANTES","sequencia":"37","latitude":"-22.9348","longitude":"-43.3722","pontos_turisticos":[]},{"linha":"348","descricao_ponto":"Estrada Dos Bandeirantes próximo ao 1875","sequencia":"25","latitude":"-22.9406","longitude":"-43.3724","pontos_turisticos":[]},{"linha":"348","descricao_ponto":"Estrada Marechal Miguel Salazar M Morais próximo ao 680","sequencia":"34","latitude":"-22.9407","longitude":"-43.3676","pontos_turisticos":[]},{"linha":"348","descricao_ponto":"Estrada Dos Bandeirantes próximo ao 6333","sequencia":"52","latitude":"-22.9627","longitude":"-43.4012","pontos_turisticos":[]},{"linha":"348","descricao_ponto":"Praca Da Republica próximo ao111","sequencia":"11","latitude":"-22.9079","longitude":"-43.1898","pontos_turisticos":[{"nome":"Academia Brasileira de Letras","distancia":1755},{"nome":"Arcos da Lapa","distancia":1154},{"nome":"Biblioteca Nacional","distancia":1460},{"nome":"Campo de Santana","distancia":203},{"nome":"Casa França Brasil","distancia":1643},{"nome":"Catedral Metropolitana","distancia":987},{"nome":"Centro Cultural Banco do Brasil","distancia":1584},{"nome":"Centro Cultural dos Correios","distancia":1608},{"nome":"Cidade do Samba","distancia":1679},{"nome":"Confeitaria Colombo","distancia":1164},{"nome":"Espaço Cultural da Marinha","distancia":1746},{"nome":"Igreja de São Francisco da Penitência","distancia":1085},{"nome":"Igreja e Convento de Santa Teresa","distancia":1300},{"nome":"Igreja Nossa Senhora da Candelária","distancia":1478},{"nome":"Igreja Nossa Senhora do Carmo da Antiga Sé","distancia":1576},{"nome":"Memorial dos Pretos Novos","distancia":1355},{"nome":"Monumento aos Pracinhas","distancia":1875},{"nome":"Mosteiro de São Bento","distancia":1740},{"nome":"Museu de Arte do Rio","distancia":1543},{"nome":"Museu da Chácara do Céu","distancia":1200},{"nome":"Museu de Arte Moderna","distancia":1822},{"nome":"Museu do Clube Naval","distancia":1351},{"nome":"Museu Nacional de Belas Artes","distancia":1408},{"nome":"Paço Imperial","distancia":1663},{"nome":"Palácio Tiradentes","distancia":1650},{"nome":"Parque das Ruínas","distancia":1311},{"nome":"Praça Paris","distancia":1767},{"nome":"Real Gabinete Português de Leitura","distancia":827},{"nome":"Sala Cecília Meireles","distancia":1385},{"nome":"Sambódromo","distancia":823},{"nome":"Teatro Carlos Gomes","distancia":750},{"nome":"Teatro Dulcina","distancia":1342},{"nome":"Teatro Glauce Rocha","distancia":1341},{"nome":"Teatro João Caetano","distancia":787},{"nome":"Teatro Municipal","distancia":1384},{"nome":"Teatro Rival Petrobras","distancia":1434}]},{"linha":"348","descricao_ponto":"Estrada Dos Bandeirantes próximo ao 5421","sequencia":"13","latitude":"-22.9607","longitude":"-43.3925","pontos_turisticos":[]},{"linha":"348","descricao_ponto":"BRS 1, 2, 3 - CIDADE NOVA","sequencia":"14","latitude":"-22.9098","longitude":"-43.2064","pontos_turisticos":[{"nome":"Campo de Santana","distancia":1883},{"nome":"Centro Luiz Gonzaga de Tradições Nordestinas","distancia":1961},{"nome":"Cidade do Samba","distancia":1970},{"nome":"Quinta da Boa Vista/Museu Nacional","distancia":1954},{"nome":"Sambódromo","distancia":997},{"nome":"Teatro Mário Lago","distancia":1894}]},{"linha":"348","descricao_ponto":"Avenida Rio De Janeiro próximo ao","sequencia":"17","latitude":"-22.8909","longitude":"-43.2152","pontos_turisticos":[{"nome":"Centro Luiz Gonzaga de Tradições Nordestinas","distancia":782},{"nome":"Cidade do Samba","distancia":1902},{"nome":"Quinta da Boa Vista/Museu Nacional","distancia":1897},{"nome":"Teatro Mário Lago","distancia":1088}]},{"linha":"348","descricao_ponto":"Rua Edgard Werneck próximo ao 1643","sequencia":"31","latitude":"-22.9501","longitude":"-43.3592","pontos_turisticos":[]},{"linha":"348","descricao_ponto":"Avenida General Justo próximo ao 33 ","sequencia":"3","latitude":"-22.9096","longitude":"-43.1684","pontos_turisticos":[{"nome":"Academia Brasileira de Letras","distancia":489},{"nome":"Arcos da Lapa","distancia":1233},{"nome":"Biblioteca Nacional","distancia":747},{"nome":"Casa França Brasil","distancia":1285},{"nome":"Catedral Metropolitana","distancia":1271},{"nome":"Centro Cultural Banco do Brasil","distancia":1301},{"nome":"Centro Cultural dos Correios","distancia":1198},{"nome":"Confeitaria Colombo","distancia":1170},{"nome":"Espaço Cultural da Marinha","distancia":1132},{"nome":"Igreja de São Francisco da Penitência","distancia":1152},{"nome":"Igreja e Convento de Santa Teresa","distancia":1393},{"nome":"Igreja Nossa Senhora da Candelária","distancia":1367},{"nome":"Igreja Nossa Senhora da Glória do Outeiro","distancia":1485},{"nome":"Igreja Nossa Senhora do Carmo da Antiga Sé","distancia":997},{"nome":"Ilha Fiscal","distancia":1427},{"nome":"Monumento aos Pracinhas","distancia":961},{"nome":"Mosteiro de São Bento","distancia":1728},{"nome":"Museu da Chácara do Céu","distancia":1827},{"nome":"Museu da República","distancia":1988},{"nome":"Museu de Arte Moderna","distancia":680},{"nome":"Museu do Clube Naval","distancia":856},{"nome":"Museu Histórico Nacional","distancia":462},{"nome":"Museu Nacional de Belas Artes","distancia":792},{"nome":"Paço Imperial","distancia":902},{"nome":"Palácio Tiradentes","distancia":854},{"nome":"Parque das Ruínas","distancia":1690},{"nome":"Praça Paris","distancia":1139},{"nome":"Real Gabinete Português de Leitura","distancia":1484},{"nome":"Sala Cecília Meireles","distancia":1137},{"nome":"Teatro Carlos Gomes","distancia":1470},{"nome":"Teatro Dulcina","distancia":895},{"nome":"Teatro Glauce Rocha","distancia":891},{"nome":"Teatro Glória","distancia":1551},{"nome":"Teatro João Caetano","distancia":1467},{"nome":"Teatro Municipal","distancia":818},{"nome":"Teatro Rival Petrobras","distancia":825}]},{"linha":"348","descricao_ponto":"BRS 1, 3, 5 - CENTRAL","sequencia":"12","latitude":"-22.9055","longitude":"-43.193","pontos_turisticos":[{"nome":"Arcos da Lapa","distancia":1571},{"nome":"Biblioteca Nacional","distancia":1836},{"nome":"Campo de Santana","distancia":495},{"nome":"Casa França Brasil","distancia":1833},{"nome":"Catedral Metropolitana","distancia":1392},{"nome":"Centro Cultural Banco do Brasil","distancia":1774},{"nome":"Centro Cultural dos Correios","distancia":1819},{"nome":"Cidade do Samba","distancia":1308},{"nome":"Confeitaria Colombo","distancia":1454},{"nome":"Espaço Cultural da Marinha","distancia":1963},{"nome":"Igreja de São Francisco da Penitência","distancia":1416},{"nome":"Igreja e Convento de Santa Teresa","distancia":1722},{"nome":"Igreja Nossa Senhora da Candelária","distancia":1660},{"nome":"Igreja Nossa Senhora do Carmo da Antiga Sé","distancia":1834},{"nome":"Memorial dos Pretos Novos","distancia":1048},{"nome":"Mosteiro de São Bento","distancia":1829},{"nome":"Museu de Arte do Rio","distancia":1551},{"nome":"Museu da Chácara do Céu","distancia":1600},{"nome":"Museu do Clube Naval","distancia":1704},{"nome":"Museu Nacional de Belas Artes","distancia":1772},{"nome":"Paço Imperial","distancia":1931},{"nome":"Palácio Tiradentes","distancia":1929},{"nome":"Parque das Ruínas","distancia":1721},{"nome":"Real Gabinete Português de Leitura","distancia":1109},{"nome":"Sala Cecília Meireles","distancia":1804},{"nome":"Sambódromo","distancia":771},{"nome":"Teatro Carlos Gomes","distancia":1090},{"nome":"Teatro Dulcina","distancia":1732},{"nome":"Teatro Glauce Rocha","distancia":1678},{"nome":"Teatro João Caetano","distancia":1102},{"nome":"Teatro Municipal","distancia":1756},{"nome":"Teatro Rival Petrobras","distancia":1827}]},{"linha":"348","descricao_ponto":"Estrada Dos Bandeirantes próximo ao 4098","sequencia":"45","latitude":"-22.9568","longitude":"-43.3796","pontos_turisticos":[]},{"linha":"348","descricao_ponto":"Estrada Dos Bandeirantes próximo ao 6746","sequencia":"53","latitude":"-22.9633","longitude":"-43.4039","pontos_turisticos":[]},{"linha":"348","descricao_ponto":"Avenida Francisco Bicalho próximo ao 344","sequencia":"47","latitude":"-22.9081","longitude":"-43.2099","pontos_turisticos":[{"nome":"Centro Luiz Gonzaga de Tradições Nordestinas","distancia":1585},{"nome":"Jardim Zoológico (Riozoo)","distancia":1981},{"nome":"Quinta da Boa Vista/Museu Nacional","distancia":1563},{"nome":"Sambódromo","distancia":1389},{"nome":"Teatro Mário Lago","distancia":1498}]},{"linha":"348","descricao_ponto":"Avenida Franklin Roosevelt próximo ao 115","sequencia":"4","latitude":"-22.9094","longitude":"-43.1704","pontos_turisticos":[{"nome":"Academia Brasileira de Letras","distancia":310},{"nome":"Arcos da Lapa","distancia":1047},{"nome":"Biblioteca Nacional","distancia":543},{"nome":"Campo de Santana","distancia":1862},{"nome":"Casa França Brasil","distancia":1153},{"nome":"Catedral Metropolitana","distancia":1071},{"nome":"Centro Cultural Banco do Brasil","distancia":1161},{"nome":"Centro Cultural dos Correios","distancia":1060},{"nome":"Confeitaria Colombo","distancia":977},{"nome":"Espaço Cultural da Marinha","distancia":1013},{"nome":"Igreja de São Francisco da Penitência","distancia":949},{"nome":"Igreja e Convento de Santa Teresa","distancia":1230},{"nome":"Igreja Nossa Senhora da Candelária","distancia":1216},{"nome":"Igreja Nossa Senhora da Glória do Outeiro","distancia":1419},{"nome":"Igreja Nossa Senhora do Carmo da Antiga Sé","distancia":847},{"nome":"Ilha Fiscal","distancia":1453},{"nome":"Monumento aos Pracinhas","distancia":873},{"nome":"Mosteiro de São Bento","distancia":1602},{"nome":"Museu de Arte do Rio","distancia":1874},{"nome":"Museu da Chácara do Céu","distancia":1661},{"nome":"Museu da República","distancia":1933},{"nome":"Museu de Arte Moderna","distancia":569},{"nome":"Museu de Folclore Edison Carneiro","distancia":1951},{"nome":"Museu do Clube Naval","distancia":651},{"nome":"Museu Histórico Nacional","distancia":439},{"nome":"Museu Nacional de Belas Artes","distancia":586},{"nome":"Paço Imperial","distancia":762},{"nome":"Palácio Tiradentes","distancia":707},{"nome":"Parque das Ruínas","distancia":1533},{"nome":"Praça Paris","distancia":1033},{"nome":"Real Gabinete Português de Leitura","distancia":1283},{"nome":"Sala Cecília Meireles","distancia":973},{"nome":"Teatro Carlos Gomes","distancia":1265},{"nome":"Teatro Dulcina","distancia":697},{"nome":"Teatro Glauce Rocha","distancia":690},{"nome":"Teatro Glória","distancia":1527},{"nome":"Teatro João Caetano","distancia":1263},{"nome":"Teatro Municipal","distancia":613},{"nome":"Teatro Rival Petrobras","distancia":633}]},{"linha":"348","descricao_ponto":"Estrada Dos Bandeirantes próximo ao 5160","sequencia":"48","latitude":"-22.96","longitude":"-43.3902","pontos_turisticos":[]},{"linha":"348","descricao_ponto":"Estrada Dos Bandeirantes próximo ao 5115","sequencia":"14","latitude":"-22.9603","longitude":"-43.3902","pontos_turisticos":[]},{"linha":"348","descricao_ponto":"Avenida Francisco Bicalho próximo ao 10 (Pista Lateral)","sequencia":"15","latitude":"-22.9072","longitude":"-43.2094","pontos_turisticos":[{"nome":"Centro Luiz Gonzaga de Tradições Nordestinas","distancia":1540},{"nome":"Cidade do Samba","distancia":1912},{"nome":"Quinta da Boa Vista/Museu Nacional","distancia":1598},{"nome":"Sambódromo","distancia":1371},{"nome":"Teatro Mário Lago","distancia":1474}]},{"linha":"348","descricao_ponto":"Estrada Dos Bandeirantes próximo ao 5920","sequencia":"51","latitude":"-22.9617","longitude":"-43.397","pontos_turisticos":[]},{"linha":"348","descricao_ponto":"Estrada Dos Bandeirantes próximo ao 3735","sequencia":"44","latitude":"-22.9553","longitude":"-43.3775","pontos_turisticos":[]},{"linha":"348","descricao_ponto":"Estrada Dos Bandeirantes próximo ao 8612","sequencia":"60","latitude":"-22.9769","longitude":"-43.4167","pontos_turisticos":[]},{"linha":"348","descricao_ponto":"Estrada Dos Bandeirantes próximo ao 3770","sequencia":"18","latitude":"-22.9556","longitude":"-43.3777","pontos_turisticos":[]},{"linha":"348","descricao_ponto":"BRS 2, 5 - PRAÇA TIRADENTES","sequencia":"9","latitude":"-22.9073","longitude":"-43.183","pontos_turisticos":[{"nome":"Academia Brasileira de Letras","distancia":1102},{"nome":"Arcos da Lapa","distancia":695},{"nome":"Biblioteca Nacional","distancia":798},{"nome":"Campo de Santana","distancia":551},{"nome":"Casa França Brasil","distancia":1052},{"nome":"Catedral Metropolitana","distancia":462},{"nome":"Centro Cultural Banco do Brasil","distancia":997},{"nome":"Centro Cultural dos Correios","distancia":992},{"nome":"Confeitaria Colombo","distancia":487},{"nome":"Espaço Cultural da Marinha","distancia":1116},{"nome":"Igreja de São Francisco da Penitência","distancia":385},{"nome":"Igreja e Convento de Santa Teresa","distancia":969},{"nome":"Igreja Nossa Senhora da Candelária","distancia":913},{"nome":"Igreja Nossa Senhora da Glória do Outeiro","distancia":1746},{"nome":"Igreja Nossa Senhora do Carmo da Antiga Sé","distancia":912},{"nome":"Memorial dos Pretos Novos","distancia":1612},{"nome":"Monumento aos Pracinhas","distancia":1373},{"nome":"Mosteiro de São Bento","distancia":1285},{"nome":"Museu de Arte do Rio","distancia":1244},{"nome":"Museu da Chácara do Céu","distancia":1123},{"nome":"Museu de Arte Moderna","distancia":1237},{"nome":"Museu do Clube Naval","distancia":661},{"nome":"Museu Histórico Nacional","distancia":1402},{"nome":"Museu Nacional de Belas Artes","distancia":729},{"nome":"Paço Imperial","distancia":987},{"nome":"Palácio Tiradentes","distancia":966},{"nome":"Parque das Ruínas","distancia":1142},{"nome":"Praça Paris","distancia":1325},{"nome":"Real Gabinete Português de Leitura","distancia":221},{"nome":"Sala Cecília Meireles","distancia":923},{"nome":"Sambódromo","distancia":1491},{"nome":"Teatro Carlos Gomes","distancia":50},{"nome":"Teatro Dulcina","distancia":716},{"nome":"Teatro Glauce Rocha","distancia":643},{"nome":"Teatro João Caetano","distancia":125},{"nome":"Teatro Municipal","distancia":716},{"nome":"Teatro Rival Petrobras","distancia":815}]},{"linha":"348","descricao_ponto":"Estrada Dos Bandeirantes próximo ao 5985","sequencia":"50","latitude":"-22.9612","longitude":"-43.3949","pontos_turisticos":[]},{"linha":"348","descricao_ponto":"Estrada Dos Bandeirantes próximo ao 4135","sequencia":"17","latitude":"-22.9572","longitude":"-43.3798","pontos_turisticos":[]},{"linha":"348","descricao_ponto":"Estrada Dos Bandeirantes próximo ao 46","sequencia":"7","latitude":"-22.9634","longitude":"-43.4037","pontos_turisticos":[]},{"linha":"348","descricao_ponto":"Rua Edgard Werneck próximo ao 1650","sequencia":"30","latitude":"-22.9521","longitude":"-43.3581","pontos_turisticos":[]},{"linha":"348","descricao_ponto":"Avenida Brasil próximo ao","sequencia":"41","latitude":"-22.8857","longitude":"-43.2286","pontos_turisticos":[{"nome":"Centro Luiz Gonzaga de Tradições Nordestinas","distancia":1557},{"nome":"Teatro Mário Lago","distancia":1696}]},{"linha":"348","descricao_ponto":"Avenida Brasil próximo ao 1455","sequencia":"43","latitude":"-22.8871","longitude":"-43.2246","pontos_turisticos":[{"nome":"Centro Luiz Gonzaga de Tradições Nordestinas","distancia":1207},{"nome":"Jardim Zoológico (Riozoo)","distancia":1971},{"nome":"Teatro Mário Lago","distancia":1397}]},{"linha":"348","descricao_ponto":"Avenida Republica Do Paraguai próximo ao 1","sequencia":"54","latitude":"-22.9088","longitude":"-43.1805","pontos_turisticos":[{"nome":"Academia Brasileira de Letras","distancia":805},{"nome":"Arcos da Lapa","distancia":456},{"nome":"Biblioteca Nacional","distancia":504},{"nome":"Campo de Santana","distancia":837},{"nome":"Casa França Brasil","distancia":1043},{"nome":"Catedral Metropolitana","distancia":233},{"nome":"Centro Cultural Banco do Brasil","distancia":998},{"nome":"Centro Cultural dos Correios","distancia":962},{"nome":"Confeitaria Colombo","distancia":431},{"nome":"Espaço Cultural da Marinha","distancia":1059},{"nome":"Igreja de São Francisco da Penitência","distancia":246},{"nome":"Igreja e Convento de Santa Teresa","distancia":763},{"nome":"Igreja Nossa Senhora da Candelária","distancia":943},{"nome":"Igreja Nossa Senhora da Glória do Outeiro","distancia":1490},{"nome":"Igreja Nossa Senhora do Carmo da Antiga Sé","distancia":818},{"nome":"Ilha Fiscal","distancia":1977},{"nome":"Memorial dos Pretos Novos","distancia":1906},{"nome":"Monumento aos Pracinhas","distancia":1081},{"nome":"Mosteiro de São Bento","distancia":1367},{"nome":"Museu de Arte do Rio","distancia":1410},{"nome":"Museu da Chácara do Céu","distancia":1020},{"nome":"Museu da República","distancia":1943},{"nome":"Museu de Arte Moderna","distancia":932},{"nome":"Museu de Folclore Edison Carneiro","distancia":1964},{"nome":"Museu do Clube Naval","distancia":404},{"nome":"Museu Histórico Nacional","distancia":1188},{"nome":"Museu Nacional de Belas Artes","distancia":451},{"nome":"Paço Imperial","distancia":866},{"nome":"Palácio Tiradentes","distancia":828},{"nome":"Parque das Ruínas","distancia":995},{"nome":"Praça Paris","distancia":1051},{"nome":"Real Gabinete Português de Leitura","distancia":408},{"nome":"Sala Cecília Meireles","distancia":659},{"nome":"Sambódromo","distancia":1700},{"nome":"Teatro Carlos Gomes","distancia":271},{"nome":"Teatro Dulcina","distancia":411},{"nome":"Teatro Glauce Rocha","distancia":423},{"nome":"Teatro Glória","distancia":1767},{"nome":"Teatro João Caetano","distancia":325},{"nome":"Teatro Municipal","distancia":426},{"nome":"Teatro Rival Petrobras","distancia":509}]},{"linha":"348","descricao_ponto":"Estrada Marechal Miguel Salazar M Morais próximo ao 1303","sequencia":"32","latitude":"-22.9454","longitude":"-43.3635","pontos_turisticos":[]},{"linha":"348","descricao_ponto":"Estrada Dos Bandeirantes próximo ao 3098","sequencia":"42","latitude":"-22.952","longitude":"-43.3745","pontos_turisticos":[]},{"linha":"348","descricao_ponto":"Rua Abrahao Jabour próximo ao 259","sequencia":"61","latitude":"-22.9765","longitude":"-43.4146","pontos_turisticos":[]},{"linha":"348","descricao_ponto":"Estrada Dos Bandeirantes próximo ao 7777","sequencia":"4","latitude":"-22.9666","longitude":"-43.412","pontos_turisticos":[]},{"linha":"348","descricao_ponto":"Estrada Marechal Miguel Salazar M Morais próximo ao 1454","sequencia":"30","latitude":"-22.9438","longitude":"-43.3659","pontos_turisticos":[]},{"linha":"348","descricao_ponto":"Estrada Dos Bandeirantes próximo ao 3316","sequencia":"43","latitude":"-22.9537","longitude":"-43.3758","pontos_turisticos":[]},{"linha":"348","descricao_ponto":"Estrada Dos Bandeirantes próximo ao 7931","sequencia":"3","latitude":"-22.969","longitude":"-43.4136","pontos_turisticos":[]},{"linha":"348","descricao_ponto":"Estrada Dos Bandeirantes próximo ao 1611","sequencia":"26","latitude":"-22.9387","longitude":"-43.3722","pontos_turisticos":[]},{"linha":"348","descricao_ponto":"Estrada Marechal Miguel Salazar M Morais próximo ao 175","sequencia":"27","latitude":"-22.9372","longitude":"-43.3703","pontos_turisticos":[]},{"linha":"348","descricao_ponto":"Rua Evaristo Da Veiga próximo ao 49","sequencia":"56","latitude":"-22.9109","longitude":"-43.1779","pontos_turisticos":[{"nome":"Academia Brasileira de Letras","distancia":505},{"nome":"Arcos da Lapa","distancia":300},{"nome":"Biblioteca Nacional","distancia":259},{"nome":"Campo de Santana","distancia":1168},{"nome":"Casa França Brasil","distancia":1185},{"nome":"Catedral Metropolitana","distancia":290},{"nome":"Centro Cultural Banco do Brasil","distancia":1153},{"nome":"Centro Cultural dos Correios","distancia":1089},{"nome":"Confeitaria Colombo","distancia":635},{"nome":"Espaço Cultural da Marinha","distancia":1147},{"nome":"Igreja de São Francisco da Penitência","distancia":465},{"nome":"Igreja e Convento de Santa Teresa","distancia":584},{"nome":"Igreja Nossa Senhora da Candelária","distancia":1131},{"nome":"Igreja Nossa Senhora da Glória do Outeiro","distancia":1189},{"nome":"Igreja Nossa Senhora do Carmo da Antiga Sé","distancia":894},{"nome":"Ilha Fiscal","distancia":1966},{"nome":"Monumento aos Pracinhas","distancia":736},{"nome":"Mosteiro de São Bento","distancia":1574},{"nome":"Museu de Arte do Rio","distancia":1684},{"nome":"Museu da Chácara do Céu","distancia":960},{"nome":"Museu da República","distancia":1671},{"nome":"Museu de Arte Moderna","distancia":580},{"nome":"Museu de Folclore Edison Carneiro","distancia":1692},{"nome":"Museu do Clube Naval","distancia":330},{"nome":"Museu Histórico Nacional","distancia":1050},{"nome":"Museu Nacional de Belas Artes","distancia":289},{"nome":"Paço Imperial","distancia":899},{"nome":"Palácio Tiradentes","distancia":844},{"nome":"Parque das Ruínas","distancia":876},{"nome":"Praça Paris","distancia":734},{"nome":"Real Gabinete Português de Leitura","distancia":746},{"nome":"Sala Cecília Meireles","distancia":385},{"nome":"Sambódromo","distancia":1941},{"nome":"Teatro Carlos Gomes","distancia":625},{"nome":"Teatro Dulcina","distancia":89},{"nome":"Teatro Glauce Rocha","distancia":422},{"nome":"Teatro Glória","distancia":1444},{"nome":"Teatro João Caetano","distancia":673},{"nome":"Teatro Municipal","distancia":228},{"nome":"Teatro Rival Petrobras","distancia":171}]},{"linha":"348","descricao_ponto":"Rua Araujo Porto Alegre lado oposto ao número 16","sequencia":"57","latitude":"-22.9097","longitude":"-43.1767","pontos_turisticos":[{"nome":"Academia Brasileira de Letras","distancia":404},{"nome":"Arcos da Lapa","distancia":482},{"nome":"Biblioteca Nacional","distancia":104},{"nome":"Campo de Santana","distancia":1238},{"nome":"Casa França Brasil","distancia":1037},{"nome":"Catedral Metropolitana","distancia":433},{"nome":"Centro Cultural Banco do Brasil","distancia":1011},{"nome":"Centro Cultural dos Correios","distancia":939},{"nome":"Confeitaria Colombo","distancia":540},{"nome":"Espaço Cultural da Marinha","distancia":986},{"nome":"Igreja de São Francisco da Penitência","distancia":407},{"nome":"Igreja e Convento de Santa Teresa","distancia":758},{"nome":"Igreja Nossa Senhora da Candelária","distancia":1002},{"nome":"Igreja Nossa Senhora da Glória do Outeiro","distancia":1300},{"nome":"Igreja Nossa Senhora do Carmo da Antiga Sé","distancia":733},{"nome":"Ilha Fiscal","distancia":1786},{"nome":"Monumento aos Pracinhas","distancia":803},{"nome":"Mosteiro de São Bento","distancia":1445},{"nome":"Museu de Arte do Rio","distancia":1590},{"nome":"Museu da Chácara do Céu","distancia":1141},{"nome":"Museu da República","distancia":1798},{"nome":"Museu de Arte Moderna","distancia":581},{"nome":"Museu de Folclore Edison Carneiro","distancia":1819},{"nome":"Museu do Clube Naval","distancia":169},{"nome":"Museu Histórico Nacional","distancia":874},{"nome":"Museu Nacional de Belas Artes","distancia":108},{"nome":"Paço Imperial","distancia":729},{"nome":"Palácio Tiradentes","distancia":672},{"nome":"Parque das Ruínas","distancia":1055},{"nome":"Praça Paris","distancia":841},{"nome":"Real Gabinete Português de Leitura","distancia":732},{"nome":"Sala Cecília Meireles","distancia":540},{"nome":"Teatro Carlos Gomes","distancia":657},{"nome":"Teatro Dulcina","distancia":117},{"nome":"Teatro Glauce Rocha","distancia":271},{"nome":"Teatro Glória","distancia":1532},{"nome":"Teatro João Caetano","distancia":681},{"nome":"Teatro Municipal","distancia":47},{"nome":"Teatro Rival Petrobras","distancia":172}]},{"linha":"348","descricao_ponto":"Avenida Brasil próximo ao 1580","sequencia":"26","latitude":"-22.8751","longitude":"-43.2428","pontos_turisticos":[]},{"linha":"348","descricao_ponto":"Rua Edgard Werneck próximo ao 1618","sequencia":"32","latitude":"-22.9489","longitude":"-43.3597","pontos_turisticos":[]},{"linha":"348","descricao_ponto":"6807","sequencia":"37","latitude":"-22.8718","longitude":"-43.2483","pontos_turisticos":[]},{"linha":"348","descricao_ponto":"Estrada Dos Bandeirantes próximo ao 2020","sequencia":"39","latitude":"-22.9406","longitude":"-43.3728","pontos_turisticos":[]},{"linha":"348","descricao_ponto":"Estrada Dos Bandeirantes próximo ao 2772","sequencia":"41","latitude":"-22.9481","longitude":"-43.3724","pontos_turisticos":[]},{"linha":"348","descricao_ponto":"Estrada Dos Bandeirantes próximo ao 8502","sequencia":"59","latitude":"-22.9746","longitude":"-43.4148","pontos_turisticos":[]},{"linha":"348","descricao_ponto":"Estrada Dos Bandeirantes próximo ao 5521","sequencia":"12","latitude":"-22.961","longitude":"-43.3935","pontos_turisticos":[]},{"linha":"348","descricao_ponto":"Avenida Nilo Pecanha próximo ao 26 (PLATAFORMA A)","sequencia":"6","latitude":"-22.9062","longitude":"-43.1738","pontos_turisticos":[{"nome":"Academia Brasileira de Letras","distancia":527},{"nome":"Arcos da Lapa","distancia":970},{"nome":"Biblioteca Nacional","distancia":442},{"nome":"Campo de Santana","distancia":1489},{"nome":"Casa França Brasil","distancia":683},{"nome":"Catedral Metropolitana","distancia":880},{"nome":"Centro Cultural Banco do Brasil","distancia":681},{"nome":"Centro Cultural dos Correios","distancia":584},{"nome":"Confeitaria Colombo","distancia":523},{"nome":"Espaço Cultural da Marinha","distancia":573},{"nome":"Igreja de São Francisco da Penitência","distancia":565},{"nome":"Igreja e Convento de Santa Teresa","distancia":1245},{"nome":"Igreja Nossa Senhora da Candelária","distancia":724},{"nome":"Igreja Nossa Senhora da Glória do Outeiro","distancia":1689},{"nome":"Igreja Nossa Senhora do Carmo da Antiga Sé","distancia":362},{"nome":"Ilha Fiscal","distancia":1296},{"nome":"Monumento aos Pracinhas","distancia":1145},{"nome":"Mosteiro de São Bento","distancia":1131},{"nome":"Museu de Arte do Rio","distancia":1380},{"nome":"Museu da Chácara do Céu","distancia":1630},{"nome":"Museu de Arte Moderna","distancia":849},{"nome":"Museu do Clube Naval","distancia":363},{"nome":"Museu Histórico Nacional","distancia":452},{"nome":"Museu Nacional de Belas Artes","distancia":381},{"nome":"Paço Imperial","distancia":299},{"nome":"Palácio Tiradentes","distancia":237},{"nome":"Parque das Ruínas","distancia":1544},{"nome":"Praça Paris","distancia":1243},{"nome":"Real Gabinete Português de Leitura","distancia":861},{"nome":"Sala Cecília Meireles","distancia":1013},{"nome":"Teatro Carlos Gomes","distancia":900},{"nome":"Teatro Dulcina","distancia":601},{"nome":"Teatro Glauce Rocha","distancia":322},{"nome":"Teatro Glória","distancia":1868},{"nome":"Teatro João Caetano","distancia":870},{"nome":"Teatro Municipal","distancia":443},{"nome":"Teatro Rival Petrobras","distancia":610}]},{"linha":"348","descricao_ponto":"Estrada Do Gabinal próximo ao 2075","sequencia":"29","latitude":"-22.9535","longitude":"-43.3563","pontos_turisticos":[]},{"linha":"348","descricao_ponto":"Estrada Dos Bandeirantes próximo ao 7036","sequencia":"6","latitude":"-22.9649","longitude":"-43.4068","pontos_turisticos":[]},{"linha":"348","descricao_ponto":"Avenida Brasil próximo ao 2000","sequencia":"19","latitude":"-22.887","longitude":"-43.224","pontos_turisticos":[{"nome":"Centro Luiz Gonzaga de Tradições Nordestinas","distancia":1191},{"nome":"Jardim Zoológico (Riozoo)","distancia":1996},{"nome":"Teatro Mário Lago","distancia":1392}]},{"linha":"348","descricao_ponto":"Estrada Dos Bandeirantes próximo ao 4713","sequencia":"15","latitude":"-22.9597","longitude":"-43.3876","pontos_turisticos":[]},{"linha":"348","descricao_ponto":"Estrada Marechal Miguel Salazar M Morais próximo ao 184","sequencia":"28","latitude":"-22.9404","longitude":"-43.3682","pontos_turisticos":[]},{"linha":"348","descricao_ponto":"Avenida Francisco Bicalho, próximo a Unidos da Tijuca","sequencia":"16","latitude":"-22.9038","longitude":"-43.2096","pontos_turisticos":[{"nome":"Centro Luiz Gonzaga de Tradições Nordestinas","distancia":1265},{"nome":"Cidade do Samba","distancia":1664},{"nome":"Jardim Zoológico (Riozoo)","distancia":1970},{"nome":"Memorial dos Pretos Novos","distancia":1909},{"nome":"Quinta da Boa Vista/Museu Nacional","distancia":1576},{"nome":"Sambódromo","distancia":1561},{"nome":"Teatro Mário Lago","distancia":1263}]}]