[{"linha":"350","descricao_ponto":"Rua Francisca Hayden próximo ao 66","sequencia":"38","latitude":"-22.8611","longitude":"-43.256","pontos_turisticos":[]},{"linha":"350","descricao_ponto":"Avenida Braz De Pina próximo ao 1260","sequencia":"41","latitude":"-22.8407","longitude":"-43.3052","pontos_turisticos":[]},{"linha":"350","descricao_ponto":"Estrada Padre Roser próximo ao 620","sequencia":"71","latitude":"-22.8415","longitude":"-43.3184","pontos_turisticos":[]},{"linha":"350","descricao_ponto":"Rua Conde De Agrolongo próximo ao 705","sequencia":"29","latitude":"-22.8337","longitude":"-43.2771","pontos_turisticos":[{"nome":"Igreja Nossa Senhora da Penha","distancia":1310}]},{"linha":"350","descricao_ponto":"Avenida Braz De Pina próximo ao 1353","sequencia":"14","latitude":"-22.84","longitude":"-43.3089","pontos_turisticos":[]},{"linha":"350","descricao_ponto":"Avenida Brasil próximo ao 1580","sequencia":"13","latitude":"-22.8751","longitude":"-43.2428","pontos_turisticos":[]},{"linha":"350","descricao_ponto":"Estrada Padre Roser próximo ao 620","sequencia":"45","latitude":"-22.8415","longitude":"-43.3184","pontos_turisticos":[]},{"linha":"350","descricao_ponto":"Rua Dona Isabel próximo ao 72","sequencia":"32","latitude":"-22.8693","longitude":"-43.2544","pontos_turisticos":[]},{"linha":"350","descricao_ponto":"Avenida Monsenhor Felix próximo ao 1131","sequencia":"8","latitude":"-22.8455","longitude":"-43.324","pontos_turisticos":[]},{"linha":"350","descricao_ponto":"Avenida Rio De Janeiro próximo ao","sequencia":"10","latitude":"-22.8944","longitude":"-43.2139","pontos_turisticos":[{"nome":"Centro Luiz Gonzaga de Tradições Nordestinas","distancia":618},{"nome":"Cidade do Samba","distancia":1730},{"nome":"Jardim Zoológico (Riozoo)","distancia":1890},{"nome":"Quinta da Boa Vista/Museu Nacional","distancia":1665},{"nome":"Teatro Mário Lago","distancia":889}]},{"linha":"350","descricao_ponto":"Avenida Lobo Junior próximo ao 43","sequencia":"27","latitude":"-22.8298","longitude":"-43.2774","pontos_turisticos":[{"nome":"Igreja Nossa Senhora da Penha","distancia":1742}]},{"linha":"350","descricao_ponto":"Rua Sacadura Cabral, próximo ao Hospital dos Servidores do Estado","sequencia":"11","latitude":"-22.8971","longitude":"-43.1891","pontos_turisticos":[{"nome":"Arcos da Lapa","distancia":1990},{"nome":"Biblioteca Nacional","distancia":1968},{"nome":"Campo de Santana","distancia":1067},{"nome":"Casa França Brasil","distancia":1392},{"nome":"Catedral Metropolitana","distancia":1757},{"nome":"Centro Cultural Banco do Brasil","distancia":1347},{"nome":"Centro Cultural dos Correios","distancia":1436},{"nome":"Cidade do Samba","distancia":867},{"nome":"Confeitaria Colombo","distancia":1391},{"nome":"Espaço Cultural da Marinha","distancia":1565},{"nome":"Igreja de São Francisco da Penitência","distancia":1485},{"nome":"Igreja Nossa Senhora da Candelária","distancia":1241},{"nome":"Igreja Nossa Senhora do Carmo da Antiga Sé","distancia":1573},{"nome":"Memorial dos Pretos Novos","distancia":411},{"nome":"Mosteiro de São Bento","distancia":1149},{"nome":"Museu de Arte do Rio","distancia":761},{"nome":"Museu do Clube Naval","distancia":1776},{"nome":"Museu Nacional de Belas Artes","distancia":1870},{"nome":"Paço Imperial","distancia":1680},{"nome":"Palácio Tiradentes","distancia":1711},{"nome":"Real Gabinete Português de Leitura","distancia":1170},{"nome":"Sambódromo","distancia":1784},{"nome":"Teatro Carlos Gomes","distancia":1312},{"nome":"Teatro Dulcina","distancia":1951},{"nome":"Teatro Glauce Rocha","distancia":1698},{"nome":"Teatro João Caetano","distancia":1247},{"nome":"Teatro Municipal","distancia":1888}]},{"linha":"350","descricao_ponto":"Avenida Brasil próximo ao 2482","sequencia":"22","latitude":"-22.8854","longitude":"-43.2289","pontos_turisticos":[{"nome":"Centro Luiz Gonzaga de Tradições Nordestinas","distancia":1603},{"nome":"Teatro Mário Lago","distancia":1739}]},{"linha":"350","descricao_ponto":"Rua Marq De Aracati próximo ao 7440","sequencia":"7","latitude":"-22.8459","longitude":"-43.3247","pontos_turisticos":[]},{"linha":"350","descricao_ponto":"Rua Conde De Agrolongo próximo ao 1207","sequencia":"26","latitude":"-22.8379","longitude":"-43.2797","pontos_turisticos":[{"nome":"Igreja Nossa Senhora da Penha","distancia":862}]},{"linha":"350","descricao_ponto":"Rua Cardoso De Morais próximo ao 3349","sequencia":"36","latitude":"-22.8568","longitude":"-43.2581","pontos_turisticos":[]},{"linha":"350","descricao_ponto":"Avenida Brasil próximo ao 6288","sequencia":"16","latitude":"-22.8566","longitude":"-43.2475","pontos_turisticos":[]},{"linha":"350","descricao_ponto":"Rua Frizia próximo ao 254","sequencia":"40","latitude":"-22.8398","longitude":"-43.3044","pontos_turisticos":[]},{"linha":"350","descricao_ponto":"Rua Gabriel Lisboa próximo ao 120","sequencia":"47","latitude":"-22.8422","longitude":"-43.3223","pontos_turisticos":[]},{"linha":"350","descricao_ponto":"Avenida Monsenhor Felix próximo ao 940","sequencia":"74","latitude":"-22.8402","longitude":"-43.3238","pontos_turisticos":[]},{"linha":"350","descricao_ponto":"Avenida Braz De Pina próximo ao 1353","sequencia":"15","latitude":"-22.84","longitude":"-43.3089","pontos_turisticos":[]},{"linha":"350","descricao_ponto":"Estrada Padre Roser próximo ao 42","sequencia":"44","latitude":"-22.8405","longitude":"-43.3146","pontos_turisticos":[]},{"linha":"350","descricao_ponto":"Rua Cacequi próximo ao 694","sequencia":"65","latitude":"-22.8385","longitude":"-43.3013","pontos_turisticos":[]},{"linha":"350","descricao_ponto":"Avenida Monsenhor Felix próximo ao 980","sequencia":"76","latitude":"-22.8367","longitude":"-43.3254","pontos_turisticos":[]},{"linha":"350","descricao_ponto":"Avenida Brasil próximo ao 11875","sequencia":"1","latitude":"-22.8197","longitude":"-43.2841","pontos_turisticos":[]},{"linha":"350","descricao_ponto":"Avenida Venezuela próximo ao 153","sequencia":"67","latitude":"-22.8958","longitude":"-43.1863","pontos_turisticos":[{"nome":"Biblioteca Nacional","distancia":1896},{"nome":"Campo de Santana","distancia":1226},{"nome":"Casa França Brasil","distancia":1174},{"nome":"Catedral Metropolitana","distancia":1772},{"nome":"Centro Cultural Banco do Brasil","distancia":1136},{"nome":"Centro Cultural dos Correios","distancia":1233},{"nome":"Cidade do Samba","distancia":1110},{"nome":"Confeitaria Colombo","distancia":1301},{"nome":"Espaço Cultural da Marinha","distancia":1349},{"nome":"Igreja de São Francisco da Penitência","distancia":1430},{"nome":"Igreja Nossa Senhora da Candelária","distancia":1043},{"nome":"Igreja Nossa Senhora do Carmo da Antiga Sé","distancia":1401},{"nome":"Memorial dos Pretos Novos","distancia":683},{"nome":"Mosteiro de São Bento","distancia":868},{"nome":"Museu de Arte do Rio","distancia":469},{"nome":"Museu do Clube Naval","distancia":1697},{"nome":"Museu Nacional de Belas Artes","distancia":1793},{"nome":"Paço Imperial","distancia":1504},{"nome":"Palácio Tiradentes","distancia":1544},{"nome":"Real Gabinete Português de Leitura","distancia":1155},{"nome":"Teatro Carlos Gomes","distancia":1328},{"nome":"Teatro Dulcina","distancia":1908},{"nome":"Teatro Glauce Rocha","distancia":1608},{"nome":"Teatro João Caetano","distancia":1247},{"nome":"Teatro Municipal","distancia":1821},{"nome":"Teatro Rival Petrobras","distancia":1997}]},{"linha":"350","descricao_ponto":"Avenida Lobo Junior próximo ao 1338","sequencia":"29","latitude":"-22.8322","longitude":"-43.2794","pontos_turisticos":[{"nome":"Igreja Nossa Senhora da Penha","distancia":1483}]},{"linha":"350","descricao_ponto":"Rua Irapua próximo ao 74","sequencia":"34","latitude":"-22.8369","longitude":"-43.293","pontos_turisticos":[{"nome":"Igreja Nossa Senhora da Penha","distancia":1822}]},{"linha":"350","descricao_ponto":"Avenida Brasil próximo ao 2000","sequencia":"20","latitude":"-22.887","longitude":"-43.224","pontos_turisticos":[{"nome":"Centro Luiz Gonzaga de Tradições Nordestinas","distancia":1191},{"nome":"Jardim Zoológico (Riozoo)","distancia":1996},{"nome":"Teatro Mário Lago","distancia":1392}]},{"linha":"350","descricao_ponto":"Rua Jose Borges próximo ao 401","sequencia":"78","latitude":"-22.834","longitude":"-43.3272","pontos_turisticos":[]},{"linha":"350","descricao_ponto":"Avenida Monsenhor Felix próximo ao 1077","sequencia":"3","latitude":"-22.8338","longitude":"-43.3274","pontos_turisticos":[]},{"linha":"350","descricao_ponto":"Rua Conde De Agrolongo próximo ao 959","sequencia":"27","latitude":"-22.8359","longitude":"-43.2784","pontos_turisticos":[{"nome":"Igreja Nossa Senhora da Penha","distancia":1064}]},{"linha":"350","descricao_ponto":"Rua Conde De Agrolongo próximo ao","sequencia":"28","latitude":"-22.8347","longitude":"-43.2777","pontos_turisticos":[{"nome":"Igreja Nossa Senhora da Penha","distancia":1196}]},{"linha":"350","descricao_ponto":"Avenida Augusto Severo s/n","sequencia":"75","latitude":"-22.9191","longitude":"-43.1769","pontos_turisticos":[{"nome":"Academia Brasileira de Letras","distancia":999},{"nome":"Arcos da Lapa","distancia":758},{"nome":"Aterro do Flamengo","distancia":1217},{"nome":"Biblioteca Nacional","distancia":1045},{"nome":"Campo de Santana","distancia":1812},{"nome":"Catedral Metropolitana","distancia":994},{"nome":"Centro Cultural dos Correios","distancia":1983},{"nome":"Confeitaria Colombo","distancia":1552},{"nome":"Igreja de São Francisco da Penitência","distancia":1377},{"nome":"Igreja e Convento de Santa Teresa","distancia":518},{"nome":"Igreja Nossa Senhora da Glória do Outeiro","distancia":295},{"nome":"Igreja Nossa Senhora do Carmo da Antiga Sé","distancia":1771},{"nome":"Monumento aos Pracinhas","distancia":411},{"nome":"Museu da Chácara do Céu","distancia":766},{"nome":"Museu da República","distancia":754},{"nome":"Museu de Arte Moderna","distancia":699},{"nome":"Museu de Folclore Edison Carneiro","distancia":775},{"nome":"Museu do Clube Naval","distancia":1214},{"nome":"Museu Histórico Nacional","distancia":1689},{"nome":"Museu Nacional de Belas Artes","distancia":1137},{"nome":"Oi Futuro","distancia":1213},{"nome":"Paço Imperial","distancia":1751},{"nome":"Palácio Tiradentes","distancia":1689},{"nome":"Parque das Ruínas","distancia":595},{"nome":"Parque Eduardo Guinle","distancia":1483},{"nome":"Praça Paris","distancia":236},{"nome":"Praia do Flamengo","distancia":1283},{"nome":"Real Gabinete Português de Leitura","distancia":1609},{"nome":"Sala Cecília Meireles","distancia":546},{"nome":"Teatro Carlos Gomes","distancia":1441},{"nome":"Teatro Dulcina","distancia":934},{"nome":"Teatro Glauce Rocha","distancia":1316},{"nome":"Teatro Glória","distancia":609},{"nome":"Teatro João Caetano","distancia":1517},{"nome":"Teatro Municipal","distancia":1081},{"nome":"Teatro Rival Petrobras","distancia":882}]},{"linha":"350","descricao_ponto":"Estrada Padre Roser próximo ao 753","sequencia":"9","latitude":"-22.8424","longitude":"-43.321","pontos_turisticos":[]},{"linha":"350","descricao_ponto":"Estrada Padre Roser próximo ao 42","sequencia":"70","latitude":"-22.8405","longitude":"-43.3146","pontos_turisticos":[]},{"linha":"350","descricao_ponto":"Av. Augusto Severo próximo ao 202","sequencia":"10","latitude":"-22.9161","longitude":"-43.1766","pontos_turisticos":[{"nome":"Academia Brasileira de Letras","distancia":690},{"nome":"Arcos da Lapa","distancia":494},{"nome":"Aterro do Flamengo","distancia":1515},{"nome":"Biblioteca Nacional","distancia":710},{"nome":"Campo de Santana","distancia":1595},{"nome":"Casa França Brasil","distancia":1748},{"nome":"Catedral Metropolitana","distancia":717},{"nome":"Centro Cultural Banco do Brasil","distancia":1723},{"nome":"Centro Cultural dos Correios","distancia":1649},{"nome":"Confeitaria Colombo","distancia":1227},{"nome":"Espaço Cultural da Marinha","distancia":1684},{"nome":"Igreja de São Francisco da Penitência","distancia":1058},{"nome":"Igreja e Convento de Santa Teresa","distancia":383},{"nome":"Igreja Nossa Senhora da Candelária","distancia":1712},{"nome":"Igreja Nossa Senhora da Glória do Outeiro","distancia":595},{"nome":"Igreja Nossa Senhora do Carmo da Antiga Sé","distancia":1436},{"nome":"Monumento aos Pracinhas","distancia":264},{"nome":"Museu da Chácara do Céu","distancia":784},{"nome":"Museu da República","distancia":1086},{"nome":"Museu de Arte Moderna","distancia":430},{"nome":"Museu de Folclore Edison Carneiro","distancia":1107},{"nome":"Museu do Clube Naval","distancia":881},{"nome":"Museu Histórico Nacional","distancia":1383},{"nome":"Museu Nacional de Belas Artes","distancia":802},{"nome":"Oi Futuro","distancia":1546},{"nome":"Paço Imperial","distancia":1416},{"nome":"Palácio Tiradentes","distancia":1356},{"nome":"Parque das Ruínas","distancia":622},{"nome":"Parque Eduardo Guinle","distancia":1805},{"nome":"Praça Paris","distancia":147},{"nome":"Praia do Flamengo","distancia":1578},{"nome":"Real Gabinete Português de Leitura","distancia":1313},{"nome":"Sala Cecília Meireles","distancia":257},{"nome":"Teatro Carlos Gomes","distancia":1158},{"nome":"Teatro Dulcina","distancia":602},{"nome":"Teatro Glauce Rocha","distancia":982},{"nome":"Teatro Glória","distancia":862},{"nome":"Teatro João Caetano","distancia":1227},{"nome":"Teatro Municipal","distancia":746},{"nome":"Teatro Rival Petrobras","distancia":547}]},{"linha":"350","descricao_ponto":"Rua Jacana próximo ao 195","sequencia":"1","latitude":"-22.8302","longitude":"-43.3291","pontos_turisticos":[]},{"linha":"350","descricao_ponto":"Avenida Braz De Pina próximo ao 1421","sequencia":"13","latitude":"-22.8398","longitude":"-43.3104","pontos_turisticos":[]},{"linha":"350","descricao_ponto":"Viaduto Joao Xxiii proximo ao","sequencia":"23","latitude":"-22.8378","longitude":"-43.2853","pontos_turisticos":[{"nome":"Igreja Nossa Senhora da Penha","distancia":1145}]},{"linha":"350","descricao_ponto":"Avenida Brasil próximo ao 10550","sequencia":"23","latitude":"-22.8347","longitude":"-43.2618","pontos_turisticos":[{"nome":"Praia de Ramos","distancia":1252}]},{"linha":"350","descricao_ponto":"Rua Bento Cardoso próximo ao 63","sequencia":"30","latitude":"-22.8367","longitude":"-43.2876","pontos_turisticos":[{"nome":"Igreja Nossa Senhora da Penha","distancia":1396}]},{"linha":"350","descricao_ponto":"Rua Irapua próximo ao 92","sequencia":"32","latitude":"-22.8365","longitude":"-43.2902","pontos_turisticos":[{"nome":"Igreja Nossa Senhora da Penha","distancia":1612}]},{"linha":"350","descricao_ponto":"Rua Cacequi próximo ao 310","sequencia":"37","latitude":"-22.8385","longitude":"-43.2978","pontos_turisticos":[]},{"linha":"350","descricao_ponto":"Rua Cacequi próximo ao 694","sequencia":"39","latitude":"-22.8385","longitude":"-43.3013","pontos_turisticos":[]},{"linha":"350","descricao_ponto":"Rua Couto Magalhaes próximo ao 363","sequencia":"24","latitude":"-22.891","longitude":"-43.2368","pontos_turisticos":[{"nome":"Centro Luiz Gonzaga de Tradições Nordestinas","distancia":1901},{"nome":"Jardim Zoológico (Riozoo)","distancia":1699},{"nome":"Teatro Mário Lago","distancia":1869}]},{"linha":"350","descricao_ponto":"Rua Tapevi próximo ao 85","sequencia":"61","latitude":"-22.8377","longitude":"-43.2946","pontos_turisticos":[{"nome":"Igreja Nossa Senhora da Penha","distancia":1922}]},{"linha":"350","descricao_ponto":"Estrada Padre Roser próximo ao 1131","sequencia":"9","latitude":"-22.8437","longitude":"-43.3227","pontos_turisticos":[]},{"linha":"350","descricao_ponto":"Avenida Monsenhor Felix próximo ao 945","sequencia":"4","latitude":"-22.8372","longitude":"-43.325","pontos_turisticos":[]},{"linha":"350","descricao_ponto":"Avenida Brasil próximo ao 4036","sequencia":"12","latitude":"-22.8777","longitude":"-43.2409","pontos_turisticos":[]},{"linha":"350","descricao_ponto":"Avenida Brasil próximo ao 9020","sequencia":"21","latitude":"-22.8399","longitude":"-43.2535","pontos_turisticos":[{"nome":"Praia de Ramos","distancia":345}]},{"linha":"350","descricao_ponto":"Rua Jose Borges próximo ao 157","sequencia":"51","latitude":"-22.8351","longitude":"-43.3264","pontos_turisticos":[]},{"linha":"350","descricao_ponto":"Rua Couto Magalhaes próximo ao 606","sequencia":"23","latitude":"-22.8894","longitude":"-43.2348","pontos_turisticos":[{"nome":"Centro Luiz Gonzaga de Tradições Nordestinas","distancia":1785},{"nome":"Jardim Zoológico (Riozoo)","distancia":1776},{"nome":"Teatro Mário Lago","distancia":1795}]},{"linha":"350","descricao_ponto":"Rua Barreiros próximo ao 990","sequencia":"43","latitude":"-22.8488","longitude":"-43.2582","pontos_turisticos":[{"nome":"Praia de Ramos","distancia":1378}]},{"linha":"350","descricao_ponto":"Estrada Padre Roser próximo ao 768","sequencia":"72","latitude":"-22.8419","longitude":"-43.3204","pontos_turisticos":[]},{"linha":"350","descricao_ponto":"BRS 4B,5 - SETE DE SETEMBRO","sequencia":"35","latitude":"-22.9047","longitude":"-43.1778","pontos_turisticos":[{"nome":"Academia Brasileira de Letras","distancia":846},{"nome":"Arcos da Lapa","distancia":933},{"nome":"Biblioteca Nacional","distancia":604},{"nome":"Campo de Santana","distancia":1101},{"nome":"Casa França Brasil","distancia":514},{"nome":"Catedral Metropolitana","distancia":750},{"nome":"Centro Cultural Banco do Brasil","distancia":474},{"nome":"Centro Cultural dos Correios","distancia":429},{"nome":"Confeitaria Colombo","distancia":120},{"nome":"Espaço Cultural da Marinha","distancia":529},{"nome":"Igreja de São Francisco da Penitência","distancia":287},{"nome":"Igreja e Convento de Santa Teresa","distancia":1245},{"nome":"Igreja Nossa Senhora da Candelária","distancia":441},{"nome":"Igreja Nossa Senhora da Glória do Outeiro","distancia":1866},{"nome":"Igreja Nossa Senhora do Carmo da Antiga Sé","distancia":306},{"nome":"Ilha Fiscal","distancia":1476},{"nome":"Memorial dos Pretos Novos","distancia":1825},{"nome":"Monumento aos Pracinhas","distancia":1366},{"nome":"Mosteiro de São Bento","distancia":884},{"nome":"Museu de Arte do Rio","distancia":1030},{"nome":"Museu da Chácara do Céu","distancia":1549},{"nome":"Museu de Arte Moderna","distancia":1118},{"nome":"Museu do Clube Naval","distancia":406},{"nome":"Museu Histórico Nacional","distancia":861},{"nome":"Museu Nacional de Belas Artes","distancia":499},{"nome":"Paço Imperial","distancia":384},{"nome":"Palácio Tiradentes","distancia":372},{"nome":"Parque das Ruínas","distancia":1508},{"nome":"Praça Paris","distancia":1407},{"nome":"Real Gabinete Português de Leitura","distancia":456},{"nome":"Sala Cecília Meireles","distancia":1074},{"nome":"Teatro Carlos Gomes","distancia":559},{"nome":"Teatro Dulcina","distancia":671},{"nome":"Teatro Glauce Rocha","distancia":306},{"nome":"Teatro João Caetano","distancia":497},{"nome":"Teatro Municipal","distancia":541},{"nome":"Teatro Rival Petrobras","distancia":739}]},{"linha":"350","descricao_ponto":"Avenida Augusto Severo próximo ao 306","sequencia":"38","latitude":"-22.9181","longitude":"-43.1767","pontos_turisticos":[{"nome":"Academia Brasileira de Letras","distancia":889},{"nome":"Arcos da Lapa","distancia":668},{"nome":"Aterro do Flamengo","distancia":1310},{"nome":"Biblioteca Nacional","distancia":932},{"nome":"Campo de Santana","distancia":1742},{"nome":"Casa França Brasil","distancia":1970},{"nome":"Catedral Metropolitana","distancia":902},{"nome":"Centro Cultural Banco do Brasil","distancia":1945},{"nome":"Centro Cultural dos Correios","distancia":1871},{"nome":"Confeitaria Colombo","distancia":1445},{"nome":"Espaço Cultural da Marinha","distancia":1906},{"nome":"Igreja de São Francisco da Penitência","distancia":1272},{"nome":"Igreja e Convento de Santa Teresa","distancia":459},{"nome":"Igreja Nossa Senhora da Candelária","distancia":1933},{"nome":"Igreja Nossa Senhora da Glória do Outeiro","distancia":385},{"nome":"Igreja Nossa Senhora do Carmo da Antiga Sé","distancia":1659},{"nome":"Monumento aos Pracinhas","distancia":324},{"nome":"Museu da Chácara do Céu","distancia":766},{"nome":"Museu da República","distancia":864},{"nome":"Museu de Arte Moderna","distancia":596},{"nome":"Museu de Folclore Edison Carneiro","distancia":885},{"nome":"Museu do Clube Naval","distancia":1103},{"nome":"Museu Histórico Nacional","distancia":1580},{"nome":"Museu Nacional de Belas Artes","distancia":1025},{"nome":"Oi Futuro","distancia":1324},{"nome":"Paço Imperial","distancia":1638},{"nome":"Palácio Tiradentes","distancia":1576},{"nome":"Parque das Ruínas","distancia":593},{"nome":"Parque Eduardo Guinle","distancia":1593},{"nome":"Praça Paris","distancia":132},{"nome":"Praia do Flamengo","distancia":1375},{"nome":"Real Gabinete Português de Leitura","distancia":1512},{"nome":"Sala Cecília Meireles","distancia":446},{"nome":"Teatro Carlos Gomes","distancia":1348},{"nome":"Teatro Dulcina","distancia":824},{"nome":"Teatro Glauce Rocha","distancia":1205},{"nome":"Teatro Glória","distancia":679},{"nome":"Teatro João Caetano","distancia":1422},{"nome":"Teatro Municipal","distancia":969},{"nome":"Teatro Rival Petrobras","distancia":769}]},{"linha":"350","descricao_ponto":"Av. Augusto Severo próximo ao 202","sequencia":"40","latitude":"-22.9161","longitude":"-43.1766","pontos_turisticos":[{"nome":"Academia Brasileira de Letras","distancia":690},{"nome":"Arcos da Lapa","distancia":494},{"nome":"Aterro do Flamengo","distancia":1515},{"nome":"Biblioteca Nacional","distancia":710},{"nome":"Campo de Santana","distancia":1595},{"nome":"Casa França Brasil","distancia":1748},{"nome":"Catedral Metropolitana","distancia":717},{"nome":"Centro Cultural Banco do Brasil","distancia":1723},{"nome":"Centro Cultural dos Correios","distancia":1649},{"nome":"Confeitaria Colombo","distancia":1227},{"nome":"Espaço Cultural da Marinha","distancia":1684},{"nome":"Igreja de São Francisco da Penitência","distancia":1058},{"nome":"Igreja e Convento de Santa Teresa","distancia":383},{"nome":"Igreja Nossa Senhora da Candelária","distancia":1712},{"nome":"Igreja Nossa Senhora da Glória do Outeiro","distancia":595},{"nome":"Igreja Nossa Senhora do Carmo da Antiga Sé","distancia":1436},{"nome":"Monumento aos Pracinhas","distancia":264},{"nome":"Museu da Chácara do Céu","distancia":784},{"nome":"Museu da República","distancia":1086},{"nome":"Museu de Arte Moderna","distancia":430},{"nome":"Museu de Folclore Edison Carneiro","distancia":1107},{"nome":"Museu do Clube Naval","distancia":881},{"nome":"Museu Histórico Nacional","distancia":1383},{"nome":"Museu Nacional de Belas Artes","distancia":802},{"nome":"Oi Futuro","distancia":1546},{"nome":"Paço Imperial","distancia":1416},{"nome":"Palácio Tiradentes","distancia":1356},{"nome":"Parque das Ruínas","distancia":622},{"nome":"Parque Eduardo Guinle","distancia":1805},{"nome":"Praça Paris","distancia":147},{"nome":"Praia do Flamengo","distancia":1578},{"nome":"Real Gabinete Português de Leitura","distancia":1313},{"nome":"Sala Cecília Meireles","distancia":257},{"nome":"Teatro Carlos Gomes","distancia":1158},{"nome":"Teatro Dulcina","distancia":602},{"nome":"Teatro Glauce Rocha","distancia":982},{"nome":"Teatro Glória","distancia":862},{"nome":"Teatro João Caetano","distancia":1227},{"nome":"Teatro Municipal","distancia":746},{"nome":"Teatro Rival Petrobras","distancia":547}]},{"linha":"350","descricao_ponto":"Rua Nicaragua próximo ao 177","sequencia":"27","latitude":"-22.8402","longitude":"-43.2777","pontos_turisticos":[{"nome":"Igreja Nossa Senhora da Penha","distancia":585}]},{"linha":"350","descricao_ponto":"Av. Augusto Severo próximo ao 202","sequencia":"1","latitude":"-22.9161","longitude":"-43.1766","pontos_turisticos":[{"nome":"Academia Brasileira de Letras","distancia":690},{"nome":"Arcos da Lapa","distancia":494},{"nome":"Aterro do Flamengo","distancia":1515},{"nome":"Biblioteca Nacional","distancia":710},{"nome":"Campo de Santana","distancia":1595},{"nome":"Casa França Brasil","distancia":1748},{"nome":"Catedral Metropolitana","distancia":717},{"nome":"Centro Cultural Banco do Brasil","distancia":1723},{"nome":"Centro Cultural dos Correios","distancia":1649},{"nome":"Confeitaria Colombo","distancia":1227},{"nome":"Espaço Cultural da Marinha","distancia":1684},{"nome":"Igreja de São Francisco da Penitência","distancia":1058},{"nome":"Igreja e Convento de Santa Teresa","distancia":383},{"nome":"Igreja Nossa Senhora da Candelária","distancia":1712},{"nome":"Igreja Nossa Senhora da Glória do Outeiro","distancia":595},{"nome":"Igreja Nossa Senhora do Carmo da Antiga Sé","distancia":1436},{"nome":"Monumento aos Pracinhas","distancia":264},{"nome":"Museu da Chácara do Céu","distancia":784},{"nome":"Museu da República","distancia":1086},{"nome":"Museu de Arte Moderna","distancia":430},{"nome":"Museu de Folclore Edison Carneiro","distancia":1107},{"nome":"Museu do Clube Naval","distancia":881},{"nome":"Museu Histórico Nacional","distancia":1383},{"nome":"Museu Nacional de Belas Artes","distancia":802},{"nome":"Oi Futuro","distancia":1546},{"nome":"Paço Imperial","distancia":1416},{"nome":"Palácio Tiradentes","distancia":1356},{"nome":"Parque das Ruínas","distancia":622},{"nome":"Parque Eduardo Guinle","distancia":1805},{"nome":"Praça Paris","distancia":147},{"nome":"Praia do Flamengo","distancia":1578},{"nome":"Real Gabinete Português de Leitura","distancia":1313},{"nome":"Sala Cecília Meireles","distancia":257},{"nome":"Teatro Carlos Gomes","distancia":1158},{"nome":"Teatro Dulcina","distancia":602},{"nome":"Teatro Glauce Rocha","distancia":982},{"nome":"Teatro Glória","distancia":862},{"nome":"Teatro João Caetano","distancia":1227},{"nome":"Teatro Municipal","distancia":746},{"nome":"Teatro Rival Petrobras","distancia":547}]},{"linha":"350","descricao_ponto":"Rua Cacequi próximo ao 66","sequencia":"36","latitude":"-22.8381","longitude":"-43.2953","pontos_turisticos":[{"nome":"Igreja Nossa Senhora da Penha","distancia":1968}]},{"linha":"350","descricao_ponto":"Avenida Monsenhor Felix próximo ao 1351","sequencia":"79","latitude":"-22.8323","longitude":"-43.3284","pontos_turisticos":[]},{"linha":"350","descricao_ponto":"Avenida Monsenhor Felix próximo ao 1131","sequencia":"7","latitude":"-22.8455","longitude":"-43.324","pontos_turisticos":[]},{"linha":"350","descricao_ponto":"Avenida Braz De Pina próximo ao 1195","sequencia":"15","latitude":"-22.8404","longitude":"-43.3071","pontos_turisticos":[]},{"linha":"350","descricao_ponto":"Rua Nicaragua proximo ao 505","sequencia":"26","latitude":"-22.8389","longitude":"-43.28","pontos_turisticos":[{"nome":"Igreja Nossa Senhora da Penha","distancia":762}]},{"linha":"350","descricao_ponto":"Rua Cardoso De Morais próximo ao 11","sequencia":"34","latitude":"-22.8546","longitude":"-43.26","pontos_turisticos":[]},{"linha":"350","descricao_ponto":"Avenida Lobo Junior próximo ao 1130","sequencia":"28","latitude":"-22.8307","longitude":"-43.2781","pontos_turisticos":[{"nome":"Igreja Nossa Senhora da Penha","distancia":1641}]},{"linha":"350","descricao_ponto":"Rua Leopoldo Bulhoes próximo ao 952","sequencia":"29","latitude":"-22.8811","longitude":"-43.25","pontos_turisticos":[]},{"linha":"350","descricao_ponto":"Rua Apiai próximo ao 61","sequencia":"55","latitude":"-22.8347","longitude":"-43.2811","pontos_turisticos":[{"nome":"Igreja Nossa Senhora da Penha","distancia":1242}]},{"linha":"350","descricao_ponto":"Avenida Dom Helder Camara próximo ao 28","sequencia":"47","latitude":"-22.8916","longitude":"-43.2409","pontos_turisticos":[{"nome":"Jardim Zoológico (Riozoo)","distancia":1885}]},{"linha":"350","descricao_ponto":"Avenida Brasil próximo ao 7836","sequencia":"20","latitude":"-22.843","longitude":"-43.2506","pontos_turisticos":[{"nome":"Praia de Ramos","distancia":477}]},{"linha":"350","descricao_ponto":"Rua Irapua próximo ao 140","sequencia":"33","latitude":"-22.8367","longitude":"-43.2914","pontos_turisticos":[{"nome":"Igreja Nossa Senhora da Penha","distancia":1697}]},{"linha":"350","descricao_ponto":"Avenida Monsenhor Felix próximo ao 940","sequencia":"48","latitude":"-22.8402","longitude":"-43.3238","pontos_turisticos":[]},{"linha":"350","descricao_ponto":"Avenida Nova York próximo ao 54","sequencia":"33","latitude":"-22.8654","longitude":"-43.2537","pontos_turisticos":[]},{"linha":"350","descricao_ponto":"Rua Bonsucesso próximo ao 233","sequencia":"35","latitude":"-22.8628","longitude":"-43.2535","pontos_turisticos":[]},{"linha":"350","descricao_ponto":"Rua Santo Cristo próximo ao Terminal Padre Henrique Otte","sequencia":"59","latitude":"-22.9003","longitude":"-43.2069","pontos_turisticos":[{"nome":"Centro Luiz Gonzaga de Tradições Nordestinas","distancia":1332},{"nome":"Cidade do Samba","distancia":1210},{"nome":"Memorial dos Pretos Novos","distancia":1504},{"nome":"Quinta da Boa Vista/Museu Nacional","distancia":1929},{"nome":"Sambódromo","distancia":1614},{"nome":"Teatro Mário Lago","distancia":1435}]},{"linha":"350","descricao_ponto":"Augusto Severo proximo ao 176","sequencia":"73","latitude":"-22.9159","longitude":"-43.1764","pontos_turisticos":[{"nome":"Academia Brasileira de Letras","distancia":660},{"nome":"Arcos da Lapa","distancia":493},{"nome":"Aterro do Flamengo","distancia":1529},{"nome":"Biblioteca Nacional","distancia":686},{"nome":"Campo de Santana","distancia":1596},{"nome":"Casa França Brasil","distancia":1725},{"nome":"Catedral Metropolitana","distancia":712},{"nome":"Centro Cultural Banco do Brasil","distancia":1701},{"nome":"Centro Cultural dos Correios","distancia":1625},{"nome":"Confeitaria Colombo","distancia":1210},{"nome":"Espaço Cultural da Marinha","distancia":1660},{"nome":"Igreja de São Francisco da Penitência","distancia":1042},{"nome":"Igreja e Convento de Santa Teresa","distancia":401},{"nome":"Igreja Nossa Senhora da Candelária","distancia":1691},{"nome":"Igreja Nossa Senhora da Glória do Outeiro","distancia":613},{"nome":"Igreja Nossa Senhora do Carmo da Antiga Sé","distancia":1413},{"nome":"Monumento aos Pracinhas","distancia":249},{"nome":"Museu da Chácara do Céu","distancia":808},{"nome":"Museu da República","distancia":1108},{"nome":"Museu de Arte Moderna","distancia":401},{"nome":"Museu de Folclore Edison Carneiro","distancia":1129},{"nome":"Museu do Clube Naval","distancia":859},{"nome":"Museu Histórico Nacional","distancia":1353},{"nome":"Museu Nacional de Belas Artes","distancia":779},{"nome":"Oi Futuro","distancia":1568},{"nome":"Paço Imperial","distancia":1391},{"nome":"Palácio Tiradentes","distancia":1330},{"nome":"Parque das Ruínas","distancia":648},{"nome":"Parque Eduardo Guinle","distancia":1833},{"nome":"Praça Paris","distancia":158},{"nome":"Praia do Flamengo","distancia":1592},{"nome":"Real Gabinete Português de Leitura","distancia":1302},{"nome":"Sala Cecília Meireles","distancia":255},{"nome":"Teatro Carlos Gomes","distancia":1151},{"nome":"Teatro Dulcina","distancia":582},{"nome":"Teatro Glauce Rocha","distancia":961},{"nome":"Teatro Glória","distancia":873},{"nome":"Teatro João Caetano","distancia":1217},{"nome":"Teatro Municipal","distancia":724},{"nome":"Teatro Rival Petrobras","distancia":523}]},{"linha":"350","descricao_ponto":"Rua Marq De Aracati próximo ao 89","sequencia":"5","latitude":"-22.8444","longitude":"-43.3252","pontos_turisticos":[]},{"linha":"350","descricao_ponto":"Estrada Padre Roser próximo ao 247","sequencia":"11","latitude":"-22.8413","longitude":"-43.3167","pontos_turisticos":[]},{"linha":"350","descricao_ponto":"Rua Leopoldo Bulhoes próximo ao 700","sequencia":"27","latitude":"-22.8843","longitude":"-43.2488","pontos_turisticos":[]},{"linha":"350","descricao_ponto":"Rua Barreiros próximo ao 250","sequencia":"40","latitude":"-22.8531","longitude":"-43.2531","pontos_turisticos":[{"nome":"Praia de Ramos","distancia":1623}]},{"linha":"350","descricao_ponto":"Rua Irapua próximo ao 13","sequencia":"57","latitude":"-22.8362","longitude":"-43.2887","pontos_turisticos":[{"nome":"Igreja Nossa Senhora da Penha","distancia":1516}]},{"linha":"350","descricao_ponto":"Avenida Braz De Pina próximo ao 1421","sequencia":"14","latitude":"-22.8398","longitude":"-43.3104","pontos_turisticos":[]},{"linha":"350","descricao_ponto":"Rua Leopoldo Bulhoes próximo ao 353","sequencia":"45","latitude":"-22.8838","longitude":"-43.2492","pontos_turisticos":[]},{"linha":"350","descricao_ponto":"Avenida Rio De Janeiro próximo ao","sequencia":"11","latitude":"-22.8911","longitude":"-43.2154","pontos_turisticos":[{"nome":"Centro Luiz Gonzaga de Tradições Nordestinas","distancia":752},{"nome":"Cidade do Samba","distancia":1917},{"nome":"Quinta da Boa Vista/Museu Nacional","distancia":1867},{"nome":"Teatro Mário Lago","distancia":1058}]},{"linha":"350","descricao_ponto":"Avenida Brasil próximo ao 8382","sequencia":"19","latitude":"-22.8467","longitude":"-43.2475","pontos_turisticos":[{"nome":"Praia de Ramos","distancia":936}]},{"linha":"350","descricao_ponto":"Avenida Brasil próximo ao 11288","sequencia":"25","latitude":"-22.83","longitude":"-43.2702","pontos_turisticos":[{"nome":"Igreja Nossa Senhora da Penha","distancia":1889}]},{"linha":"350","descricao_ponto":"Rua Bento Cardoso próximo ao 63","sequencia":"56","latitude":"-22.8367","longitude":"-43.2876","pontos_turisticos":[{"nome":"Igreja Nossa Senhora da Penha","distancia":1396}]},{"linha":"350","descricao_ponto":"Avenida Augusto Severo próximo ao 306","sequencia":"8","latitude":"-22.9181","longitude":"-43.1767","pontos_turisticos":[{"nome":"Academia Brasileira de Letras","distancia":889},{"nome":"Arcos da Lapa","distancia":668},{"nome":"Aterro do Flamengo","distancia":1310},{"nome":"Biblioteca Nacional","distancia":932},{"nome":"Campo de Santana","distancia":1742},{"nome":"Casa França Brasil","distancia":1970},{"nome":"Catedral Metropolitana","distancia":902},{"nome":"Centro Cultural Banco do Brasil","distancia":1945},{"nome":"Centro Cultural dos Correios","distancia":1871},{"nome":"Confeitaria Colombo","distancia":1445},{"nome":"Espaço Cultural da Marinha","distancia":1906},{"nome":"Igreja de São Francisco da Penitência","distancia":1272},{"nome":"Igreja e Convento de Santa Teresa","distancia":459},{"nome":"Igreja Nossa Senhora da Candelária","distancia":1933},{"nome":"Igreja Nossa Senhora da Glória do Outeiro","distancia":385},{"nome":"Igreja Nossa Senhora do Carmo da Antiga Sé","distancia":1659},{"nome":"Monumento aos Pracinhas","distancia":324},{"nome":"Museu da Chácara do Céu","distancia":766},{"nome":"Museu da República","distancia":864},{"nome":"Museu de Arte Moderna","distancia":596},{"nome":"Museu de Folclore Edison Carneiro","distancia":885},{"nome":"Museu do Clube Naval","distancia":1103},{"nome":"Museu Histórico Nacional","distancia":1580},{"nome":"Museu Nacional de Belas Artes","distancia":1025},{"nome":"Oi Futuro","distancia":1324},{"nome":"Paço Imperial","distancia":1638},{"nome":"Palácio Tiradentes","distancia":1576},{"nome":"Parque das Ruínas","distancia":593},{"nome":"Parque Eduardo Guinle","distancia":1593},{"nome":"Praça Paris","distancia":132},{"nome":"Praia do Flamengo","distancia":1375},{"nome":"Real Gabinete Português de Leitura","distancia":1512},{"nome":"Sala Cecília Meireles","distancia":446},{"nome":"Teatro Carlos Gomes","distancia":1348},{"nome":"Teatro Dulcina","distancia":824},{"nome":"Teatro Glauce Rocha","distancia":1205},{"nome":"Teatro Glória","distancia":679},{"nome":"Teatro João Caetano","distancia":1422},{"nome":"Teatro Municipal","distancia":969},{"nome":"Teatro Rival Petrobras","distancia":769}]},{"linha":"350","descricao_ponto":"Augusto Severo proximo ao 176","sequencia":"37","latitude":"-22.9159","longitude":"-43.1764","pontos_turisticos":[{"nome":"Academia Brasileira de Letras","distancia":660},{"nome":"Arcos da Lapa","distancia":493},{"nome":"Aterro do Flamengo","distancia":1529},{"nome":"Biblioteca Nacional","distancia":686},{"nome":"Campo de Santana","distancia":1596},{"nome":"Casa França Brasil","distancia":1725},{"nome":"Catedral Metropolitana","distancia":712},{"nome":"Centro Cultural Banco do Brasil","distancia":1701},{"nome":"Centro Cultural dos Correios","distancia":1625},{"nome":"Confeitaria Colombo","distancia":1210},{"nome":"Espaço Cultural da Marinha","distancia":1660},{"nome":"Igreja de São Francisco da Penitência","distancia":1042},{"nome":"Igreja e Convento de Santa Teresa","distancia":401},{"nome":"Igreja Nossa Senhora da Candelária","distancia":1691},{"nome":"Igreja Nossa Senhora da Glória do Outeiro","distancia":613},{"nome":"Igreja Nossa Senhora do Carmo da Antiga Sé","distancia":1413},{"nome":"Monumento aos Pracinhas","distancia":249},{"nome":"Museu da Chácara do Céu","distancia":808},{"nome":"Museu da República","distancia":1108},{"nome":"Museu de Arte Moderna","distancia":401},{"nome":"Museu de Folclore Edison Carneiro","distancia":1129},{"nome":"Museu do Clube Naval","distancia":859},{"nome":"Museu Histórico Nacional","distancia":1353},{"nome":"Museu Nacional de Belas Artes","distancia":779},{"nome":"Oi Futuro","distancia":1568},{"nome":"Paço Imperial","distancia":1391},{"nome":"Palácio Tiradentes","distancia":1330},{"nome":"Parque das Ruínas","distancia":648},{"nome":"Parque Eduardo Guinle","distancia":1833},{"nome":"Praça Paris","distancia":158},{"nome":"Praia do Flamengo","distancia":1592},{"nome":"Real Gabinete Português de Leitura","distancia":1302},{"nome":"Sala Cecília Meireles","distancia":255},{"nome":"Teatro Carlos Gomes","distancia":1151},{"nome":"Teatro Dulcina","distancia":582},{"nome":"Teatro Glauce Rocha","distancia":961},{"nome":"Teatro Glória","distancia":873},{"nome":"Teatro João Caetano","distancia":1217},{"nome":"Teatro Municipal","distancia":724},{"nome":"Teatro Rival Petrobras","distancia":523}]},{"linha":"350","descricao_ponto":"Rua Jose Borges próximo ao 174","sequencia":"3","latitude":"-22.8356","longitude":"-43.3261","pontos_turisticos":[]},{"linha":"350","descricao_ponto":"Rua Dona Isabel próximo ao 389","sequencia":"39","latitude":"-22.8625","longitude":"-43.2568","pontos_turisticos":[]},{"linha":"350","descricao_ponto":"Rua Irapua próximo ao 74","sequencia":"60","latitude":"-22.8369","longitude":"-43.293","pontos_turisticos":[{"nome":"Igreja Nossa Senhora da Penha","distancia":1822}]},{"linha":"350","descricao_ponto":"Avenida Braz De Pina próximo ao 1195","sequencia":"16","latitude":"-22.8404","longitude":"-43.3071","pontos_turisticos":[]},{"linha":"350","descricao_ponto":"Avenida Monsenhor Felix próximo ao 380","sequencia":"1","latitude":"-22.8323","longitude":"-43.3285","pontos_turisticos":[]},{"linha":"350","descricao_ponto":"Avenida Brasil próximo ao 5493","sequencia":"14","latitude":"-22.8648","longitude":"-43.2477","pontos_turisticos":[]},{"linha":"350","descricao_ponto":"Rua Leopoldo Bulhoes próximo ao 1752","sequencia":"31","latitude":"-22.8753","longitude":"-43.2522","pontos_turisticos":[]},{"linha":"350","descricao_ponto":"BRS 4B,5 - SETE DE SETEMBRO","sequencia":"71","latitude":"-22.9047","longitude":"-43.1778","pontos_turisticos":[{"nome":"Academia Brasileira de Letras","distancia":846},{"nome":"Arcos da Lapa","distancia":933},{"nome":"Biblioteca Nacional","distancia":604},{"nome":"Campo de Santana","distancia":1101},{"nome":"Casa França Brasil","distancia":514},{"nome":"Catedral Metropolitana","distancia":750},{"nome":"Centro Cultural Banco do Brasil","distancia":474},{"nome":"Centro Cultural dos Correios","distancia":429},{"nome":"Confeitaria Colombo","distancia":120},{"nome":"Espaço Cultural da Marinha","distancia":529},{"nome":"Igreja de São Francisco da Penitência","distancia":287},{"nome":"Igreja e Convento de Santa Teresa","distancia":1245},{"nome":"Igreja Nossa Senhora da Candelária","distancia":441},{"nome":"Igreja Nossa Senhora da Glória do Outeiro","distancia":1866},{"nome":"Igreja Nossa Senhora do Carmo da Antiga Sé","distancia":306},{"nome":"Ilha Fiscal","distancia":1476},{"nome":"Memorial dos Pretos Novos","distancia":1825},{"nome":"Monumento aos Pracinhas","distancia":1366},{"nome":"Mosteiro de São Bento","distancia":884},{"nome":"Museu de Arte do Rio","distancia":1030},{"nome":"Museu da Chácara do Céu","distancia":1549},{"nome":"Museu de Arte Moderna","distancia":1118},{"nome":"Museu do Clube Naval","distancia":406},{"nome":"Museu Histórico Nacional","distancia":861},{"nome":"Museu Nacional de Belas Artes","distancia":499},{"nome":"Paço Imperial","distancia":384},{"nome":"Palácio Tiradentes","distancia":372},{"nome":"Parque das Ruínas","distancia":1508},{"nome":"Praça Paris","distancia":1407},{"nome":"Real Gabinete Português de Leitura","distancia":456},{"nome":"Sala Cecília Meireles","distancia":1074},{"nome":"Teatro Carlos Gomes","distancia":559},{"nome":"Teatro Dulcina","distancia":671},{"nome":"Teatro Glauce Rocha","distancia":306},{"nome":"Teatro João Caetano","distancia":497},{"nome":"Teatro Municipal","distancia":541},{"nome":"Teatro Rival Petrobras","distancia":739}]},{"linha":"350","descricao_ponto":"Rua Tapevi próximo ao 85","sequencia":"35","latitude":"-22.8377","longitude":"-43.2946","pontos_turisticos":[{"nome":"Igreja Nossa Senhora da Penha","distancia":1922}]},{"linha":"350","descricao_ponto":"Estrada Padre Roser próximo ao 768","sequencia":"46","latitude":"-22.8419","longitude":"-43.3204","pontos_turisticos":[]},{"linha":"350","descricao_ponto":"Rua Noemia Nunes próximo ao 626","sequencia":"45","latitude":"-22.8445","longitude":"-43.2619","pontos_turisticos":[{"nome":"Igreja Nossa Senhora da Penha","distancia":1636},{"nome":"Praia de Ramos","distancia":1344}]},{"linha":"350","descricao_ponto":"Rua Carlina próximo ao 30","sequencia":"46","latitude":"-22.843","longitude":"-43.2632","pontos_turisticos":[{"nome":"Igreja Nossa Senhora da Penha","distancia":1524},{"nome":"Praia de Ramos","distancia":1397}]},{"linha":"350","descricao_ponto":"Avenida Braz De Pina próximo ao 1496","sequencia":"68","latitude":"-22.8401","longitude":"-43.3082","pontos_turisticos":[]},{"linha":"350","descricao_ponto":"BRS 1,2,3 - OUVIDOR","sequencia":"6","latitude":"-22.9027","longitude":"-43.1756","pontos_turisticos":[{"nome":"Academia Brasileira de Letras","distancia":948},{"nome":"Arcos da Lapa","distancia":1214},{"nome":"Biblioteca Nacional","distancia":786},{"nome":"Campo de Santana","distancia":1377},{"nome":"Casa França Brasil","distancia":259},{"nome":"Catedral Metropolitana","distancia":1051},{"nome":"Centro Cultural Banco do Brasil","distancia":251},{"nome":"Centro Cultural dos Correios","distancia":159},{"nome":"Confeitaria Colombo","distancia":434},{"nome":"Espaço Cultural da Marinha","distancia":215},{"nome":"Igreja de São Francisco da Penitência","distancia":600},{"nome":"Igreja e Convento de Santa Teresa","distancia":1519},{"nome":"Igreja Nossa Senhora da Candelária","distancia":303},{"nome":"Igreja Nossa Senhora do Carmo da Antiga Sé","distancia":69},{"nome":"Ilha Fiscal","distancia":1164},{"nome":"Memorial dos Pretos Novos","distancia":1925},{"nome":"Monumento aos Pracinhas","distancia":1542},{"nome":"Mosteiro de São Bento","distancia":702},{"nome":"Museu de Arte do Rio","distancia":960},{"nome":"Museu da Chácara do Céu","distancia":1848},{"nome":"Museu de Arte Moderna","distancia":1260},{"nome":"Museu do Clube Naval","distancia":618},{"nome":"Museu Histórico Nacional","distancia":706},{"nome":"Museu Nacional de Belas Artes","distancia":691},{"nome":"Paço Imperial","distancia":166},{"nome":"Palácio Tiradentes","distancia":210},{"nome":"Parque das Ruínas","distancia":1796},{"nome":"Praça Paris","distancia":1615},{"nome":"Real Gabinete Português de Leitura","distancia":740},{"nome":"Sala Cecília Meireles","distancia":1323},{"nome":"Teatro Carlos Gomes","distancia":869},{"nome":"Teatro Dulcina","distancia":902},{"nome":"Teatro Glauce Rocha","distancia":521},{"nome":"Teatro João Caetano","distancia":799},{"nome":"Teatro Municipal","distancia":748},{"nome":"Teatro Rival Petrobras","distancia":947}]},{"linha":"350","descricao_ponto":"Rua Carlina próximo ao 3229","sequencia":"47","latitude":"-22.8419","longitude":"-43.2642","pontos_turisticos":[{"nome":"Igreja Nossa Senhora da Penha","distancia":1452},{"nome":"Praia de Ramos","distancia":1459}]},{"linha":"350","descricao_ponto":"Avenida Braz De Pina próximo ao 1047","sequencia":"17","latitude":"-22.8408","longitude":"-43.3035","pontos_turisticos":[]},{"linha":"350","descricao_ponto":"Avenida Braz De Pina próximo ao 703","sequencia":"22","latitude":"-22.8378","longitude":"-43.2912","pontos_turisticos":[{"nome":"Igreja Nossa Senhora da Penha","distancia":1613}]},{"linha":"350","descricao_ponto":"Av. Augusto Severo próximo ao 202","sequencia":"76","latitude":"-22.9161","longitude":"-43.1766","pontos_turisticos":[{"nome":"Academia Brasileira de Letras","distancia":690},{"nome":"Arcos da Lapa","distancia":494},{"nome":"Aterro do Flamengo","distancia":1515},{"nome":"Biblioteca Nacional","distancia":710},{"nome":"Campo de Santana","distancia":1595},{"nome":"Casa França Brasil","distancia":1748},{"nome":"Catedral Metropolitana","distancia":717},{"nome":"Centro Cultural Banco do Brasil","distancia":1723},{"nome":"Centro Cultural dos Correios","distancia":1649},{"nome":"Confeitaria Colombo","distancia":1227},{"nome":"Espaço Cultural da Marinha","distancia":1684},{"nome":"Igreja de São Francisco da Penitência","distancia":1058},{"nome":"Igreja e Convento de Santa Teresa","distancia":383},{"nome":"Igreja Nossa Senhora da Candelária","distancia":1712},{"nome":"Igreja Nossa Senhora da Glória do Outeiro","distancia":595},{"nome":"Igreja Nossa Senhora do Carmo da Antiga Sé","distancia":1436},{"nome":"Monumento aos Pracinhas","distancia":264},{"nome":"Museu da Chácara do Céu","distancia":784},{"nome":"Museu da República","distancia":1086},{"nome":"Museu de Arte Moderna","distancia":430},{"nome":"Museu de Folclore Edison Carneiro","distancia":1107},{"nome":"Museu do Clube Naval","distancia":881},{"nome":"Museu Histórico Nacional","distancia":1383},{"nome":"Museu Nacional de Belas Artes","distancia":802},{"nome":"Oi Futuro","distancia":1546},{"nome":"Paço Imperial","distancia":1416},{"nome":"Palácio Tiradentes","distancia":1356},{"nome":"Parque das Ruínas","distancia":622},{"nome":"Parque Eduardo Guinle","distancia":1805},{"nome":"Praça Paris","distancia":147},{"nome":"Praia do Flamengo","distancia":1578},{"nome":"Real Gabinete Português de Leitura","distancia":1313},{"nome":"Sala Cecília Meireles","distancia":257},{"nome":"Teatro Carlos Gomes","distancia":1158},{"nome":"Teatro Dulcina","distancia":602},{"nome":"Teatro Glauce Rocha","distancia":982},{"nome":"Teatro Glória","distancia":862},{"nome":"Teatro João Caetano","distancia":1227},{"nome":"Teatro Municipal","distancia":746},{"nome":"Teatro Rival Petrobras","distancia":547}]},{"linha":"350","descricao_ponto":"Avenida Braz De Pina próximo ao 611","sequencia":"20","latitude":"-22.8382","longitude":"-43.2933","pontos_turisticos":[{"nome":"Igreja Nossa Senhora da Penha","distancia":1778}]},{"linha":"350","descricao_ponto":"Avenida Lobo Junior próximo ao 874","sequencia":"26","latitude":"-22.8287","longitude":"-43.2766","pontos_turisticos":[{"nome":"Igreja Nossa Senhora da Penha","distancia":1868}]},{"linha":"350","descricao_ponto":"Avenida Teixeira De Castro próximo ao 245","sequencia":"38","latitude":"-22.8577","longitude":"-43.2525","pontos_turisticos":[]},{"linha":"350","descricao_ponto":"Rua Jose Borges próximo ao 157","sequencia":"77","latitude":"-22.8351","longitude":"-43.3264","pontos_turisticos":[]},{"linha":"350","descricao_ponto":"Avenida Braz De Pina próximo ao 811","sequencia":"23","latitude":"-22.8377","longitude":"-43.2892","pontos_turisticos":[{"nome":"Igreja Nossa Senhora da Penha","distancia":1449}]},{"linha":"350","descricao_ponto":"Avenida Monsenhor Felix próximo ao 1077","sequencia":"2","latitude":"-22.8338","longitude":"-43.3274","pontos_turisticos":[]},{"linha":"350","descricao_ponto":"Avenida Dom Helder Camara próximo ao 104","sequencia":"25","latitude":"-22.8915","longitude":"-43.2407","pontos_turisticos":[{"nome":"Jardim Zoológico (Riozoo)","distancia":1880}]},{"linha":"350","descricao_ponto":"Rua Carlina próximo ao 245","sequencia":"48","latitude":"-22.8397","longitude":"-43.266","pontos_turisticos":[{"nome":"Igreja Nossa Senhora da Penha","distancia":1371},{"nome":"Praia de Ramos","distancia":1604}]},{"linha":"350","descricao_ponto":"Rua Quito proximo ao 393","sequencia":"54","latitude":"-22.8363","longitude":"-43.2791","pontos_turisticos":[{"nome":"Igreja Nossa Senhora da Penha","distancia":1027}]},{"linha":"350","descricao_ponto":"Rua Cacequi próximo ao 66","sequencia":"62","latitude":"-22.8381","longitude":"-43.2953","pontos_turisticos":[{"nome":"Igreja Nossa Senhora da Penha","distancia":1968}]},{"linha":"350","descricao_ponto":"Avenida Braz De Pina próximo ao 1496","sequencia":"69","latitude":"-22.8397","longitude":"-43.3106","pontos_turisticos":[]},{"linha":"350","descricao_ponto":"Estrada Padre Roser próximo ao 753","sequencia":"10","latitude":"-22.8424","longitude":"-43.321","pontos_turisticos":[]},{"linha":"350","descricao_ponto":"Rua Conde De Agrolongo próximo ao 563","sequencia":"30","latitude":"-22.8326","longitude":"-43.2764","pontos_turisticos":[{"nome":"Igreja Nossa Senhora da Penha","distancia":1437}]},{"linha":"350","descricao_ponto":"Avenida Teixeira De Castro próximo ao 308","sequencia":"39","latitude":"-22.8564","longitude":"-43.2523","pontos_turisticos":[{"nome":"Praia de Ramos","distancia":1976}]},{"linha":"350","descricao_ponto":"Rua Cacequi próximo ao 460","sequencia":"64","latitude":"-22.8385","longitude":"-43.2993","pontos_turisticos":[]},{"linha":"350","descricao_ponto":"Rua Cardoso De Morais próximo ao 535","sequencia":"35","latitude":"-22.8556","longitude":"-43.259","pontos_turisticos":[]},{"linha":"350","descricao_ponto":"Rua Leopoldo Bulhoes próximo ao 353","sequencia":"28","latitude":"-22.8826","longitude":"-43.2495","pontos_turisticos":[]},{"linha":"350","descricao_ponto":"Rua Barreiros próximo ao 657","sequencia":"42","latitude":"-22.8511","longitude":"-43.2559","pontos_turisticos":[{"nome":"Praia de Ramos","distancia":1488}]},{"linha":"350","descricao_ponto":"Rua Irapua próximo ao 92","sequencia":"58","latitude":"-22.8365","longitude":"-43.2902","pontos_turisticos":[{"nome":"Igreja Nossa Senhora da Penha","distancia":1612}]},{"linha":"350","descricao_ponto":"Avenida Augusto Severo próximo ao 306","sequencia":"74","latitude":"-22.9181","longitude":"-43.1767","pontos_turisticos":[{"nome":"Academia Brasileira de Letras","distancia":889},{"nome":"Arcos da Lapa","distancia":668},{"nome":"Aterro do Flamengo","distancia":1310},{"nome":"Biblioteca Nacional","distancia":932},{"nome":"Campo de Santana","distancia":1742},{"nome":"Casa França Brasil","distancia":1970},{"nome":"Catedral Metropolitana","distancia":902},{"nome":"Centro Cultural Banco do Brasil","distancia":1945},{"nome":"Centro Cultural dos Correios","distancia":1871},{"nome":"Confeitaria Colombo","distancia":1445},{"nome":"Espaço Cultural da Marinha","distancia":1906},{"nome":"Igreja de São Francisco da Penitência","distancia":1272},{"nome":"Igreja e Convento de Santa Teresa","distancia":459},{"nome":"Igreja Nossa Senhora da Candelária","distancia":1933},{"nome":"Igreja Nossa Senhora da Glória do Outeiro","distancia":385},{"nome":"Igreja Nossa Senhora do Carmo da Antiga Sé","distancia":1659},{"nome":"Monumento aos Pracinhas","distancia":324},{"nome":"Museu da Chácara do Céu","distancia":766},{"nome":"Museu da República","distancia":864},{"nome":"Museu de Arte Moderna","distancia":596},{"nome":"Museu de Folclore Edison Carneiro","distancia":885},{"nome":"Museu do Clube Naval","distancia":1103},{"nome":"Museu Histórico Nacional","distancia":1580},{"nome":"Museu Nacional de Belas Artes","distancia":1025},{"nome":"Oi Futuro","distancia":1324},{"nome":"Paço Imperial","distancia":1638},{"nome":"Palácio Tiradentes","distancia":1576},{"nome":"Parque das Ruínas","distancia":593},{"nome":"Parque Eduardo Guinle","distancia":1593},{"nome":"Praça Paris","distancia":132},{"nome":"Praia do Flamengo","distancia":1375},{"nome":"Real Gabinete Português de Leitura","distancia":1512},{"nome":"Sala Cecília Meireles","distancia":446},{"nome":"Teatro Carlos Gomes","distancia":1348},{"nome":"Teatro Dulcina","distancia":824},{"nome":"Teatro Glauce Rocha","distancia":1205},{"nome":"Teatro Glória","distancia":679},{"nome":"Teatro João Caetano","distancia":1422},{"nome":"Teatro Municipal","distancia":969},{"nome":"Teatro Rival Petrobras","distancia":769}]},{"linha":"350","descricao_ponto":"Estrada Padre Roser próximo ao 213","sequencia":"10","latitude":"-22.8416","longitude":"-43.3185","pontos_turisticos":[]},{"linha":"350","descricao_ponto":"Avenida Braz De Pina próximo ao 703","sequencia":"21","latitude":"-22.8378","longitude":"-43.2912","pontos_turisticos":[{"nome":"Igreja Nossa Senhora da Penha","distancia":1613}]},{"linha":"350","descricao_ponto":"Estrada Do Engenho Da Pedra próximo ao 258","sequencia":"32","latitude":"-22.8475","longitude":"-43.2658","pontos_turisticos":[{"nome":"Igreja Nossa Senhora da Penha","distancia":1254},{"nome":"Praia de Ramos","distancia":1857}]},{"linha":"350","descricao_ponto":"Rua Leopoldina Rego próximo ao 589","sequencia":"33","latitude":"-22.85","longitude":"-43.2638","pontos_turisticos":[{"nome":"Igreja Nossa Senhora da Penha","distancia":1524},{"nome":"Praia de Ramos","distancia":1861}]},{"linha":"350","descricao_ponto":"Avenida Brasil próximo ao 2482","sequencia":"21","latitude":"-22.8847","longitude":"-43.2265","pontos_turisticos":[{"nome":"Centro Luiz Gonzaga de Tradições Nordestinas","distancia":1533},{"nome":"Teatro Mário Lago","distancia":1710}]},{"linha":"350","descricao_ponto":"Rua Leopoldina Rego próximo ao 430","sequencia":"50","latitude":"-22.8421","longitude":"-43.2693","pontos_turisticos":[{"nome":"Igreja Nossa Senhora da Penha","distancia":951},{"nome":"Praia de Ramos","distancia":1974}]},{"linha":"350","descricao_ponto":"Avenida Braz De Pina próximo ao 1153","sequencia":"18","latitude":"-22.8406","longitude":"-43.3023","pontos_turisticos":[]},{"linha":"350","descricao_ponto":"Rua Dona Isabel próximo ao 483","sequencia":"40","latitude":"-22.8656","longitude":"-43.2558","pontos_turisticos":[]},{"linha":"350","descricao_ponto":"Avenida Monsenhor Felix próximo ao 887","sequencia":"49","latitude":"-22.8382","longitude":"-43.3244","pontos_turisticos":[]},{"linha":"350","descricao_ponto":"Avenida Braz De Pina próximo ao 1260","sequencia":"67","latitude":"-22.8407","longitude":"-43.3052","pontos_turisticos":[]},{"linha":"350","descricao_ponto":"Rua Gabriel Lisboa próximo ao 120","sequencia":"73","latitude":"-22.8422","longitude":"-43.3223","pontos_turisticos":[]},{"linha":"350","descricao_ponto":"Estrada Padre Roser próximo ao 247","sequencia":"12","latitude":"-22.8413","longitude":"-43.3167","pontos_turisticos":[]},{"linha":"350","descricao_ponto":"Estrada Padre Roser próximo ao 1485","sequencia":"13","latitude":"-22.8409","longitude":"-43.3154","pontos_turisticos":[]},{"linha":"350","descricao_ponto":"Avenida Braz De Pina próximo ao 611","sequencia":"21","latitude":"-22.8382","longitude":"-43.2933","pontos_turisticos":[{"nome":"Igreja Nossa Senhora da Penha","distancia":1778}]},{"linha":"350","descricao_ponto":"Rua Leopoldo Bulhoes próximo ao 1609","sequencia":"43","latitude":"-22.878","longitude":"-43.2513","pontos_turisticos":[]},{"linha":"350","descricao_ponto":"Rua Leopoldina Rego próximo ao 380","sequencia":"31","latitude":"-22.8446","longitude":"-43.2681","pontos_turisticos":[{"nome":"Igreja Nossa Senhora da Penha","distancia":1002},{"nome":"Praia de Ramos","distancia":1930}]},{"linha":"350","descricao_ponto":"Rua Quito próximo ao 276","sequencia":"52","latitude":"-22.8389","longitude":"-43.274","pontos_turisticos":[{"nome":"Igreja Nossa Senhora da Penha","distancia":828}]},{"linha":"350","descricao_ponto":"Avenida Brasil próximo ao","sequencia":"2","latitude":"-22.8207","longitude":"-43.2829","pontos_turisticos":[]},{"linha":"350","descricao_ponto":"Augusto Severo proximo ao 176","sequencia":"7","latitude":"-22.9159","longitude":"-43.1764","pontos_turisticos":[{"nome":"Academia Brasileira de Letras","distancia":660},{"nome":"Arcos da Lapa","distancia":493},{"nome":"Aterro do Flamengo","distancia":1529},{"nome":"Biblioteca Nacional","distancia":686},{"nome":"Campo de Santana","distancia":1596},{"nome":"Casa França Brasil","distancia":1725},{"nome":"Catedral Metropolitana","distancia":712},{"nome":"Centro Cultural Banco do Brasil","distancia":1701},{"nome":"Centro Cultural dos Correios","distancia":1625},{"nome":"Confeitaria Colombo","distancia":1210},{"nome":"Espaço Cultural da Marinha","distancia":1660},{"nome":"Igreja de São Francisco da Penitência","distancia":1042},{"nome":"Igreja e Convento de Santa Teresa","distancia":401},{"nome":"Igreja Nossa Senhora da Candelária","distancia":1691},{"nome":"Igreja Nossa Senhora da Glória do Outeiro","distancia":613},{"nome":"Igreja Nossa Senhora do Carmo da Antiga Sé","distancia":1413},{"nome":"Monumento aos Pracinhas","distancia":249},{"nome":"Museu da Chácara do Céu","distancia":808},{"nome":"Museu da República","distancia":1108},{"nome":"Museu de Arte Moderna","distancia":401},{"nome":"Museu de Folclore Edison Carneiro","distancia":1129},{"nome":"Museu do Clube Naval","distancia":859},{"nome":"Museu Histórico Nacional","distancia":1353},{"nome":"Museu Nacional de Belas Artes","distancia":779},{"nome":"Oi Futuro","distancia":1568},{"nome":"Paço Imperial","distancia":1391},{"nome":"Palácio Tiradentes","distancia":1330},{"nome":"Parque das Ruínas","distancia":648},{"nome":"Parque Eduardo Guinle","distancia":1833},{"nome":"Praça Paris","distancia":158},{"nome":"Praia do Flamengo","distancia":1592},{"nome":"Real Gabinete Português de Leitura","distancia":1302},{"nome":"Sala Cecília Meireles","distancia":255},{"nome":"Teatro Carlos Gomes","distancia":1151},{"nome":"Teatro Dulcina","distancia":582},{"nome":"Teatro Glauce Rocha","distancia":961},{"nome":"Teatro Glória","distancia":873},{"nome":"Teatro João Caetano","distancia":1217},{"nome":"Teatro Municipal","distancia":724},{"nome":"Teatro Rival Petrobras","distancia":523}]},{"linha":"350","descricao_ponto":"Rua Prefeito Olimpio De Melo próximo ao 1531","sequencia":"49","latitude":"-22.8927","longitude":"-43.2373","pontos_turisticos":[{"nome":"Centro Luiz Gonzaga de Tradições Nordestinas","distancia":1896},{"nome":"Jardim Zoológico (Riozoo)","distancia":1564},{"nome":"Quinta da Boa Vista/Museu Nacional","distancia":1904},{"nome":"Teatro Mário Lago","distancia":1832},{"nome":"Teatro Odylo Costa Filho","distancia":1999}]},{"linha":"350","descricao_ponto":"Rua Santo Cristo próximo ao 193","sequencia":"60","latitude":"-22.9","longitude":"-43.2023","pontos_turisticos":[{"nome":"Campo de Santana","distancia":1611},{"nome":"Centro Luiz Gonzaga de Tradições Nordestinas","distancia":1781},{"nome":"Cidade do Samba","distancia":830},{"nome":"Memorial dos Pretos Novos","distancia":1052},{"nome":"Sambódromo","distancia":1393},{"nome":"Teatro Mário Lago","distancia":1903}]},{"linha":"350","descricao_ponto":"Avenida Venezuela próximo ao 189","sequencia":"66","latitude":"-22.8952","longitude":"-43.188","pontos_turisticos":[{"nome":"Campo de Santana","distancia":1276},{"nome":"Casa França Brasil","distancia":1359},{"nome":"Catedral Metropolitana","distancia":1897},{"nome":"Centro Cultural Banco do Brasil","distancia":1321},{"nome":"Centro Cultural dos Correios","distancia":1418},{"nome":"Cidade do Samba","distancia":928},{"nome":"Confeitaria Colombo","distancia":1462},{"nome":"Espaço Cultural da Marinha","distancia":1535},{"nome":"Igreja de São Francisco da Penitência","distancia":1580},{"nome":"Igreja Nossa Senhora da Candelária","distancia":1226},{"nome":"Igreja Nossa Senhora do Carmo da Antiga Sé","distancia":1582},{"nome":"Memorial dos Pretos Novos","distancia":517},{"nome":"Mosteiro de São Bento","distancia":1050},{"nome":"Museu de Arte do Rio","distancia":651},{"nome":"Museu do Clube Naval","distancia":1856},{"nome":"Museu Nacional de Belas Artes","distancia":1951},{"nome":"Paço Imperial","distancia":1685},{"nome":"Palácio Tiradentes","distancia":1724},{"nome":"Real Gabinete Português de Leitura","distancia":1288},{"nome":"Teatro Carlos Gomes","distancia":1450},{"nome":"Teatro Glauce Rocha","distancia":1770},{"nome":"Teatro João Caetano","distancia":1375},{"nome":"Teatro Municipal","distancia":1976}]},{"linha":"350","descricao_ponto":"Avenida Brasil próximo ao 10500","sequencia":"22","latitude":"-22.8368","longitude":"-43.2578","pontos_turisticos":[{"nome":"Praia de Ramos","distancia":789}]},{"linha":"350","descricao_ponto":"Rua Julio Ribeiro próximo ao 127","sequencia":"34","latitude":"-22.8632","longitude":"-43.2529","pontos_turisticos":[]},{"linha":"350","descricao_ponto":"Rua Barreiros próximo ao 1366","sequencia":"44","latitude":"-22.8462","longitude":"-43.2606","pontos_turisticos":[{"nome":"Igreja Nossa Senhora da Penha","distancia":1768},{"nome":"Praia de Ramos","distancia":1337}]},{"linha":"350","descricao_ponto":"Rua Leopoldo Bulhoes próximo ao","sequencia":"42","latitude":"-22.8699","longitude":"-43.2543","pontos_turisticos":[]},{"linha":"350","descricao_ponto":"Rua Leopoldo Bulhoes próximo ao 353","sequencia":"44","latitude":"-22.8821","longitude":"-43.2498","pontos_turisticos":[]},{"linha":"350","descricao_ponto":"Avenida Rio De Janeiro próximo ao S/n","sequencia":"17","latitude":"-22.8944","longitude":"-43.2135","pontos_turisticos":[{"nome":"Centro Luiz Gonzaga de Tradições Nordestinas","distancia":656},{"nome":"Cidade do Samba","distancia":1689},{"nome":"Jardim Zoológico (Riozoo)","distancia":1923},{"nome":"Quinta da Boa Vista/Museu Nacional","distancia":1693},{"nome":"Teatro Mário Lago","distancia":922}]},{"linha":"350","descricao_ponto":"Avenida Rio De Janeiro próximo ao","sequencia":"18","latitude":"-22.8909","longitude":"-43.2152","pontos_turisticos":[{"nome":"Centro Luiz Gonzaga de Tradições Nordestinas","distancia":782},{"nome":"Cidade do Samba","distancia":1902},{"nome":"Quinta da Boa Vista/Museu Nacional","distancia":1897},{"nome":"Teatro Mário Lago","distancia":1088}]},{"linha":"350","descricao_ponto":"Avenida Monsenhor Felix próximo ao 945","sequencia":"5","latitude":"-22.8372","longitude":"-43.325","pontos_turisticos":[]},{"linha":"350","descricao_ponto":"Estrada Padre Roser próximo ao 213","sequencia":"11","latitude":"-22.8416","longitude":"-43.3185","pontos_turisticos":[]},{"linha":"350","descricao_ponto":"Avenida Braz De Pina próximo ao 929","sequencia":"19","latitude":"-22.8401","longitude":"-43.2999","pontos_turisticos":[]},{"linha":"350","descricao_ponto":"Avenida Braz De Pina próximo ao 785","sequencia":"20","latitude":"-22.8395","longitude":"-43.2971","pontos_turisticos":[]},{"linha":"350","descricao_ponto":"Rua Senador Bernardo Monteiro próximo ao 123","sequencia":"48","latitude":"-22.894","longitude":"-43.2398","pontos_turisticos":[{"nome":"Jardim Zoológico (Riozoo)","distancia":1613},{"nome":"Quinta da Boa Vista/Museu Nacional","distancia":1988},{"nome":"Teatro Noel Rosa","distancia":1874},{"nome":"Teatro Odylo Costa Filho","distancia":1905}]},{"linha":"350","descricao_ponto":"Avenida Brasil próximo ao 6892","sequencia":"18","latitude":"-22.8519","longitude":"-43.2474","pontos_turisticos":[{"nome":"Praia de Ramos","distancia":1498}]},{"linha":"350","descricao_ponto":"Avenida Dom Helder Camara próximo ao 2400","sequencia":"26","latitude":"-22.8907","longitude":"-43.242","pontos_turisticos":[]},{"linha":"350","descricao_ponto":"Rua Leopoldo Bulhoes próximo ao 1480","sequencia":"30","latitude":"-22.879","longitude":"-43.2508","pontos_turisticos":[]},{"linha":"350","descricao_ponto":"Avenida Teixeira De Castro próximo ao 24","sequencia":"36","latitude":"-22.862","longitude":"-43.2539","pontos_turisticos":[]},{"linha":"350","descricao_ponto":"BRS 4B,5 - SETE DE SETEMBRO","sequencia":"5","latitude":"-22.9047","longitude":"-43.1778","pontos_turisticos":[{"nome":"Academia Brasileira de Letras","distancia":846},{"nome":"Arcos da Lapa","distancia":933},{"nome":"Biblioteca Nacional","distancia":604},{"nome":"Campo de Santana","distancia":1101},{"nome":"Casa França Brasil","distancia":514},{"nome":"Catedral Metropolitana","distancia":750},{"nome":"Centro Cultural Banco do Brasil","distancia":474},{"nome":"Centro Cultural dos Correios","distancia":429},{"nome":"Confeitaria Colombo","distancia":120},{"nome":"Espaço Cultural da Marinha","distancia":529},{"nome":"Igreja de São Francisco da Penitência","distancia":287},{"nome":"Igreja e Convento de Santa Teresa","distancia":1245},{"nome":"Igreja Nossa Senhora da Candelária","distancia":441},{"nome":"Igreja Nossa Senhora da Glória do Outeiro","distancia":1866},{"nome":"Igreja Nossa Senhora do Carmo da Antiga Sé","distancia":306},{"nome":"Ilha Fiscal","distancia":1476},{"nome":"Memorial dos Pretos Novos","distancia":1825},{"nome":"Monumento aos Pracinhas","distancia":1366},{"nome":"Mosteiro de São Bento","distancia":884},{"nome":"Museu de Arte do Rio","distancia":1030},{"nome":"Museu da Chácara do Céu","distancia":1549},{"nome":"Museu de Arte Moderna","distancia":1118},{"nome":"Museu do Clube Naval","distancia":406},{"nome":"Museu Histórico Nacional","distancia":861},{"nome":"Museu Nacional de Belas Artes","distancia":499},{"nome":"Paço Imperial","distancia":384},{"nome":"Palácio Tiradentes","distancia":372},{"nome":"Parque das Ruínas","distancia":1508},{"nome":"Praça Paris","distancia":1407},{"nome":"Real Gabinete Português de Leitura","distancia":456},{"nome":"Sala Cecília Meireles","distancia":1074},{"nome":"Teatro Carlos Gomes","distancia":559},{"nome":"Teatro Dulcina","distancia":671},{"nome":"Teatro Glauce Rocha","distancia":306},{"nome":"Teatro João Caetano","distancia":497},{"nome":"Teatro Municipal","distancia":541},{"nome":"Teatro Rival Petrobras","distancia":739}]},{"linha":"350","descricao_ponto":"Rua Conde De Agrolongo próximo ao 405","sequencia":"31","latitude":"-22.8314","longitude":"-43.2756","pontos_turisticos":[{"nome":"Igreja Nossa Senhora da Penha","distancia":1580}]},{"linha":"350","descricao_ponto":"Estrada Padre Roser próximo ao 1131","sequencia":"8","latitude":"-22.8437","longitude":"-43.3227","pontos_turisticos":[]},{"linha":"350","descricao_ponto":"Avenida Braz De Pina próximo ao 811","sequencia":"22","latitude":"-22.8377","longitude":"-43.2892","pontos_turisticos":[{"nome":"Igreja Nossa Senhora da Penha","distancia":1449}]},{"linha":"350","descricao_ponto":"Rua Leopoldina Rego próximo ao 896","sequencia":"28","latitude":"-22.8411","longitude":"-43.2743","pontos_turisticos":[{"nome":"Igreja Nossa Senhora da Penha","distancia":605}]},{"linha":"350","descricao_ponto":"Avenida Brasil próximo ao 5900","sequencia":"15","latitude":"-22.861","longitude":"-43.2476","pontos_turisticos":[]},{"linha":"350","descricao_ponto":"Avenida Brasil próximo ao 7022","sequencia":"17","latitude":"-22.8536","longitude":"-43.2474","pontos_turisticos":[{"nome":"Praia de Ramos","distancia":1683}]},{"linha":"350","descricao_ponto":"Avenida Teixeira De Castro próximo ao 122","sequencia":"37","latitude":"-22.8602","longitude":"-43.2538","pontos_turisticos":[]},{"linha":"350","descricao_ponto":"Rua Cacequi próximo ao 310","sequencia":"63","latitude":"-22.8385","longitude":"-43.2978","pontos_turisticos":[]},{"linha":"350","descricao_ponto":"Avenida Augusto Severo s/n","sequencia":"9","latitude":"-22.9191","longitude":"-43.1769","pontos_turisticos":[{"nome":"Academia Brasileira de Letras","distancia":999},{"nome":"Arcos da Lapa","distancia":758},{"nome":"Aterro do Flamengo","distancia":1217},{"nome":"Biblioteca Nacional","distancia":1045},{"nome":"Campo de Santana","distancia":1812},{"nome":"Catedral Metropolitana","distancia":994},{"nome":"Centro Cultural dos Correios","distancia":1983},{"nome":"Confeitaria Colombo","distancia":1552},{"nome":"Igreja de São Francisco da Penitência","distancia":1377},{"nome":"Igreja e Convento de Santa Teresa","distancia":518},{"nome":"Igreja Nossa Senhora da Glória do Outeiro","distancia":295},{"nome":"Igreja Nossa Senhora do Carmo da Antiga Sé","distancia":1771},{"nome":"Monumento aos Pracinhas","distancia":411},{"nome":"Museu da Chácara do Céu","distancia":766},{"nome":"Museu da República","distancia":754},{"nome":"Museu de Arte Moderna","distancia":699},{"nome":"Museu de Folclore Edison Carneiro","distancia":775},{"nome":"Museu do Clube Naval","distancia":1214},{"nome":"Museu Histórico Nacional","distancia":1689},{"nome":"Museu Nacional de Belas Artes","distancia":1137},{"nome":"Oi Futuro","distancia":1213},{"nome":"Paço Imperial","distancia":1751},{"nome":"Palácio Tiradentes","distancia":1689},{"nome":"Parque das Ruínas","distancia":595},{"nome":"Parque Eduardo Guinle","distancia":1483},{"nome":"Praça Paris","distancia":236},{"nome":"Praia do Flamengo","distancia":1283},{"nome":"Real Gabinete Português de Leitura","distancia":1609},{"nome":"Sala Cecília Meireles","distancia":546},{"nome":"Teatro Carlos Gomes","distancia":1441},{"nome":"Teatro Dulcina","distancia":934},{"nome":"Teatro Glauce Rocha","distancia":1316},{"nome":"Teatro Glória","distancia":609},{"nome":"Teatro João Caetano","distancia":1517},{"nome":"Teatro Municipal","distancia":1081},{"nome":"Teatro Rival Petrobras","distancia":882}]},{"linha":"350","descricao_ponto":"Rua Marq De Aracati próximo ao 89","sequencia":"6","latitude":"-22.8444","longitude":"-43.3252","pontos_turisticos":[]},{"linha":"350","descricao_ponto":"Avenida Brasil próximo ao 8701","sequencia":"32","latitude":"-22.83","longitude":"-43.271","pontos_turisticos":[{"nome":"Igreja Nossa Senhora da Penha","distancia":1856}]},{"linha":"350","descricao_ponto":"Avenida Brasil próximo ao 1455","sequencia":"55","latitude":"-22.8871","longitude":"-43.2246","pontos_turisticos":[{"nome":"Centro Luiz Gonzaga de Tradições Nordestinas","distancia":1207},{"nome":"Jardim Zoológico (Riozoo)","distancia":1971},{"nome":"Teatro Mário Lago","distancia":1397}]},{"linha":"350","descricao_ponto":"Rua Marq De Aracati próximo ao 7440","sequencia":"6","latitude":"-22.8459","longitude":"-43.3247","pontos_turisticos":[]},{"linha":"350","descricao_ponto":"Estrada Padre Roser próximo ao 1485","sequencia":"12","latitude":"-22.8409","longitude":"-43.3154","pontos_turisticos":[]},{"linha":"350","descricao_ponto":"Avenida Braz De Pina próximo ao 1047","sequencia":"16","latitude":"-22.8408","longitude":"-43.3035","pontos_turisticos":[]},{"linha":"350","descricao_ponto":"Rua Irapua próximo ao 13","sequencia":"31","latitude":"-22.8362","longitude":"-43.2887","pontos_turisticos":[{"nome":"Igreja Nossa Senhora da Penha","distancia":1516}]},{"linha":"350","descricao_ponto":"Avenida Monsenhor Felix próximo ao 887","sequencia":"75","latitude":"-22.8382","longitude":"-43.3244","pontos_turisticos":[]},{"linha":"350","descricao_ponto":"Avenida Brasil próximo ao 1211","sequencia":"56","latitude":"-22.8893","longitude":"-43.2204","pontos_turisticos":[{"nome":"Centro Luiz Gonzaga de Tradições Nordestinas","distancia":842},{"nome":"Jardim Zoológico (Riozoo)","distancia":1887},{"nome":"Quinta da Boa Vista/Museu Nacional","distancia":1853},{"nome":"Teatro Mário Lago","distancia":1099}]},{"linha":"350","descricao_ponto":"Avenida Brasil próximo ao 10590","sequencia":"24","latitude":"-22.833","longitude":"-43.2648","pontos_turisticos":[{"nome":"Igreja Nossa Senhora da Penha","distancia":1924},{"nome":"Praia de Ramos","distancia":1608}]},{"linha":"350","descricao_ponto":"Rua Prefeito Olimpio De Melo proximo ao 825","sequencia":"52","latitude":"-22.8883","longitude":"-43.2319","pontos_turisticos":[{"nome":"Centro Luiz Gonzaga de Tradições Nordestinas","distancia":1597},{"nome":"Jardim Zoológico (Riozoo)","distancia":1817},{"nome":"Teatro Mário Lago","distancia":1656}]},{"linha":"350","descricao_ponto":"Avenida Braz De Pina próximo ao 1496","sequencia":"43","latitude":"-22.8397","longitude":"-43.3106","pontos_turisticos":[]},{"linha":"350","descricao_ponto":"Rua Jose Borges próximo ao 401","sequencia":"52","latitude":"-22.834","longitude":"-43.3272","pontos_turisticos":[]},{"linha":"350","descricao_ponto":"Rua Prefeito Olimpio De Melo próximo ao 1255","sequencia":"51","latitude":"-22.8905","longitude":"-43.2346","pontos_turisticos":[{"nome":"Centro Luiz Gonzaga de Tradições Nordestinas","distancia":1713},{"nome":"Jardim Zoológico (Riozoo)","distancia":1654},{"nome":"Quinta da Boa Vista/Museu Nacional","distancia":1937},{"nome":"Teatro Mário Lago","distancia":1707}]},{"linha":"350","descricao_ponto":"Rua Quito próximo ao 226","sequencia":"53","latitude":"-22.8377","longitude":"-43.2764","pontos_turisticos":[{"nome":"Igreja Nossa Senhora da Penha","distancia":875}]},{"linha":"350","descricao_ponto":"Avenida Augusto Severo s/n","sequencia":"39","latitude":"-22.9191","longitude":"-43.1769","pontos_turisticos":[{"nome":"Academia Brasileira de Letras","distancia":999},{"nome":"Arcos da Lapa","distancia":758},{"nome":"Aterro do Flamengo","distancia":1217},{"nome":"Biblioteca Nacional","distancia":1045},{"nome":"Campo de Santana","distancia":1812},{"nome":"Catedral Metropolitana","distancia":994},{"nome":"Centro Cultural dos Correios","distancia":1983},{"nome":"Confeitaria Colombo","distancia":1552},{"nome":"Igreja de São Francisco da Penitência","distancia":1377},{"nome":"Igreja e Convento de Santa Teresa","distancia":518},{"nome":"Igreja Nossa Senhora da Glória do Outeiro","distancia":295},{"nome":"Igreja Nossa Senhora do Carmo da Antiga Sé","distancia":1771},{"nome":"Monumento aos Pracinhas","distancia":411},{"nome":"Museu da Chácara do Céu","distancia":766},{"nome":"Museu da República","distancia":754},{"nome":"Museu de Arte Moderna","distancia":699},{"nome":"Museu de Folclore Edison Carneiro","distancia":775},{"nome":"Museu do Clube Naval","distancia":1214},{"nome":"Museu Histórico Nacional","distancia":1689},{"nome":"Museu Nacional de Belas Artes","distancia":1137},{"nome":"Oi Futuro","distancia":1213},{"nome":"Paço Imperial","distancia":1751},{"nome":"Palácio Tiradentes","distancia":1689},{"nome":"Parque das Ruínas","distancia":595},{"nome":"Parque Eduardo Guinle","distancia":1483},{"nome":"Praça Paris","distancia":236},{"nome":"Praia do Flamengo","distancia":1283},{"nome":"Real Gabinete Português de Leitura","distancia":1609},{"nome":"Sala Cecília Meireles","distancia":546},{"nome":"Teatro Carlos Gomes","distancia":1441},{"nome":"Teatro Dulcina","distancia":934},{"nome":"Teatro Glauce Rocha","distancia":1316},{"nome":"Teatro Glória","distancia":609},{"nome":"Teatro João Caetano","distancia":1517},{"nome":"Teatro Municipal","distancia":1081},{"nome":"Teatro Rival Petrobras","distancia":882}]},{"linha":"350","descricao_ponto":"Rua Leopoldo Bulhoes próximo ao 2131","sequencia":"41","latitude":"-22.8686","longitude":"-43.2548","pontos_turisticos":[]},{"linha":"350","descricao_ponto":"Rua Prefeito Olimpio De Melo próximo ao 1435","sequencia":"50","latitude":"-22.8916","longitude":"-43.236","pontos_turisticos":[{"nome":"Centro Luiz Gonzaga de Tradições Nordestinas","distancia":1802},{"nome":"Jardim Zoológico (Riozoo)","distancia":1601},{"nome":"Quinta da Boa Vista/Museu Nacional","distancia":1914},{"nome":"Teatro Mário Lago","distancia":1765}]},{"linha":"350","descricao_ponto":"Avenida Braz De Pina próximo ao 1153","sequencia":"17","latitude":"-22.8406","longitude":"-43.3023","pontos_turisticos":[]},{"linha":"350","descricao_ponto":"Rua Leopoldina Rego próximo ao 542","sequencia":"30","latitude":"-22.8423","longitude":"-43.2693","pontos_turisticos":[{"nome":"Igreja Nossa Senhora da Penha","distancia":943},{"nome":"Praia de Ramos","distancia":1979}]},{"linha":"350","descricao_ponto":"Avenida Monsenhor Felix próximo ao 380","sequencia":"2","latitude":"-22.8323","longitude":"-43.3285","pontos_turisticos":[]},{"linha":"350","descricao_ponto":"Rua Cacequi próximo ao 460","sequencia":"38","latitude":"-22.8385","longitude":"-43.2993","pontos_turisticos":[]},{"linha":"350","descricao_ponto":"Avenida Monsenhor Felix próximo ao 980","sequencia":"50","latitude":"-22.8367","longitude":"-43.3254","pontos_turisticos":[]},{"linha":"350","descricao_ponto":"Avenida Brasil próximo ao 49","sequencia":"19","latitude":"-22.8886","longitude":"-43.2201","pontos_turisticos":[{"nome":"Centro Luiz Gonzaga de Tradições Nordestinas","distancia":916},{"nome":"Jardim Zoológico (Riozoo)","distancia":1970},{"nome":"Quinta da Boa Vista/Museu Nacional","distancia":1936},{"nome":"Teatro Mário Lago","distancia":1179}]},{"linha":"350","descricao_ponto":"Rua Quito próximo ao 12","sequencia":"51","latitude":"-22.8406","longitude":"-43.2711","pontos_turisticos":[{"nome":"Igreja Nossa Senhora da Penha","distancia":876}]},{"linha":"350","descricao_ponto":"Rua Delfina Enes próximo ao 37","sequencia":"25","latitude":"-22.8362","longitude":"-43.2808","pontos_turisticos":[{"nome":"Igreja Nossa Senhora da Penha","distancia":1073}]},{"linha":"350","descricao_ponto":"Avenida Braz De Pina próximo ao 785","sequencia":"19","latitude":"-22.8395","longitude":"-43.2971","pontos_turisticos":[]},{"linha":"350","descricao_ponto":"Avenida Braz De Pina próximo ao 1496","sequencia":"42","latitude":"-22.8401","longitude":"-43.3082","pontos_turisticos":[]},{"linha":"350","descricao_ponto":"Rua Barreiros próximo ao 451","sequencia":"41","latitude":"-22.8523","longitude":"-43.2546","pontos_turisticos":[{"nome":"Praia de Ramos","distancia":1571}]},{"linha":"350","descricao_ponto":"Avenida Braz De Pina próximo ao 929","sequencia":"18","latitude":"-22.8401","longitude":"-43.2999","pontos_turisticos":[]},{"linha":"350","descricao_ponto":"Rua Cardoso De Morais próximo ao 193","sequencia":"37","latitude":"-22.8593","longitude":"-43.2563","pontos_turisticos":[]},{"linha":"350","descricao_ponto":"Avenida Monsenhor Felix próximo ao 1351","sequencia":"53","latitude":"-22.8323","longitude":"-43.3284","pontos_turisticos":[]},{"linha":"350","descricao_ponto":"Avenida Professor Plinio Bastos próximo ao 460","sequencia":"49","latitude":"-22.8407","longitude":"-43.2673","pontos_turisticos":[{"nome":"Igreja Nossa Senhora da Penha","distancia":1202},{"nome":"Praia de Ramos","distancia":1747}]},{"linha":"350","descricao_ponto":"Rua Irapua próximo ao 140","sequencia":"59","latitude":"-22.8367","longitude":"-43.2914","pontos_turisticos":[{"nome":"Igreja Nossa Senhora da Penha","distancia":1697}]},{"linha":"350","descricao_ponto":"Rua Jose Borges próximo ao 174","sequencia":"4","latitude":"-22.8356","longitude":"-43.3261","pontos_turisticos":[]},{"linha":"350","descricao_ponto":"Rua Delfina Enes próximo ao","sequencia":"24","latitude":"-22.8354","longitude":"-43.2816","pontos_turisticos":[{"nome":"Igreja Nossa Senhora da Penha","distancia":1183}]},{"linha":"350","descricao_ponto":"Avenida Dom Helder Camara próximo ao 89","sequencia":"46","latitude":"-22.8906","longitude":"-43.2424","pontos_turisticos":[]},{"linha":"350","descricao_ponto":"Avenida Brasil próximo ao","sequencia":"53","latitude":"-22.8857","longitude":"-43.2286","pontos_turisticos":[{"nome":"Centro Luiz Gonzaga de Tradições Nordestinas","distancia":1557},{"nome":"Teatro Mário Lago","distancia":1696}]},{"linha":"350","descricao_ponto":"Avenida Brasil próximo ao 1940","sequencia":"54","latitude":"-22.8853","longitude":"-43.2265","pontos_turisticos":[{"nome":"Centro Luiz Gonzaga de Tradições Nordestinas","distancia":1475},{"nome":"Teatro Mário Lago","distancia":1648}]},{"linha":"350","descricao_ponto":"Rua Frizia próximo ao 254","sequencia":"66","latitude":"-22.8398","longitude":"-43.3044","pontos_turisticos":[]}]