[{"linha":"369","descricao_ponto":"Avenida Brasil próximo ao 23090","sequencia":"20","latitude":"-22.8425","longitude":"-43.3736","pontos_turisticos":[]},{"linha":"369","descricao_ponto":"Avenida Brasil próximo ao 30801","sequencia":"37","latitude":"-22.8618","longitude":"-43.4464","pontos_turisticos":[]},{"linha":"369","descricao_ponto":"Rua Da Chita próximo ao 41","sequencia":"2","latitude":"-22.8745","longitude":"-43.4637","pontos_turisticos":[]},{"linha":"369","descricao_ponto":"Avenida Brasil próximo ao 29672","sequencia":"35","latitude":"-22.8629","longitude":"-43.4403","pontos_turisticos":[]},{"linha":"369","descricao_ponto":"Avenida Brasil próximo ao 31425","sequencia":"11","latitude":"-22.8599","longitude":"-43.4576","pontos_turisticos":[]},{"linha":"369","descricao_ponto":"Avenida Brasil próximo ao 28783","sequencia":"19","latitude":"-22.8659","longitude":"-43.4257","pontos_turisticos":[]},{"linha":"369","descricao_ponto":"Avenida Brasil próximo ao 21887","sequencia":"31","latitude":"-22.8415","longitude":"-43.3713","pontos_turisticos":[]},{"linha":"369","descricao_ponto":"BRS 2 - OUVIDOR","sequencia":"49","latitude":"-22.9035","longitude":"-43.1783","pontos_turisticos":[{"nome":"Academia Brasileira de Letras","distancia":985},{"nome":"Arcos da Lapa","distancia":1055},{"nome":"Biblioteca Nacional","distancia":747},{"nome":"Campo de Santana","distancia":1086},{"nome":"Casa França Brasil","distancia":419},{"nome":"Catedral Metropolitana","distancia":858},{"nome":"Centro Cultural Banco do Brasil","distancia":370},{"nome":"Centro Cultural dos Correios","distancia":352},{"nome":"Confeitaria Colombo","distancia":201},{"nome":"Espaço Cultural da Marinha","distancia":477},{"nome":"Igreja de São Francisco da Penitência","distancia":391},{"nome":"Igreja e Convento de Santa Teresa","distancia":1367},{"nome":"Igreja Nossa Senhora da Candelária","distancia":315},{"nome":"Igreja Nossa Senhora do Carmo da Antiga Sé","distancia":312},{"nome":"Ilha Fiscal","distancia":1446},{"nome":"Memorial dos Pretos Novos","distancia":1714},{"nome":"Monumento aos Pracinhas","distancia":1509},{"nome":"Mosteiro de São Bento","distancia":752},{"nome":"Museu de Arte do Rio","distancia":887},{"nome":"Museu da Chácara do Céu","distancia":1651},{"nome":"Museu de Arte Moderna","distancia":1260},{"nome":"Museu do Clube Naval","distancia":548},{"nome":"Museu Histórico Nacional","distancia":935},{"nome":"Museu Nacional de Belas Artes","distancia":641},{"nome":"Paço Imperial","distancia":413},{"nome":"Palácio Tiradentes","distancia":423},{"nome":"Parque das Ruínas","distancia":1620},{"nome":"Praça Paris","distancia":1547},{"nome":"Real Gabinete Português de Leitura","distancia":453},{"nome":"Sala Cecília Meireles","distancia":1206},{"nome":"Teatro Carlos Gomes","distancia":598},{"nome":"Teatro Dulcina","distancia":811},{"nome":"Teatro Glauce Rocha","distancia":449},{"nome":"Teatro João Caetano","distancia":520},{"nome":"Teatro Municipal","distancia":684},{"nome":"Teatro Rival Petrobras","distancia":881}]},{"linha":"369","descricao_ponto":"Avenida Francisco Bicalho próximo ao 337","sequencia":"42","latitude":"-22.9003","longitude":"-43.2106","pontos_turisticos":[{"nome":"Centro Luiz Gonzaga de Tradições Nordestinas","distancia":976},{"nome":"Cidade do Samba","distancia":1541},{"nome":"Jardim Zoológico (Riozoo)","distancia":1921},{"nome":"Memorial dos Pretos Novos","distancia":1867},{"nome":"Quinta da Boa Vista/Museu Nacional","distancia":1571},{"nome":"Sambódromo","distancia":1879},{"nome":"Teatro Mário Lago","distancia":1058}]},{"linha":"369","descricao_ponto":"Rua Pedro Lessa próximo ao 21","sequencia":"3","latitude":"-22.9082","longitude":"-43.1825","pontos_turisticos":[{"nome":"Academia Brasileira de Letras","distancia":1020},{"nome":"Arcos da Lapa","distancia":583},{"nome":"Biblioteca Nacional","distancia":719},{"nome":"Campo de Santana","distancia":621},{"nome":"Casa França Brasil","distancia":1095},{"nome":"Catedral Metropolitana","distancia":350},{"nome":"Centro Cultural Banco do Brasil","distancia":1043},{"nome":"Centro Cultural dos Correios","distancia":1027},{"nome":"Confeitaria Colombo","distancia":501},{"nome":"Espaço Cultural da Marinha","distancia":1143},{"nome":"Igreja de São Francisco da Penitência","distancia":362},{"nome":"Igreja e Convento de Santa Teresa","distancia":859},{"nome":"Igreja Nossa Senhora da Candelária","distancia":968},{"nome":"Igreja Nossa Senhora da Glória do Outeiro","distancia":1634},{"nome":"Igreja Nossa Senhora do Carmo da Antiga Sé","distancia":924},{"nome":"Memorial dos Pretos Novos","distancia":1722},{"nome":"Monumento aos Pracinhas","distancia":1264},{"nome":"Mosteiro de São Bento","distancia":1358},{"nome":"Museu de Arte do Rio","distancia":1340},{"nome":"Museu da Chácara do Céu","distancia":1031},{"nome":"Museu de Arte Moderna","distancia":1138},{"nome":"Museu do Clube Naval","distancia":603},{"nome":"Museu Histórico Nacional","distancia":1369},{"nome":"Museu Nacional de Belas Artes","distancia":661},{"nome":"Paço Imperial","distancia":990},{"nome":"Palácio Tiradentes","distancia":962},{"nome":"Parque das Ruínas","distancia":1041},{"nome":"Praça Paris","distancia":1214},{"nome":"Real Gabinete Português de Leitura","distancia":306},{"nome":"Sala Cecília Meireles","distancia":811},{"nome":"Sambódromo","distancia":1513},{"nome":"Teatro Carlos Gomes","distancia":109},{"nome":"Teatro Dulcina","distancia":623},{"nome":"Teatro Glauce Rocha","distancia":600},{"nome":"Teatro Glória","distancia":1925},{"nome":"Teatro João Caetano","distancia":202},{"nome":"Teatro Municipal","distancia":640},{"nome":"Teatro Rival Petrobras","distancia":720}]},{"linha":"369","descricao_ponto":"Avenida Brasil próximo ao 29689","sequencia":"14","latitude":"-22.862","longitude":"-43.446","pontos_turisticos":[]},{"linha":"369","descricao_ponto":"Avenida Brasil próximo ao 23800","sequencia":"23","latitude":"-22.8457","longitude":"-43.3788","pontos_turisticos":[]},{"linha":"369","descricao_ponto":"Avenida Brasil próximo ao 24276","sequencia":"26","latitude":"-22.8522","longitude":"-43.3903","pontos_turisticos":[]},{"linha":"369","descricao_ponto":"Avenida Brasil próximo ao 28350","sequencia":"27","latitude":"-22.8532","longitude":"-43.3942","pontos_turisticos":[]},{"linha":"369","descricao_ponto":"Rua Falcao Padilha próximo ao 187","sequencia":"47","latitude":"-22.8714","longitude":"-43.4624","pontos_turisticos":[]},{"linha":"369","descricao_ponto":"BRS 3A, 5 - PRAÇA ONZE","sequencia":"7","latitude":"-22.9076","longitude":"-43.1997","pontos_turisticos":[{"nome":"Campo de Santana","distancia":1169},{"nome":"Catedral Metropolitana","distancia":1977},{"nome":"Cidade do Samba","distancia":1500},{"nome":"Memorial dos Pretos Novos","distancia":1456},{"nome":"Museu da Chácara do Céu","distancia":1928},{"nome":"Real Gabinete Português de Leitura","distancia":1811},{"nome":"Sambódromo","distancia":521},{"nome":"Teatro Carlos Gomes","distancia":1760},{"nome":"Teatro João Caetano","distancia":1788}]},{"linha":"369","descricao_ponto":"Rua Falcao Padilha próximo ao 21","sequencia":"48","latitude":"-22.8732","longitude":"-43.4624","pontos_turisticos":[]},{"linha":"369","descricao_ponto":"Avenida Brasil próximo ao 29627","sequencia":"16","latitude":"-22.8635","longitude":"-43.4379","pontos_turisticos":[]},{"linha":"369","descricao_ponto":"Avenida Brasil próximo ao 2373","sequencia":"28","latitude":"-22.8458","longitude":"-43.3784","pontos_turisticos":[]},{"linha":"369","descricao_ponto":"Avenida Brasil próximo ao 22935","sequencia":"29","latitude":"-22.8447","longitude":"-43.3766","pontos_turisticos":[]},{"linha":"369","descricao_ponto":"Rua Da Chita próximo ao 209","sequencia":"46","latitude":"-22.8707","longitude":"-43.4638","pontos_turisticos":[]},{"linha":"369","descricao_ponto":"Avenida Ministro Ary Franco próximo ao 273","sequencia":"4","latitude":"-22.8729","longitude":"-43.4649","pontos_turisticos":[]},{"linha":"369","descricao_ponto":"Avenida Brasil próximo ao 23390","sequencia":"22","latitude":"-22.8444","longitude":"-43.3766","pontos_turisticos":[]},{"linha":"369","descricao_ponto":"Avenida Brasil próximo ao 25039","sequencia":"22","latitude":"-22.8574","longitude":"-43.4022","pontos_turisticos":[]},{"linha":"369","descricao_ponto":"Avenida Brasil próximo ao 21484","sequencia":"14","latitude":"-22.8323","longitude":"-43.3546","pontos_turisticos":[]},{"linha":"369","descricao_ponto":"Avenida Brasil próximo ao 23500","sequencia":"24","latitude":"-22.8476","longitude":"-43.3818","pontos_turisticos":[]},{"linha":"369","descricao_ponto":"Avenida Brasil próximo ao 28960","sequencia":"36","latitude":"-22.8621","longitude":"-43.4445","pontos_turisticos":[]},{"linha":"369","descricao_ponto":"Avenida Doutra Maria Estrela próximo ao 5799","sequencia":"43","latitude":"-22.8629","longitude":"-43.466","pontos_turisticos":[]},{"linha":"369","descricao_ponto":"Avenida Brasil próximo ao 19001","sequencia":"39","latitude":"-22.8281","longitude":"-43.3429","pontos_turisticos":[]},{"linha":"369","descricao_ponto":"Praca Da Republica próximo ao111","sequencia":"5","latitude":"-22.9079","longitude":"-43.1898","pontos_turisticos":[{"nome":"Academia Brasileira de Letras","distancia":1755},{"nome":"Arcos da Lapa","distancia":1154},{"nome":"Biblioteca Nacional","distancia":1460},{"nome":"Campo de Santana","distancia":203},{"nome":"Casa França Brasil","distancia":1643},{"nome":"Catedral Metropolitana","distancia":987},{"nome":"Centro Cultural Banco do Brasil","distancia":1584},{"nome":"Centro Cultural dos Correios","distancia":1608},{"nome":"Cidade do Samba","distancia":1679},{"nome":"Confeitaria Colombo","distancia":1164},{"nome":"Espaço Cultural da Marinha","distancia":1746},{"nome":"Igreja de São Francisco da Penitência","distancia":1085},{"nome":"Igreja e Convento de Santa Teresa","distancia":1300},{"nome":"Igreja Nossa Senhora da Candelária","distancia":1478},{"nome":"Igreja Nossa Senhora do Carmo da Antiga Sé","distancia":1576},{"nome":"Memorial dos Pretos Novos","distancia":1355},{"nome":"Monumento aos Pracinhas","distancia":1875},{"nome":"Mosteiro de São Bento","distancia":1740},{"nome":"Museu de Arte do Rio","distancia":1543},{"nome":"Museu da Chácara do Céu","distancia":1200},{"nome":"Museu de Arte Moderna","distancia":1822},{"nome":"Museu do Clube Naval","distancia":1351},{"nome":"Museu Nacional de Belas Artes","distancia":1408},{"nome":"Paço Imperial","distancia":1663},{"nome":"Palácio Tiradentes","distancia":1650},{"nome":"Parque das Ruínas","distancia":1311},{"nome":"Praça Paris","distancia":1767},{"nome":"Real Gabinete Português de Leitura","distancia":827},{"nome":"Sala Cecília Meireles","distancia":1385},{"nome":"Sambódromo","distancia":823},{"nome":"Teatro Carlos Gomes","distancia":750},{"nome":"Teatro Dulcina","distancia":1342},{"nome":"Teatro Glauce Rocha","distancia":1341},{"nome":"Teatro João Caetano","distancia":787},{"nome":"Teatro Municipal","distancia":1384},{"nome":"Teatro Rival Petrobras","distancia":1434}]},{"linha":"369","descricao_ponto":"Avenida Brasil próximo ao 29010","sequencia":"34","latitude":"-22.8634","longitude":"-43.4373","pontos_turisticos":[]},{"linha":"369","descricao_ponto":"Avenida Brasil próximo ao 17719","sequencia":"40","latitude":"-22.8272","longitude":"-43.3401","pontos_turisticos":[]},{"linha":"369","descricao_ponto":"BRS 5 - PRAÇA DA REPÚBLICA","sequencia":"4","latitude":"-22.9089","longitude":"-43.1884","pontos_turisticos":[{"nome":"Academia Brasileira de Letras","distancia":1596},{"nome":"Arcos da Lapa","distancia":975},{"nome":"Biblioteca Nacional","distancia":1306},{"nome":"Campo de Santana","distancia":248},{"nome":"Casa França Brasil","distancia":1585},{"nome":"Catedral Metropolitana","distancia":816},{"nome":"Centro Cultural Banco do Brasil","distancia":1527},{"nome":"Centro Cultural dos Correios","distancia":1540},{"nome":"Cidade do Samba","distancia":1844},{"nome":"Confeitaria Colombo","distancia":1064},{"nome":"Espaço Cultural da Marinha","distancia":1673},{"nome":"Igreja de São Francisco da Penitência","distancia":962},{"nome":"Igreja e Convento de Santa Teresa","distancia":1119},{"nome":"Igreja Nossa Senhora da Candelária","distancia":1428},{"nome":"Igreja Nossa Senhora da Glória do Outeiro","distancia":1923},{"nome":"Igreja Nossa Senhora do Carmo da Antiga Sé","distancia":1485},{"nome":"Memorial dos Pretos Novos","distancia":1501},{"nome":"Monumento aos Pracinhas","distancia":1695},{"nome":"Mosteiro de São Bento","distancia":1728},{"nome":"Museu de Arte do Rio","distancia":1571},{"nome":"Museu da Chácara do Céu","distancia":1036},{"nome":"Museu de Arte Moderna","distancia":1649},{"nome":"Museu do Clube Naval","distancia":1210},{"nome":"Museu Histórico Nacional","distancia":1977},{"nome":"Museu Nacional de Belas Artes","distancia":1260},{"nome":"Paço Imperial","distancia":1566},{"nome":"Palácio Tiradentes","distancia":1546},{"nome":"Parque das Ruínas","distancia":1139},{"nome":"Praça Paris","distancia":1585},{"nome":"Real Gabinete Português de Leitura","distancia":744},{"nome":"Sala Cecília Meireles","distancia":1205},{"nome":"Sambódromo","distancia":910},{"nome":"Teatro Carlos Gomes","distancia":631},{"nome":"Teatro Dulcina","distancia":1179},{"nome":"Teatro Glauce Rocha","distancia":1209},{"nome":"Teatro João Caetano","distancia":685},{"nome":"Teatro Municipal","distancia":1232},{"nome":"Teatro Rival Petrobras","distancia":1269}]},{"linha":"369","descricao_ponto":"Avenida Brasil próximo ao 21315","sequencia":"32","latitude":"-22.8395","longitude":"-43.3681","pontos_turisticos":[]},{"linha":"369","descricao_ponto":"Avenida Brasil próximo ao 20001","sequencia":"36","latitude":"-22.8325","longitude":"-43.3547","pontos_turisticos":[]},{"linha":"369","descricao_ponto":"Avenida Brasil próximo ao 19405","sequencia":"37","latitude":"-22.83","longitude":"-43.3479","pontos_turisticos":[]},{"linha":"369","descricao_ponto":"Avenida Brasil próximo ao 19850","sequencia":"12","latitude":"-22.8295","longitude":"-43.3471","pontos_turisticos":[]},{"linha":"369","descricao_ponto":"Avenida Brasil próximo ao 29003","sequencia":"32","latitude":"-22.8642","longitude":"-43.4332","pontos_turisticos":[]},{"linha":"369","descricao_ponto":"Estrada Agua Branca próximo ao 861","sequencia":"44","latitude":"-22.8647","longitude":"-43.4661","pontos_turisticos":[]},{"linha":"369","descricao_ponto":"Avenida Brasil próximo ao 29503","sequencia":"18","latitude":"-22.8643","longitude":"-43.4329","pontos_turisticos":[]},{"linha":"369","descricao_ponto":"Avenida Brasil próximo ao 27101","sequencia":"20","latitude":"-22.8656","longitude":"-43.4225","pontos_turisticos":[]},{"linha":"369","descricao_ponto":"AV. BRASIL (PISTA CENTRAL), PRÓXIMO A RUA SANTOS LIMA","sequencia":"41","latitude":"-22.8948","longitude":"-43.2153","pontos_turisticos":[{"nome":"Centro Luiz Gonzaga de Tradições Nordestinas","distancia":470},{"nome":"Cidade do Samba","distancia":1874},{"nome":"Jardim Zoológico (Riozoo)","distancia":1748},{"nome":"Quinta da Boa Vista/Museu Nacional","distancia":1537},{"nome":"Teatro Mário Lago","distancia":749}]},{"linha":"369","descricao_ponto":"Rua Sul America próximo ao 273","sequencia":"3","latitude":"-22.8734","longitude":"-43.4648","pontos_turisticos":[]},{"linha":"369","descricao_ponto":"BRS 4, 5 - PRAÇA ONZE","sequencia":"45","latitude":"-22.9086","longitude":"-43.2013","pontos_turisticos":[{"nome":"Campo de Santana","distancia":1345},{"nome":"Cidade do Samba","distancia":1645},{"nome":"Memorial dos Pretos Novos","distancia":1634},{"nome":"Real Gabinete Português de Leitura","distancia":1990},{"nome":"Sambódromo","distancia":557},{"nome":"Teatro Carlos Gomes","distancia":1930},{"nome":"Teatro João Caetano","distancia":1963}]},{"linha":"369","descricao_ponto":"Avenida Brasil próximo ao 32400","sequencia":"39","latitude":"-22.8597","longitude":"-43.4578","pontos_turisticos":[]},{"linha":"369","descricao_ponto":"Avenida Brasil próximo ao 3367","sequencia":"27","latitude":"-22.8471","longitude":"-43.3804","pontos_turisticos":[]},{"linha":"369","descricao_ponto":"Avenida Ministro Ary Franco próximo ao 1174","sequencia":"7","latitude":"-22.8644","longitude":"-43.4651","pontos_turisticos":[]},{"linha":"369","descricao_ponto":"Avenida Brasil próximo ao 31425","sequencia":"12","latitude":"-22.8607","longitude":"-43.4529","pontos_turisticos":[]},{"linha":"369","descricao_ponto":"Avenida Brasil próximo ao 26785","sequencia":"21","latitude":"-22.8618","longitude":"-43.4109","pontos_turisticos":[]},{"linha":"369","descricao_ponto":"Avenida Brasil próximo ao 22253","sequencia":"30","latitude":"-22.843","longitude":"-43.3738","pontos_turisticos":[]},{"linha":"369","descricao_ponto":"Rua Taiacu próximo ao 20204","sequencia":"13","latitude":"-22.8309","longitude":"-43.3508","pontos_turisticos":[]},{"linha":"369","descricao_ponto":"Avenida Brasil próximo ao 21918","sequencia":"18","latitude":"-22.8393","longitude":"-43.3683","pontos_turisticos":[]},{"linha":"369","descricao_ponto":"Avenida Brasil próximo ao 460","sequencia":"19","latitude":"-22.8415","longitude":"-43.3718","pontos_turisticos":[]},{"linha":"369","descricao_ponto":"Avenida Brasil próximo ao 20971","sequencia":"33","latitude":"-22.8368","longitude":"-43.3637","pontos_turisticos":[]},{"linha":"369","descricao_ponto":"Avenida Brasil próximo ao 27101","sequencia":"29","latitude":"-22.8637","longitude":"-43.416","pontos_turisticos":[]},{"linha":"369","descricao_ponto":"Avenida Brasil próximo ao 31034","sequencia":"38","latitude":"-22.8613","longitude":"-43.4489","pontos_turisticos":[]},{"linha":"369","descricao_ponto":"Avenida Brasil próximo ao","sequencia":"38","latitude":"-22.8294","longitude":"-43.3465","pontos_turisticos":[]},{"linha":"369","descricao_ponto":"Terminal Jamil Amiden (AV. Chile) - Ponto A4","sequencia":"50","latitude":"-22.9089","longitude":"-43.1795","pontos_turisticos":[{"nome":"Academia Brasileira de Letras","distancia":704},{"nome":"Arcos da Lapa","distancia":443},{"nome":"Biblioteca Nacional","distancia":402},{"nome":"Campo de Santana","distancia":938},{"nome":"Casa França Brasil","distancia":1012},{"nome":"Catedral Metropolitana","distancia":254},{"nome":"Centro Cultural Banco do Brasil","distancia":972},{"nome":"Centro Cultural dos Correios","distancia":925},{"nome":"Confeitaria Colombo","distancia":412},{"nome":"Espaço Cultural da Marinha","distancia":1012},{"nome":"Igreja de São Francisco da Penitência","distancia":223},{"nome":"Igreja e Convento de Santa Teresa","distancia":756},{"nome":"Igreja Nossa Senhora da Candelária","distancia":928},{"nome":"Igreja Nossa Senhora da Glória do Outeiro","distancia":1446},{"nome":"Igreja Nossa Senhora do Carmo da Antiga Sé","distancia":764},{"nome":"Ilha Fiscal","distancia":1910},{"nome":"Memorial dos Pretos Novos","distancia":1984},{"nome":"Monumento aos Pracinhas","distancia":1012},{"nome":"Mosteiro de São Bento","distancia":1361},{"nome":"Museu de Arte do Rio","distancia":1433},{"nome":"Museu da Chácara do Céu","distancia":1052},{"nome":"Museu da República","distancia":1912},{"nome":"Museu de Arte Moderna","distancia":845},{"nome":"Museu de Folclore Edison Carneiro","distancia":1934},{"nome":"Museu do Clube Naval","distancia":306},{"nome":"Museu Histórico Nacional","distancia":1095},{"nome":"Museu Nacional de Belas Artes","distancia":349},{"nome":"Paço Imperial","distancia":801},{"nome":"Palácio Tiradentes","distancia":759},{"nome":"Parque das Ruínas","distancia":1010},{"nome":"Praça Paris","distancia":999},{"nome":"Real Gabinete Português de Leitura","distancia":470},{"nome":"Sala Cecília Meireles","distancia":620},{"nome":"Sambódromo","distancia":1799},{"nome":"Teatro Carlos Gomes","distancia":361},{"nome":"Teatro Dulcina","distancia":320},{"nome":"Teatro Glauce Rocha","distancia":337},{"nome":"Teatro Glória","distancia":1713},{"nome":"Teatro João Caetano","distancia":399},{"nome":"Teatro Municipal","distancia":323},{"nome":"Teatro Rival Petrobras","distancia":418}]},{"linha":"369","descricao_ponto":"Avenida Francisco Bicalho próximo ao 10 (Pista Central)","sequencia":"9","latitude":"-22.9072","longitude":"-43.2094","pontos_turisticos":[{"nome":"Centro Luiz Gonzaga de Tradições Nordestinas","distancia":1540},{"nome":"Cidade do Samba","distancia":1912},{"nome":"Quinta da Boa Vista/Museu Nacional","distancia":1598},{"nome":"Sambódromo","distancia":1371},{"nome":"Teatro Mário Lago","distancia":1474}]},{"linha":"369","descricao_ponto":"Avenida Brasil próximo ao 32045","sequencia":"10","latitude":"-22.8593","longitude":"-43.461","pontos_turisticos":[]},{"linha":"369","descricao_ponto":"Terminal Jamil Amiden (AV. Chile) - Ponto A4","sequencia":"1","latitude":"-22.9089","longitude":"-43.1795","pontos_turisticos":[{"nome":"Academia Brasileira de Letras","distancia":704},{"nome":"Arcos da Lapa","distancia":443},{"nome":"Biblioteca Nacional","distancia":402},{"nome":"Campo de Santana","distancia":938},{"nome":"Casa França Brasil","distancia":1012},{"nome":"Catedral Metropolitana","distancia":254},{"nome":"Centro Cultural Banco do Brasil","distancia":972},{"nome":"Centro Cultural dos Correios","distancia":925},{"nome":"Confeitaria Colombo","distancia":412},{"nome":"Espaço Cultural da Marinha","distancia":1012},{"nome":"Igreja de São Francisco da Penitência","distancia":223},{"nome":"Igreja e Convento de Santa Teresa","distancia":756},{"nome":"Igreja Nossa Senhora da Candelária","distancia":928},{"nome":"Igreja Nossa Senhora da Glória do Outeiro","distancia":1446},{"nome":"Igreja Nossa Senhora do Carmo da Antiga Sé","distancia":764},{"nome":"Ilha Fiscal","distancia":1910},{"nome":"Memorial dos Pretos Novos","distancia":1984},{"nome":"Monumento aos Pracinhas","distancia":1012},{"nome":"Mosteiro de São Bento","distancia":1361},{"nome":"Museu de Arte do Rio","distancia":1433},{"nome":"Museu da Chácara do Céu","distancia":1052},{"nome":"Museu da República","distancia":1912},{"nome":"Museu de Arte Moderna","distancia":845},{"nome":"Museu de Folclore Edison Carneiro","distancia":1934},{"nome":"Museu do Clube Naval","distancia":306},{"nome":"Museu Histórico Nacional","distancia":1095},{"nome":"Museu Nacional de Belas Artes","distancia":349},{"nome":"Paço Imperial","distancia":801},{"nome":"Palácio Tiradentes","distancia":759},{"nome":"Parque das Ruínas","distancia":1010},{"nome":"Praça Paris","distancia":999},{"nome":"Real Gabinete Português de Leitura","distancia":470},{"nome":"Sala Cecília Meireles","distancia":620},{"nome":"Sambódromo","distancia":1799},{"nome":"Teatro Carlos Gomes","distancia":361},{"nome":"Teatro Dulcina","distancia":320},{"nome":"Teatro Glauce Rocha","distancia":337},{"nome":"Teatro Glória","distancia":1713},{"nome":"Teatro João Caetano","distancia":399},{"nome":"Teatro Municipal","distancia":323},{"nome":"Teatro Rival Petrobras","distancia":418}]},{"linha":"369","descricao_ponto":"Avenida Francisco Bicalho, próximo a Unidos da Tijuca","sequencia":"10","latitude":"-22.9038","longitude":"-43.2096","pontos_turisticos":[{"nome":"Centro Luiz Gonzaga de Tradições Nordestinas","distancia":1265},{"nome":"Cidade do Samba","distancia":1664},{"nome":"Jardim Zoológico (Riozoo)","distancia":1970},{"nome":"Memorial dos Pretos Novos","distancia":1909},{"nome":"Quinta da Boa Vista/Museu Nacional","distancia":1576},{"nome":"Sambódromo","distancia":1561},{"nome":"Teatro Mário Lago","distancia":1263}]},{"linha":"369","descricao_ponto":"BRS 1, 3, 5 - CENTRAL","sequencia":"6","latitude":"-22.9055","longitude":"-43.193","pontos_turisticos":[{"nome":"Arcos da Lapa","distancia":1571},{"nome":"Biblioteca Nacional","distancia":1836},{"nome":"Campo de Santana","distancia":495},{"nome":"Casa França Brasil","distancia":1833},{"nome":"Catedral Metropolitana","distancia":1392},{"nome":"Centro Cultural Banco do Brasil","distancia":1774},{"nome":"Centro Cultural dos Correios","distancia":1819},{"nome":"Cidade do Samba","distancia":1308},{"nome":"Confeitaria Colombo","distancia":1454},{"nome":"Espaço Cultural da Marinha","distancia":1963},{"nome":"Igreja de São Francisco da Penitência","distancia":1416},{"nome":"Igreja e Convento de Santa Teresa","distancia":1722},{"nome":"Igreja Nossa Senhora da Candelária","distancia":1660},{"nome":"Igreja Nossa Senhora do Carmo da Antiga Sé","distancia":1834},{"nome":"Memorial dos Pretos Novos","distancia":1048},{"nome":"Mosteiro de São Bento","distancia":1829},{"nome":"Museu de Arte do Rio","distancia":1551},{"nome":"Museu da Chácara do Céu","distancia":1600},{"nome":"Museu do Clube Naval","distancia":1704},{"nome":"Museu Nacional de Belas Artes","distancia":1772},{"nome":"Paço Imperial","distancia":1931},{"nome":"Palácio Tiradentes","distancia":1929},{"nome":"Parque das Ruínas","distancia":1721},{"nome":"Real Gabinete Português de Leitura","distancia":1109},{"nome":"Sala Cecília Meireles","distancia":1804},{"nome":"Sambódromo","distancia":771},{"nome":"Teatro Carlos Gomes","distancia":1090},{"nome":"Teatro Dulcina","distancia":1732},{"nome":"Teatro Glauce Rocha","distancia":1678},{"nome":"Teatro João Caetano","distancia":1102},{"nome":"Teatro Municipal","distancia":1756},{"nome":"Teatro Rival Petrobras","distancia":1827}]},{"linha":"369","descricao_ponto":"Avenida Ministro Ary Franco próximo ao 495","sequencia":"5","latitude":"-22.8704","longitude":"-43.465","pontos_turisticos":[]},{"linha":"369","descricao_ponto":"Avenida Doutra Maria Estrela próximo ao 202","sequencia":"9","latitude":"-22.8596","longitude":"-43.4652","pontos_turisticos":[]},{"linha":"369","descricao_ponto":"Avenida Brasil próximo ao","sequencia":"11","latitude":"-22.8264","longitude":"-43.339","pontos_turisticos":[]},{"linha":"369","descricao_ponto":"Avenida Brasil próximo ao 28820","sequencia":"31","latitude":"-22.8651","longitude":"-43.4272","pontos_turisticos":[]},{"linha":"369","descricao_ponto":"Rua Coronel Tamarindo próximo ao 1164","sequencia":"1","latitude":"-22.8751","longitude":"-43.4628","pontos_turisticos":[]},{"linha":"369","descricao_ponto":"BRS 5,I - CENTRAL","sequencia":"46","latitude":"-22.9061","longitude":"-43.1941","pontos_turisticos":[{"nome":"Arcos da Lapa","distancia":1637},{"nome":"Biblioteca Nacional","distancia":1929},{"nome":"Campo de Santana","distancia":594},{"nome":"Casa França Brasil","distancia":1961},{"nome":"Catedral Metropolitana","distancia":1469},{"nome":"Centro Cultural Banco do Brasil","distancia":1902},{"nome":"Centro Cultural dos Correios","distancia":1945},{"nome":"Cidade do Samba","distancia":1342},{"nome":"Confeitaria Colombo","distancia":1570},{"nome":"Igreja de São Francisco da Penitência","distancia":1523},{"nome":"Igreja e Convento de Santa Teresa","distancia":1768},{"nome":"Igreja Nossa Senhora da Candelária","distancia":1788},{"nome":"Igreja Nossa Senhora do Carmo da Antiga Sé","distancia":1955},{"nome":"Memorial dos Pretos Novos","distancia":1121},{"nome":"Mosteiro de São Bento","distancia":1960},{"nome":"Museu de Arte do Rio","distancia":1680},{"nome":"Museu da Chácara do Céu","distancia":1614},{"nome":"Museu do Clube Naval","distancia":1806},{"nome":"Museu Nacional de Belas Artes","distancia":1870},{"nome":"Parque das Ruínas","distancia":1745},{"nome":"Real Gabinete Português de Leitura","distancia":1224},{"nome":"Sala Cecília Meireles","distancia":1866},{"nome":"Sambódromo","distancia":660},{"nome":"Teatro Carlos Gomes","distancia":1193},{"nome":"Teatro Dulcina","distancia":1819},{"nome":"Teatro Glauce Rocha","distancia":1784},{"nome":"Teatro João Caetano","distancia":1210},{"nome":"Teatro Municipal","distancia":1851},{"nome":"Teatro Rival Petrobras","distancia":1913}]},{"linha":"369","descricao_ponto":"Avenida Brasil próximo ao 29578","sequencia":"33","latitude":"-22.8638","longitude":"-43.4351","pontos_turisticos":[]},{"linha":"369","descricao_ponto":"Avenida Brasil próximo ao 29663","sequencia":"15","latitude":"-22.8629","longitude":"-43.4408","pontos_turisticos":[]},{"linha":"369","descricao_ponto":"Avenida Brasil próximo ao S/n","sequencia":"25","latitude":"-22.8503","longitude":"-43.3847","pontos_turisticos":[]},{"linha":"369","descricao_ponto":"Avenida Brasil próximo ao 22300","sequencia":"17","latitude":"-22.8378","longitude":"-43.3657","pontos_turisticos":[]},{"linha":"369","descricao_ponto":"Avenida Brasil próximo ao 23109","sequencia":"21","latitude":"-22.8439","longitude":"-43.3759","pontos_turisticos":[]},{"linha":"369","descricao_ponto":"Avenida Brasil próximo ao S/n","sequencia":"25","latitude":"-22.849","longitude":"-43.3835","pontos_turisticos":[]},{"linha":"369","descricao_ponto":"Avenida Brasil próximo ao 3099","sequencia":"13","latitude":"-22.8614","longitude":"-43.4491","pontos_turisticos":[]},{"linha":"369","descricao_ponto":"Avenida Ministro Ary Franco próximo ao 1174","sequencia":"45","latitude":"-22.8675","longitude":"-43.465","pontos_turisticos":[]},{"linha":"369","descricao_ponto":"Avenida Brasil próximo ao 24277","sequencia":"24","latitude":"-22.8525","longitude":"-43.3911","pontos_turisticos":[]},{"linha":"369","descricao_ponto":"Rua Do Senado próximo ao 71","sequencia":"2","latitude":"-22.9088","longitude":"-43.183","pontos_turisticos":[{"nome":"Academia Brasileira de Letras","distancia":1053},{"nome":"Arcos da Lapa","distancia":552},{"nome":"Biblioteca Nacional","distancia":757},{"nome":"Campo de Santana","distancia":596},{"nome":"Casa França Brasil","distancia":1179},{"nome":"Catedral Metropolitana","distancia":329},{"nome":"Centro Cultural Banco do Brasil","distancia":1127},{"nome":"Centro Cultural dos Correios","distancia":1111},{"nome":"Confeitaria Colombo","distancia":584},{"nome":"Espaço Cultural da Marinha","distancia":1226},{"nome":"Igreja de São Francisco da Penitência","distancia":437},{"nome":"Igreja e Convento de Santa Teresa","distancia":811},{"nome":"Igreja Nossa Senhora da Candelária","distancia":1051},{"nome":"Igreja Nossa Senhora da Glória do Outeiro","distancia":1599},{"nome":"Igreja Nossa Senhora do Carmo da Antiga Sé","distancia":1005},{"nome":"Memorial dos Pretos Novos","distancia":1745},{"nome":"Monumento aos Pracinhas","distancia":1254},{"nome":"Mosteiro de São Bento","distancia":1439},{"nome":"Museu de Arte do Rio","distancia":1410},{"nome":"Museu da Chácara do Céu","distancia":957},{"nome":"Museu de Arte Moderna","distancia":1148},{"nome":"Museu do Clube Naval","distancia":657},{"nome":"Museu Histórico Nacional","distancia":1435},{"nome":"Museu Nacional de Belas Artes","distancia":707},{"nome":"Paço Imperial","distancia":1069},{"nome":"Palácio Tiradentes","distancia":1039},{"nome":"Parque das Ruínas","distancia":976},{"nome":"Praça Paris","distancia":1190},{"nome":"Real Gabinete Português de Leitura","distancia":380},{"nome":"Sala Cecília Meireles","distancia":787},{"nome":"Sambódromo","distancia":1448},{"nome":"Teatro Carlos Gomes","distancia":182},{"nome":"Teatro Dulcina","distancia":644},{"nome":"Teatro Glauce Rocha","distancia":665},{"nome":"Teatro Glória","distancia":1896},{"nome":"Teatro João Caetano","distancia":278},{"nome":"Teatro Municipal","distancia":680},{"nome":"Teatro Rival Petrobras","distancia":740}]},{"linha":"369","descricao_ponto":"Avenida Brasil próximo ao S/n","sequencia":"16","latitude":"-22.8367","longitude":"-43.3639","pontos_turisticos":[]},{"linha":"369","descricao_ponto":"Avenida Brasil próximo ao 29579","sequencia":"17","latitude":"-22.8638","longitude":"-43.4358","pontos_turisticos":[]},{"linha":"369","descricao_ponto":"Avenida Brasil próximo ao 20971","sequencia":"34","latitude":"-22.834","longitude":"-43.3586","pontos_turisticos":[]},{"linha":"369","descricao_ponto":"Avenida Brasil próximo ao 20431","sequencia":"35","latitude":"-22.8331","longitude":"-43.3562","pontos_turisticos":[]},{"linha":"369","descricao_ponto":"Avenida Brasil próximo ao 23377","sequencia":"23","latitude":"-22.8535","longitude":"-43.3943","pontos_turisticos":[]},{"linha":"369","descricao_ponto":"BRS 1, 2, 3, 4, 5, I - CIDADE NOVA","sequencia":"44","latitude":"-22.9101","longitude":"-43.206","pontos_turisticos":[{"nome":"Campo de Santana","distancia":1849},{"nome":"Cidade do Samba","distancia":1980},{"nome":"Sambódromo","distancia":951},{"nome":"Teatro Mário Lago","distancia":1947}]},{"linha":"369","descricao_ponto":"BRS 5, I - PRAÇA DA REPÚBLICA","sequencia":"47","latitude":"-22.9044","longitude":"-43.1887","pontos_turisticos":[{"nome":"Academia Brasileira de Letras","distancia":1765},{"nome":"Arcos da Lapa","distancia":1303},{"nome":"Biblioteca Nacional","distancia":1460},{"nome":"Campo de Santana","distancia":255},{"nome":"Casa França Brasil","distancia":1376},{"nome":"Catedral Metropolitana","distancia":1090},{"nome":"Centro Cultural Banco do Brasil","distancia":1317},{"nome":"Centro Cultural dos Correios","distancia":1362},{"nome":"Cidade do Samba","distancia":1406},{"nome":"Confeitaria Colombo","distancia":1018},{"nome":"Espaço Cultural da Marinha","distancia":1506},{"nome":"Igreja de São Francisco da Penitência","distancia":1006},{"nome":"Igreja e Convento de Santa Teresa","distancia":1518},{"nome":"Igreja Nossa Senhora da Candelária","distancia":1204},{"nome":"Igreja Nossa Senhora do Carmo da Antiga Sé","distancia":1382},{"nome":"Memorial dos Pretos Novos","distancia":1024},{"nome":"Mosteiro de São Bento","distancia":1397},{"nome":"Museu de Arte do Rio","distancia":1160},{"nome":"Museu da Chácara do Céu","distancia":1513},{"nome":"Museu de Arte Moderna","distancia":1901},{"nome":"Museu do Clube Naval","distancia":1307},{"nome":"Museu Histórico Nacional","distancia":1977},{"nome":"Museu Nacional de Belas Artes","distancia":1385},{"nome":"Paço Imperial","distancia":1482},{"nome":"Palácio Tiradentes","distancia":1483},{"nome":"Parque das Ruínas","distancia":1597},{"nome":"Praça Paris","distancia":1942},{"nome":"Real Gabinete Português de Leitura","distancia":679},{"nome":"Sala Cecília Meireles","distancia":1540},{"nome":"Sambódromo","distancia":1146},{"nome":"Teatro Carlos Gomes","distancia":707},{"nome":"Teatro Dulcina","distancia":1383},{"nome":"Teatro Glauce Rocha","distancia":1267},{"nome":"Teatro João Caetano","distancia":693},{"nome":"Teatro Municipal","distancia":1378},{"nome":"Teatro Rival Petrobras","distancia":1481}]},{"linha":"369","descricao_ponto":"Avenida Brasil próximo ao 2870","sequencia":"30","latitude":"-22.8652","longitude":"-43.422","pontos_turisticos":[]},{"linha":"369","descricao_ponto":"Avenida Doutra Maria Estrela próximo ao 32207","sequencia":"8","latitude":"-22.8605","longitude":"-43.4653","pontos_turisticos":[]},{"linha":"369","descricao_ponto":"BRS 1, 2, 3 - CIDADE NOVA","sequencia":"8","latitude":"-22.9098","longitude":"-43.2064","pontos_turisticos":[{"nome":"Campo de Santana","distancia":1883},{"nome":"Centro Luiz Gonzaga de Tradições Nordestinas","distancia":1961},{"nome":"Cidade do Samba","distancia":1970},{"nome":"Quinta da Boa Vista/Museu Nacional","distancia":1954},{"nome":"Sambódromo","distancia":997},{"nome":"Teatro Mário Lago","distancia":1894}]},{"linha":"369","descricao_ponto":"Avenida Brasil próximo ao","sequencia":"28","latitude":"-22.8619","longitude":"-43.4114","pontos_turisticos":[]},{"linha":"369","descricao_ponto":"Alca Avenida Brasil próximo ao 99","sequencia":"26","latitude":"-22.8489","longitude":"-43.3831","pontos_turisticos":[]},{"linha":"369","descricao_ponto":"Avenida Francisco Bicalho próximo ao 344","sequencia":"43","latitude":"-22.9081","longitude":"-43.2099","pontos_turisticos":[{"nome":"Centro Luiz Gonzaga de Tradições Nordestinas","distancia":1585},{"nome":"Jardim Zoológico (Riozoo)","distancia":1981},{"nome":"Quinta da Boa Vista/Museu Nacional","distancia":1563},{"nome":"Sambódromo","distancia":1389},{"nome":"Teatro Mário Lago","distancia":1498}]},{"linha":"369","descricao_ponto":"Avenida Brasil próximo ao 32400","sequencia":"40","latitude":"-22.8583","longitude":"-43.4641","pontos_turisticos":[]},{"linha":"369","descricao_ponto":"Avenida Doutra Maria Estrela próximo ao 32451","sequencia":"41","latitude":"-22.86","longitude":"-43.4655","pontos_turisticos":[]},{"linha":"369","descricao_ponto":"Avenida Doutra Maria Estrela próximo ao 5799","sequencia":"42","latitude":"-22.8627","longitude":"-43.4659","pontos_turisticos":[]},{"linha":"369","descricao_ponto":"Avenida Ministro Ary Franco próximo ao 947","sequencia":"6","latitude":"-22.8665","longitude":"-43.465","pontos_turisticos":[]},{"linha":"369","descricao_ponto":"Nome do ponto nao identificado","sequencia":"48","latitude":"-22.9028","longitude":"-43.1831","pontos_turisticos":[{"nome":"Academia Brasileira de Letras","distancia":1372},{"nome":"Arcos da Lapa","distancia":1166},{"nome":"Biblioteca Nacional","distancia":1085},{"nome":"Campo de Santana","distancia":687},{"nome":"Casa França Brasil","distancia":776},{"nome":"Catedral Metropolitana","distancia":931},{"nome":"Centro Cultural Banco do Brasil","distancia":717},{"nome":"Centro Cultural dos Correios","distancia":762},{"nome":"Cidade do Samba","distancia":1708},{"nome":"Confeitaria Colombo","distancia":518},{"nome":"Espaço Cultural da Marinha","distancia":907},{"nome":"Igreja de São Francisco da Penitência","distancia":603},{"nome":"Igreja e Convento de Santa Teresa","distancia":1458},{"nome":"Igreja Nossa Senhora da Candelária","distancia":604},{"nome":"Igreja Nossa Senhora do Carmo da Antiga Sé","distancia":804},{"nome":"Ilha Fiscal","distancia":1858},{"nome":"Memorial dos Pretos Novos","distancia":1257},{"nome":"Monumento aos Pracinhas","distancia":1782},{"nome":"Mosteiro de São Bento","distancia":859},{"nome":"Museu de Arte do Rio","distancia":750},{"nome":"Museu da Chácara do Céu","distancia":1621},{"nome":"Museu de Arte Moderna","distancia":1590},{"nome":"Museu do Clube Naval","distancia":894},{"nome":"Museu Histórico Nacional","distancia":1432},{"nome":"Museu Nacional de Belas Artes","distancia":987},{"nome":"Paço Imperial","distancia":909},{"nome":"Palácio Tiradentes","distancia":920},{"nome":"Parque das Ruínas","distancia":1643},{"nome":"Praça Paris","distancia":1768},{"nome":"Real Gabinete Português de Leitura","distancia":311},{"nome":"Sala Cecília Meireles","distancia":1377},{"nome":"Sambódromo","distancia":1706},{"nome":"Teatro Carlos Gomes","distancia":495},{"nome":"Teatro Dulcina","distancia":1075},{"nome":"Teatro Glauce Rocha","distancia":820},{"nome":"Teatro João Caetano","distancia":408},{"nome":"Teatro Municipal","distancia":1005},{"nome":"Teatro Rival Petrobras","distancia":1167}]},{"linha":"369","descricao_ponto":"Avenida Brasil próximo ao S/n","sequencia":"15","latitude":"-22.8354","longitude":"-43.3618","pontos_turisticos":[]}]