[{"linha":"389","descricao_ponto":"Avenida Brasil próximo ao 5900","sequencia":"17","latitude":"-22.861","longitude":"-43.2476","pontos_turisticos":[]},{"linha":"389","descricao_ponto":"Avenida Brasil próximo ao","sequencia":"44","latitude":"-22.8264","longitude":"-43.339","pontos_turisticos":[]},{"linha":"389","descricao_ponto":"Avenida Ministro Ary Franco próximo ao 273","sequencia":"80","latitude":"-22.8729","longitude":"-43.4649","pontos_turisticos":[]},{"linha":"389","descricao_ponto":"BRS 2 - OUVIDOR","sequencia":"97","latitude":"-22.9035","longitude":"-43.1783","pontos_turisticos":[{"nome":"Academia Brasileira de Letras","distancia":985},{"nome":"Arcos da Lapa","distancia":1055},{"nome":"Biblioteca Nacional","distancia":747},{"nome":"Campo de Santana","distancia":1086},{"nome":"Casa França Brasil","distancia":419},{"nome":"Catedral Metropolitana","distancia":858},{"nome":"Centro Cultural Banco do Brasil","distancia":370},{"nome":"Centro Cultural dos Correios","distancia":352},{"nome":"Confeitaria Colombo","distancia":201},{"nome":"Espaço Cultural da Marinha","distancia":477},{"nome":"Igreja de São Francisco da Penitência","distancia":391},{"nome":"Igreja e Convento de Santa Teresa","distancia":1367},{"nome":"Igreja Nossa Senhora da Candelária","distancia":315},{"nome":"Igreja Nossa Senhora do Carmo da Antiga Sé","distancia":312},{"nome":"Ilha Fiscal","distancia":1446},{"nome":"Memorial dos Pretos Novos","distancia":1714},{"nome":"Monumento aos Pracinhas","distancia":1509},{"nome":"Mosteiro de São Bento","distancia":752},{"nome":"Museu de Arte do Rio","distancia":887},{"nome":"Museu da Chácara do Céu","distancia":1651},{"nome":"Museu de Arte Moderna","distancia":1260},{"nome":"Museu do Clube Naval","distancia":548},{"nome":"Museu Histórico Nacional","distancia":935},{"nome":"Museu Nacional de Belas Artes","distancia":641},{"nome":"Paço Imperial","distancia":413},{"nome":"Palácio Tiradentes","distancia":423},{"nome":"Parque das Ruínas","distancia":1620},{"nome":"Praça Paris","distancia":1547},{"nome":"Real Gabinete Português de Leitura","distancia":453},{"nome":"Sala Cecília Meireles","distancia":1206},{"nome":"Teatro Carlos Gomes","distancia":598},{"nome":"Teatro Dulcina","distancia":811},{"nome":"Teatro Glauce Rocha","distancia":449},{"nome":"Teatro João Caetano","distancia":520},{"nome":"Teatro Municipal","distancia":684},{"nome":"Teatro Rival Petrobras","distancia":881}]},{"linha":"389","descricao_ponto":"Avenida Brasil próximo ao 21887","sequencia":"44","latitude":"-22.8415","longitude":"-43.3713","pontos_turisticos":[]},{"linha":"389","descricao_ponto":"BRS 2 - OUVIDOR","sequencia":"62","latitude":"-22.9035","longitude":"-43.1783","pontos_turisticos":[{"nome":"Academia Brasileira de Letras","distancia":985},{"nome":"Arcos da Lapa","distancia":1055},{"nome":"Biblioteca Nacional","distancia":747},{"nome":"Campo de Santana","distancia":1086},{"nome":"Casa França Brasil","distancia":419},{"nome":"Catedral Metropolitana","distancia":858},{"nome":"Centro Cultural Banco do Brasil","distancia":370},{"nome":"Centro Cultural dos Correios","distancia":352},{"nome":"Confeitaria Colombo","distancia":201},{"nome":"Espaço Cultural da Marinha","distancia":477},{"nome":"Igreja de São Francisco da Penitência","distancia":391},{"nome":"Igreja e Convento de Santa Teresa","distancia":1367},{"nome":"Igreja Nossa Senhora da Candelária","distancia":315},{"nome":"Igreja Nossa Senhora do Carmo da Antiga Sé","distancia":312},{"nome":"Ilha Fiscal","distancia":1446},{"nome":"Memorial dos Pretos Novos","distancia":1714},{"nome":"Monumento aos Pracinhas","distancia":1509},{"nome":"Mosteiro de São Bento","distancia":752},{"nome":"Museu de Arte do Rio","distancia":887},{"nome":"Museu da Chácara do Céu","distancia":1651},{"nome":"Museu de Arte Moderna","distancia":1260},{"nome":"Museu do Clube Naval","distancia":548},{"nome":"Museu Histórico Nacional","distancia":935},{"nome":"Museu Nacional de Belas Artes","distancia":641},{"nome":"Paço Imperial","distancia":413},{"nome":"Palácio Tiradentes","distancia":423},{"nome":"Parque das Ruínas","distancia":1620},{"nome":"Praça Paris","distancia":1547},{"nome":"Real Gabinete Português de Leitura","distancia":453},{"nome":"Sala Cecília Meireles","distancia":1206},{"nome":"Teatro Carlos Gomes","distancia":598},{"nome":"Teatro Dulcina","distancia":811},{"nome":"Teatro Glauce Rocha","distancia":449},{"nome":"Teatro João Caetano","distancia":520},{"nome":"Teatro Municipal","distancia":684},{"nome":"Teatro Rival Petrobras","distancia":881}]},{"linha":"389","descricao_ponto":"Avenida Brasil próximo ao 23800","sequencia":"19","latitude":"-22.8457","longitude":"-43.3788","pontos_turisticos":[]},{"linha":"389","descricao_ponto":"Avenida Brasil próximo ao 13768","sequencia":"32","latitude":"-22.8144","longitude":"-43.2933","pontos_turisticos":[]},{"linha":"389","descricao_ponto":"Estrada Do Taquaral próximo ao 1407","sequencia":"4","latitude":"-22.8711","longitude":"-43.4851","pontos_turisticos":[{"nome":"Parque Municipal Fazenda do Viegas","distancia":1585}]},{"linha":"389","descricao_ponto":"BRS 5,I - CENTRAL","sequencia":"94","latitude":"-22.9061","longitude":"-43.1941","pontos_turisticos":[{"nome":"Arcos da Lapa","distancia":1637},{"nome":"Biblioteca Nacional","distancia":1929},{"nome":"Campo de Santana","distancia":594},{"nome":"Casa França Brasil","distancia":1961},{"nome":"Catedral Metropolitana","distancia":1469},{"nome":"Centro Cultural Banco do Brasil","distancia":1902},{"nome":"Centro Cultural dos Correios","distancia":1945},{"nome":"Cidade do Samba","distancia":1342},{"nome":"Confeitaria Colombo","distancia":1570},{"nome":"Igreja de São Francisco da Penitência","distancia":1523},{"nome":"Igreja e Convento de Santa Teresa","distancia":1768},{"nome":"Igreja Nossa Senhora da Candelária","distancia":1788},{"nome":"Igreja Nossa Senhora do Carmo da Antiga Sé","distancia":1955},{"nome":"Memorial dos Pretos Novos","distancia":1121},{"nome":"Mosteiro de São Bento","distancia":1960},{"nome":"Museu de Arte do Rio","distancia":1680},{"nome":"Museu da Chácara do Céu","distancia":1614},{"nome":"Museu do Clube Naval","distancia":1806},{"nome":"Museu Nacional de Belas Artes","distancia":1870},{"nome":"Parque das Ruínas","distancia":1745},{"nome":"Real Gabinete Português de Leitura","distancia":1224},{"nome":"Sala Cecília Meireles","distancia":1866},{"nome":"Sambódromo","distancia":660},{"nome":"Teatro Carlos Gomes","distancia":1193},{"nome":"Teatro Dulcina","distancia":1819},{"nome":"Teatro Glauce Rocha","distancia":1784},{"nome":"Teatro João Caetano","distancia":1210},{"nome":"Teatro Municipal","distancia":1851},{"nome":"Teatro Rival Petrobras","distancia":1913}]},{"linha":"389","descricao_ponto":"Avenida Brasil próximo ao 22935","sequencia":"42","latitude":"-22.8447","longitude":"-43.3766","pontos_turisticos":[]},{"linha":"389","descricao_ponto":"BRS 4, 5 - PRAÇA ONZE","sequencia":"58","latitude":"-22.9086","longitude":"-43.2013","pontos_turisticos":[{"nome":"Campo de Santana","distancia":1345},{"nome":"Cidade do Samba","distancia":1645},{"nome":"Memorial dos Pretos Novos","distancia":1634},{"nome":"Real Gabinete Português de Leitura","distancia":1990},{"nome":"Sambódromo","distancia":557},{"nome":"Teatro Carlos Gomes","distancia":1930},{"nome":"Teatro João Caetano","distancia":1963}]},{"linha":"389","descricao_ponto":"Avenida Brasil próximo ao 29672","sequencia":"31","latitude":"-22.8629","longitude":"-43.4403","pontos_turisticos":[]},{"linha":"389","descricao_ponto":"Estrada Do Taquaral próximo ao 1104","sequencia":"60","latitude":"-22.8694","longitude":"-43.4828","pontos_turisticos":[{"nome":"Parque Municipal Fazenda do Viegas","distancia":1789}]},{"linha":"389","descricao_ponto":"Avenida Brasil próximo ao 28350","sequencia":"59","latitude":"-22.8532","longitude":"-43.3942","pontos_turisticos":[]},{"linha":"389","descricao_ponto":"Rua Doutor Augusto Figueiredo próximo ao 1127","sequencia":"88","latitude":"-22.8741","longitude":"-43.4811","pontos_turisticos":[{"nome":"Parque Municipal Fazenda do Viegas","distancia":1315}]},{"linha":"389","descricao_ponto":"Rua Ubatam próximo ao 327","sequencia":"93","latitude":"-22.8716","longitude":"-43.4883","pontos_turisticos":[{"nome":"Parque Municipal Fazenda do Viegas","distancia":1566}]},{"linha":"389","descricao_ponto":"Rua Doutor Augusto Figueiredo próximo ao 1905","sequencia":"9","latitude":"-22.8744","longitude":"-43.485","pontos_turisticos":[{"nome":"Parque Municipal Fazenda do Viegas","distancia":1218}]},{"linha":"389","descricao_ponto":"Avenida Brasil próximo ao 25039","sequencia":"35","latitude":"-22.8574","longitude":"-43.4022","pontos_turisticos":[]},{"linha":"389","descricao_ponto":"Nome do ponto nao identificado","sequencia":"61","latitude":"-22.9028","longitude":"-43.1831","pontos_turisticos":[{"nome":"Academia Brasileira de Letras","distancia":1372},{"nome":"Arcos da Lapa","distancia":1166},{"nome":"Biblioteca Nacional","distancia":1085},{"nome":"Campo de Santana","distancia":687},{"nome":"Casa França Brasil","distancia":776},{"nome":"Catedral Metropolitana","distancia":931},{"nome":"Centro Cultural Banco do Brasil","distancia":717},{"nome":"Centro Cultural dos Correios","distancia":762},{"nome":"Cidade do Samba","distancia":1708},{"nome":"Confeitaria Colombo","distancia":518},{"nome":"Espaço Cultural da Marinha","distancia":907},{"nome":"Igreja de São Francisco da Penitência","distancia":603},{"nome":"Igreja e Convento de Santa Teresa","distancia":1458},{"nome":"Igreja Nossa Senhora da Candelária","distancia":604},{"nome":"Igreja Nossa Senhora do Carmo da Antiga Sé","distancia":804},{"nome":"Ilha Fiscal","distancia":1858},{"nome":"Memorial dos Pretos Novos","distancia":1257},{"nome":"Monumento aos Pracinhas","distancia":1782},{"nome":"Mosteiro de São Bento","distancia":859},{"nome":"Museu de Arte do Rio","distancia":750},{"nome":"Museu da Chácara do Céu","distancia":1621},{"nome":"Museu de Arte Moderna","distancia":1590},{"nome":"Museu do Clube Naval","distancia":894},{"nome":"Museu Histórico Nacional","distancia":1432},{"nome":"Museu Nacional de Belas Artes","distancia":987},{"nome":"Paço Imperial","distancia":909},{"nome":"Palácio Tiradentes","distancia":920},{"nome":"Parque das Ruínas","distancia":1643},{"nome":"Praça Paris","distancia":1768},{"nome":"Real Gabinete Português de Leitura","distancia":311},{"nome":"Sala Cecília Meireles","distancia":1377},{"nome":"Sambódromo","distancia":1706},{"nome":"Teatro Carlos Gomes","distancia":495},{"nome":"Teatro Dulcina","distancia":1075},{"nome":"Teatro Glauce Rocha","distancia":820},{"nome":"Teatro João Caetano","distancia":408},{"nome":"Teatro Municipal","distancia":1005},{"nome":"Teatro Rival Petrobras","distancia":1167}]},{"linha":"389","descricao_ponto":"Rua Doutor Augusto Figueiredo próximo ao 715","sequencia":"51","latitude":"-22.8741","longitude":"-43.4785","pontos_turisticos":[{"nome":"Parque Municipal Fazenda do Viegas","distancia":1419}]},{"linha":"389","descricao_ponto":"Avenida Brasil próximo ao 14804","sequencia":"35","latitude":"-22.8177","longitude":"-43.3079","pontos_turisticos":[]},{"linha":"389","descricao_ponto":"Avenida Brasil próximo ao S/n","sequencia":"48","latitude":"-22.8354","longitude":"-43.3618","pontos_turisticos":[]},{"linha":"389","descricao_ponto":"Avenida Brasil próximo ao 32400","sequencia":"72","latitude":"-22.8583","longitude":"-43.4641","pontos_turisticos":[]},{"linha":"389","descricao_ponto":"Rua Sul America próximo ao 1982","sequencia":"81","latitude":"-22.8735","longitude":"-43.4653","pontos_turisticos":[]},{"linha":"389","descricao_ponto":"Avenida Brasil próximo ao 11875","sequencia":"64","latitude":"-22.8197","longitude":"-43.2841","pontos_turisticos":[]},{"linha":"389","descricao_ponto":"Avenida Brasil próximo ao 6869","sequencia":"76","latitude":"-22.853","longitude":"-43.2479","pontos_turisticos":[{"nome":"Praia de Ramos","distancia":1609}]},{"linha":"389","descricao_ponto":"Avenida Francisco Bicalho próximo ao 344","sequencia":"56","latitude":"-22.9081","longitude":"-43.2099","pontos_turisticos":[{"nome":"Centro Luiz Gonzaga de Tradições Nordestinas","distancia":1585},{"nome":"Jardim Zoológico (Riozoo)","distancia":1981},{"nome":"Quinta da Boa Vista/Museu Nacional","distancia":1563},{"nome":"Sambódromo","distancia":1389},{"nome":"Teatro Mário Lago","distancia":1498}]},{"linha":"389","descricao_ponto":"Avenida Brasil próximo ao 29010","sequencia":"30","latitude":"-22.8634","longitude":"-43.4373","pontos_turisticos":[]},{"linha":"389","descricao_ponto":"Avenida Brasil próximo ao 16000","sequencia":"36","latitude":"-22.8192","longitude":"-43.3106","pontos_turisticos":[]},{"linha":"389","descricao_ponto":"Avenida Brasil próximo ao S/n","sequencia":"57","latitude":"-22.849","longitude":"-43.3835","pontos_turisticos":[]},{"linha":"389","descricao_ponto":"Rua Coronel Tamarindo próximo ao 1809","sequencia":"17","latitude":"-22.8751","longitude":"-43.4657","pontos_turisticos":[]},{"linha":"389","descricao_ponto":"Avenida Brasil próximo ao 12211","sequencia":"62","latitude":"-22.8147","longitude":"-43.2938","pontos_turisticos":[]},{"linha":"389","descricao_ponto":"Avenida Brasil próximo ao 8191","sequencia":"72","latitude":"-22.8403","longitude":"-43.2537","pontos_turisticos":[{"nome":"Praia de Ramos","distancia":383}]},{"linha":"389","descricao_ponto":"BRS 1, 2, 3, 4, 5, I - CIDADE NOVA","sequencia":"92","latitude":"-22.9101","longitude":"-43.206","pontos_turisticos":[{"nome":"Campo de Santana","distancia":1849},{"nome":"Cidade do Samba","distancia":1980},{"nome":"Sambódromo","distancia":951},{"nome":"Teatro Mário Lago","distancia":1947}]},{"linha":"389","descricao_ponto":"Nome do ponto nao identificado","sequencia":"96","latitude":"-22.9028","longitude":"-43.1831","pontos_turisticos":[{"nome":"Academia Brasileira de Letras","distancia":1372},{"nome":"Arcos da Lapa","distancia":1166},{"nome":"Biblioteca Nacional","distancia":1085},{"nome":"Campo de Santana","distancia":687},{"nome":"Casa França Brasil","distancia":776},{"nome":"Catedral Metropolitana","distancia":931},{"nome":"Centro Cultural Banco do Brasil","distancia":717},{"nome":"Centro Cultural dos Correios","distancia":762},{"nome":"Cidade do Samba","distancia":1708},{"nome":"Confeitaria Colombo","distancia":518},{"nome":"Espaço Cultural da Marinha","distancia":907},{"nome":"Igreja de São Francisco da Penitência","distancia":603},{"nome":"Igreja e Convento de Santa Teresa","distancia":1458},{"nome":"Igreja Nossa Senhora da Candelária","distancia":604},{"nome":"Igreja Nossa Senhora do Carmo da Antiga Sé","distancia":804},{"nome":"Ilha Fiscal","distancia":1858},{"nome":"Memorial dos Pretos Novos","distancia":1257},{"nome":"Monumento aos Pracinhas","distancia":1782},{"nome":"Mosteiro de São Bento","distancia":859},{"nome":"Museu de Arte do Rio","distancia":750},{"nome":"Museu da Chácara do Céu","distancia":1621},{"nome":"Museu de Arte Moderna","distancia":1590},{"nome":"Museu do Clube Naval","distancia":894},{"nome":"Museu Histórico Nacional","distancia":1432},{"nome":"Museu Nacional de Belas Artes","distancia":987},{"nome":"Paço Imperial","distancia":909},{"nome":"Palácio Tiradentes","distancia":920},{"nome":"Parque das Ruínas","distancia":1643},{"nome":"Praça Paris","distancia":1768},{"nome":"Real Gabinete Português de Leitura","distancia":311},{"nome":"Sala Cecília Meireles","distancia":1377},{"nome":"Sambódromo","distancia":1706},{"nome":"Teatro Carlos Gomes","distancia":495},{"nome":"Teatro Dulcina","distancia":1075},{"nome":"Teatro Glauce Rocha","distancia":820},{"nome":"Teatro João Caetano","distancia":408},{"nome":"Teatro Municipal","distancia":1005},{"nome":"Teatro Rival Petrobras","distancia":1167}]},{"linha":"389","descricao_ponto":"Estrada Agua Branca próximo ao 4063","sequencia":"39","latitude":"-22.8623","longitude":"-43.4562","pontos_turisticos":[]},{"linha":"389","descricao_ponto":"Avenida Brasil próximo ao 5493","sequencia":"16","latitude":"-22.8648","longitude":"-43.2477","pontos_turisticos":[]},{"linha":"389","descricao_ponto":"Avenida Brasil próximo ao 16000","sequencia":"38","latitude":"-22.8196","longitude":"-43.3166","pontos_turisticos":[]},{"linha":"389","descricao_ponto":"Avenida Ministro Ary Franco próximo ao 495","sequencia":"79","latitude":"-22.8704","longitude":"-43.465","pontos_turisticos":[]},{"linha":"389","descricao_ponto":"Avenida Do Funcionario próximo ao 124","sequencia":"98","latitude":"-22.8703","longitude":"-43.4797","pontos_turisticos":[{"nome":"Parque Municipal Fazenda do Viegas","distancia":1761}]},{"linha":"389","descricao_ponto":"Estrada Agua Branca próximo ao 5795","sequencia":"25","latitude":"-22.8638","longitude":"-43.4501","pontos_turisticos":[]},{"linha":"389","descricao_ponto":"Avenida Brasil próximo ao 21315","sequencia":"45","latitude":"-22.8395","longitude":"-43.3681","pontos_turisticos":[]},{"linha":"389","descricao_ponto":"Avenida Francisco Bicalho próximo ao 337","sequencia":"55","latitude":"-22.9003","longitude":"-43.2106","pontos_turisticos":[{"nome":"Centro Luiz Gonzaga de Tradições Nordestinas","distancia":976},{"nome":"Cidade do Samba","distancia":1541},{"nome":"Jardim Zoológico (Riozoo)","distancia":1921},{"nome":"Memorial dos Pretos Novos","distancia":1867},{"nome":"Quinta da Boa Vista/Museu Nacional","distancia":1571},{"nome":"Sambódromo","distancia":1879},{"nome":"Teatro Mário Lago","distancia":1058}]},{"linha":"389","descricao_ponto":"Avenida Brasil próximo ao 4036","sequencia":"13","latitude":"-22.8813","longitude":"-43.2384","pontos_turisticos":[]},{"linha":"389","descricao_ponto":"Avenida Brasil próximo ao 21484","sequencia":"47","latitude":"-22.8323","longitude":"-43.3546","pontos_turisticos":[]},{"linha":"389","descricao_ponto":"Avenida Brasil próximo ao 29578","sequencia":"65","latitude":"-22.8638","longitude":"-43.4351","pontos_turisticos":[]},{"linha":"389","descricao_ponto":"Rua Carangola próximo ao 9","sequencia":"77","latitude":"-22.8664","longitude":"-43.4631","pontos_turisticos":[]},{"linha":"389","descricao_ponto":"Rua Doutor Augusto Figueiredo próximo ao 1472","sequencia":"11","latitude":"-22.8741","longitude":"-43.4799","pontos_turisticos":[{"nome":"Parque Municipal Fazenda do Viegas","distancia":1358}]},{"linha":"389","descricao_ponto":"Avenida Brasil próximo ao 20431","sequencia":"47","latitude":"-22.8331","longitude":"-43.3562","pontos_turisticos":[]},{"linha":"389","descricao_ponto":"BRS 3A, 5 - PRAÇA ONZE","sequencia":"4","latitude":"-22.9076","longitude":"-43.1997","pontos_turisticos":[{"nome":"Campo de Santana","distancia":1169},{"nome":"Catedral Metropolitana","distancia":1977},{"nome":"Cidade do Samba","distancia":1500},{"nome":"Memorial dos Pretos Novos","distancia":1456},{"nome":"Museu da Chácara do Céu","distancia":1928},{"nome":"Real Gabinete Português de Leitura","distancia":1811},{"nome":"Sambódromo","distancia":521},{"nome":"Teatro Carlos Gomes","distancia":1760},{"nome":"Teatro João Caetano","distancia":1788}]},{"linha":"389","descricao_ponto":"Avenida Francisco Bicalho próximo ao 10 (Pista Central)","sequencia":"6","latitude":"-22.9072","longitude":"-43.2094","pontos_turisticos":[{"nome":"Centro Luiz Gonzaga de Tradições Nordestinas","distancia":1540},{"nome":"Cidade do Samba","distancia":1912},{"nome":"Quinta da Boa Vista/Museu Nacional","distancia":1598},{"nome":"Sambódromo","distancia":1371},{"nome":"Teatro Mário Lago","distancia":1474}]},{"linha":"389","descricao_ponto":"Avenida Brasil próximo ao","sequencia":"24","latitude":"-22.8619","longitude":"-43.4114","pontos_turisticos":[]},{"linha":"389","descricao_ponto":"Avenida Brasil próximo ao 23390","sequencia":"54","latitude":"-22.8444","longitude":"-43.3766","pontos_turisticos":[]},{"linha":"389","descricao_ponto":"Rua Sul America próximo ao 86","sequencia":"82","latitude":"-22.8735","longitude":"-43.467","pontos_turisticos":[]},{"linha":"389","descricao_ponto":"Rua Doutor Augusto Figueiredo próximo ao 117","sequencia":"84","latitude":"-22.8741","longitude":"-43.4724","pontos_turisticos":[{"nome":"Parque Municipal Fazenda do Viegas","distancia":1800}]},{"linha":"389","descricao_ponto":"Estrada Do Taquaral próximo ao 1360","sequencia":"95","latitude":"-22.8713","longitude":"-43.4856","pontos_turisticos":[{"nome":"Parque Municipal Fazenda do Viegas","distancia":1564}]},{"linha":"389","descricao_ponto":"Avenida Brasil próximo ao","sequencia":"85","latitude":"-22.8857","longitude":"-43.2286","pontos_turisticos":[{"nome":"Centro Luiz Gonzaga de Tradições Nordestinas","distancia":1557},{"nome":"Teatro Mário Lago","distancia":1696}]},{"linha":"389","descricao_ponto":"Avenida Francisco Bicalho, próximo a Unidos da Tijuca","sequencia":"7","latitude":"-22.9038","longitude":"-43.2096","pontos_turisticos":[{"nome":"Centro Luiz Gonzaga de Tradições Nordestinas","distancia":1265},{"nome":"Cidade do Samba","distancia":1664},{"nome":"Jardim Zoológico (Riozoo)","distancia":1970},{"nome":"Memorial dos Pretos Novos","distancia":1909},{"nome":"Quinta da Boa Vista/Museu Nacional","distancia":1576},{"nome":"Sambódromo","distancia":1561},{"nome":"Teatro Mário Lago","distancia":1263}]},{"linha":"389","descricao_ponto":"Avenida Do Funcionario próximo ao 124","sequencia":"62","latitude":"-22.8703","longitude":"-43.4797","pontos_turisticos":[{"nome":"Parque Municipal Fazenda do Viegas","distancia":1761}]},{"linha":"389","descricao_ponto":"Avenida Brasil próximo ao","sequencia":"12","latitude":"-22.8839","longitude":"-43.2361","pontos_turisticos":[]},{"linha":"389","descricao_ponto":"Avenida Brasil próximo ao 6892","sequencia":"20","latitude":"-22.8519","longitude":"-43.2474","pontos_turisticos":[{"nome":"Praia de Ramos","distancia":1498}]},{"linha":"389","descricao_ponto":"Rua Taiacu próximo ao 20204","sequencia":"46","latitude":"-22.8309","longitude":"-43.3508","pontos_turisticos":[]},{"linha":"389","descricao_ponto":"Avenida Brasil próximo ao 23109","sequencia":"53","latitude":"-22.8439","longitude":"-43.3759","pontos_turisticos":[]},{"linha":"389","descricao_ponto":"Avenida Brasil próximo ao 30801","sequencia":"69","latitude":"-22.8618","longitude":"-43.4464","pontos_turisticos":[]},{"linha":"389","descricao_ponto":"Estrada Do Taquaral próximo ao 1104","sequencia":"96","latitude":"-22.8694","longitude":"-43.4828","pontos_turisticos":[{"nome":"Parque Municipal Fazenda do Viegas","distancia":1789}]},{"linha":"389","descricao_ponto":"Avenida Brasil próximo ao 17241","sequencia":"55","latitude":"-22.8245","longitude":"-43.3325","pontos_turisticos":[]},{"linha":"389","descricao_ponto":"Avenida Brasil próximo ao 1211","sequencia":"88","latitude":"-22.8893","longitude":"-43.2204","pontos_turisticos":[{"nome":"Centro Luiz Gonzaga de Tradições Nordestinas","distancia":842},{"nome":"Jardim Zoológico (Riozoo)","distancia":1887},{"nome":"Quinta da Boa Vista/Museu Nacional","distancia":1853},{"nome":"Teatro Mário Lago","distancia":1099}]},{"linha":"389","descricao_ponto":"Avenida Brasil próximo ao 27101","sequencia":"25","latitude":"-22.8637","longitude":"-43.416","pontos_turisticos":[]},{"linha":"389","descricao_ponto":"Estrada Porto Nacional próximo ao 63","sequencia":"40","latitude":"-22.8685","longitude":"-43.4612","pontos_turisticos":[]},{"linha":"389","descricao_ponto":"Avenida Brasil próximo ao 12300","sequencia":"29","latitude":"-22.8219","longitude":"-43.2806","pontos_turisticos":[]},{"linha":"389","descricao_ponto":"Avenida Ministro Ary Franco próximo ao 495","sequencia":"19","latitude":"-22.8704","longitude":"-43.465","pontos_turisticos":[]},{"linha":"389","descricao_ponto":"Avenida Brasil próximo ao 17719","sequencia":"54","latitude":"-22.8272","longitude":"-43.3401","pontos_turisticos":[]},{"linha":"389","descricao_ponto":"Terminal Jamil Amiden (AV. Chile) - Ponto A4","sequencia":"63","latitude":"-22.9089","longitude":"-43.1795","pontos_turisticos":[{"nome":"Academia Brasileira de Letras","distancia":704},{"nome":"Arcos da Lapa","distancia":443},{"nome":"Biblioteca Nacional","distancia":402},{"nome":"Campo de Santana","distancia":938},{"nome":"Casa França Brasil","distancia":1012},{"nome":"Catedral Metropolitana","distancia":254},{"nome":"Centro Cultural Banco do Brasil","distancia":972},{"nome":"Centro Cultural dos Correios","distancia":925},{"nome":"Confeitaria Colombo","distancia":412},{"nome":"Espaço Cultural da Marinha","distancia":1012},{"nome":"Igreja de São Francisco da Penitência","distancia":223},{"nome":"Igreja e Convento de Santa Teresa","distancia":756},{"nome":"Igreja Nossa Senhora da Candelária","distancia":928},{"nome":"Igreja Nossa Senhora da Glória do Outeiro","distancia":1446},{"nome":"Igreja Nossa Senhora do Carmo da Antiga Sé","distancia":764},{"nome":"Ilha Fiscal","distancia":1910},{"nome":"Memorial dos Pretos Novos","distancia":1984},{"nome":"Monumento aos Pracinhas","distancia":1012},{"nome":"Mosteiro de São Bento","distancia":1361},{"nome":"Museu de Arte do Rio","distancia":1433},{"nome":"Museu da Chácara do Céu","distancia":1052},{"nome":"Museu da República","distancia":1912},{"nome":"Museu de Arte Moderna","distancia":845},{"nome":"Museu de Folclore Edison Carneiro","distancia":1934},{"nome":"Museu do Clube Naval","distancia":306},{"nome":"Museu Histórico Nacional","distancia":1095},{"nome":"Museu Nacional de Belas Artes","distancia":349},{"nome":"Paço Imperial","distancia":801},{"nome":"Palácio Tiradentes","distancia":759},{"nome":"Parque das Ruínas","distancia":1010},{"nome":"Praça Paris","distancia":999},{"nome":"Real Gabinete Português de Leitura","distancia":470},{"nome":"Sala Cecília Meireles","distancia":620},{"nome":"Sambódromo","distancia":1799},{"nome":"Teatro Carlos Gomes","distancia":361},{"nome":"Teatro Dulcina","distancia":320},{"nome":"Teatro Glauce Rocha","distancia":337},{"nome":"Teatro Glória","distancia":1713},{"nome":"Teatro João Caetano","distancia":399},{"nome":"Teatro Municipal","distancia":323},{"nome":"Teatro Rival Petrobras","distancia":418}]},{"linha":"389","descricao_ponto":"Avenida Brasil próximo ao 23090","sequencia":"16","latitude":"-22.8425","longitude":"-43.3736","pontos_turisticos":[]},{"linha":"389","descricao_ponto":"Avenida Brasil próximo ao","sequencia":"34","latitude":"-22.8171","longitude":"-43.3069","pontos_turisticos":[]},{"linha":"389","descricao_ponto":"Avenida Brasil próximo ao 28820","sequencia":"63","latitude":"-22.8651","longitude":"-43.4272","pontos_turisticos":[]},{"linha":"389","descricao_ponto":"Avenida Ministro Ary Franco próximo ao 273","sequencia":"18","latitude":"-22.8729","longitude":"-43.4649","pontos_turisticos":[]},{"linha":"389","descricao_ponto":"Avenida Brasil próximo ao 15555","sequencia":"58","latitude":"-22.8218","longitude":"-43.3241","pontos_turisticos":[]},{"linha":"389","descricao_ponto":"Avenida Brasil próximo ao 1455","sequencia":"87","latitude":"-22.8871","longitude":"-43.2246","pontos_turisticos":[{"nome":"Centro Luiz Gonzaga de Tradições Nordestinas","distancia":1207},{"nome":"Jardim Zoológico (Riozoo)","distancia":1971},{"nome":"Teatro Mário Lago","distancia":1397}]},{"linha":"389","descricao_ponto":"Avenida Brasil próximo ao 2373","sequencia":"41","latitude":"-22.8458","longitude":"-43.3784","pontos_turisticos":[]},{"linha":"389","descricao_ponto":"Avenida Brasil próximo ao 28820","sequencia":"27","latitude":"-22.8651","longitude":"-43.4272","pontos_turisticos":[]},{"linha":"389","descricao_ponto":"Avenida Brasil próximo ao 10550","sequencia":"25","latitude":"-22.8347","longitude":"-43.2618","pontos_turisticos":[{"nome":"Praia de Ramos","distancia":1252}]},{"linha":"389","descricao_ponto":"Avenida Brasil próximo ao 460","sequencia":"51","latitude":"-22.8415","longitude":"-43.3718","pontos_turisticos":[]},{"linha":"389","descricao_ponto":"Rua Doutor Augusto Figueiredo próximo ao 430","sequencia":"91","latitude":"-22.8745","longitude":"-43.4872","pontos_turisticos":[{"nome":"Parque Municipal Fazenda do Viegas","distancia":1228}]},{"linha":"389","descricao_ponto":"Avenida Brasil próximo ao 22253","sequencia":"42","latitude":"-22.843","longitude":"-43.3736","pontos_turisticos":[]},{"linha":"389","descricao_ponto":"Avenida Brasil próximo ao 4500","sequencia":"80","latitude":"-22.8704","longitude":"-43.2469","pontos_turisticos":[]},{"linha":"389","descricao_ponto":"Avenida Brasil próximo ao 19001","sequencia":"53","latitude":"-22.8281","longitude":"-43.3429","pontos_turisticos":[]},{"linha":"389","descricao_ponto":"Avenida Brasil próximo ao 29578","sequencia":"29","latitude":"-22.8638","longitude":"-43.4351","pontos_turisticos":[]},{"linha":"389","descricao_ponto":"Avenida Ministro Ary Franco próximo ao 273","sequencia":"44","latitude":"-22.8729","longitude":"-43.4649","pontos_turisticos":[]},{"linha":"389","descricao_ponto":"Rua Ubatam próximo ao 1651","sequencia":"8","latitude":"-22.8744","longitude":"-43.4875","pontos_turisticos":[{"nome":"Parque Municipal Fazenda do Viegas","distancia":1244}]},{"linha":"389","descricao_ponto":"Rua Doutor Augusto Figueiredo próximo ao 415","sequencia":"13","latitude":"-22.8741","longitude":"-43.4757","pontos_turisticos":[{"nome":"Parque Municipal Fazenda do Viegas","distancia":1575}]},{"linha":"389","descricao_ponto":"Rua Carangola próximo ao 9","sequencia":"21","latitude":"-22.8664","longitude":"-43.4631","pontos_turisticos":[]},{"linha":"389","descricao_ponto":"Estrada Agua Branca próximo ao 3227","sequencia":"26","latitude":"-22.8648","longitude":"-43.4486","pontos_turisticos":[]},{"linha":"389","descricao_ponto":"Avenida Brasil próximo ao 20001","sequencia":"48","latitude":"-22.8325","longitude":"-43.3547","pontos_turisticos":[]},{"linha":"389","descricao_ponto":"Avenida Brasil próximo ao 6011","sequencia":"78","latitude":"-22.8606","longitude":"-43.2481","pontos_turisticos":[]},{"linha":"389","descricao_ponto":"Avenida Brasil próximo ao 20001","sequencia":"50","latitude":"-22.8314","longitude":"-43.3512","pontos_turisticos":[]},{"linha":"389","descricao_ponto":"Rua Doutor Augusto Figueiredo próximo ao 430","sequencia":"55","latitude":"-22.8745","longitude":"-43.4872","pontos_turisticos":[{"nome":"Parque Municipal Fazenda do Viegas","distancia":1228}]},{"linha":"389","descricao_ponto":"Avenida Brasil próximo ao 7836","sequencia":"22","latitude":"-22.843","longitude":"-43.2506","pontos_turisticos":[{"nome":"Praia de Ramos","distancia":477}]},{"linha":"389","descricao_ponto":"Avenida Brasil próximo ao 13000","sequencia":"30","latitude":"-22.8198","longitude":"-43.2832","pontos_turisticos":[]},{"linha":"389","descricao_ponto":"Avenida Brasil próximo ao 6325","sequencia":"77","latitude":"-22.8557","longitude":"-43.2479","pontos_turisticos":[{"nome":"Praia de Ramos","distancia":1906}]},{"linha":"389","descricao_ponto":"Avenida Brasil próximo ao S/n","sequencia":"11","latitude":"-22.8354","longitude":"-43.3618","pontos_turisticos":[]},{"linha":"389","descricao_ponto":"Avenida Brasil próximo ao 22300","sequencia":"13","latitude":"-22.8378","longitude":"-43.3657","pontos_turisticos":[]},{"linha":"389","descricao_ponto":"Estrada Agua Branca próximo ao 5200","sequencia":"38","latitude":"-22.8622","longitude":"-43.4572","pontos_turisticos":[]},{"linha":"389","descricao_ponto":"Rua Doutor Augusto Figueiredo próximo ao 1127","sequencia":"52","latitude":"-22.8741","longitude":"-43.4811","pontos_turisticos":[{"nome":"Parque Municipal Fazenda do Viegas","distancia":1315}]},{"linha":"389","descricao_ponto":"Avenida Brasil próximo ao 2482","sequencia":"9","latitude":"-22.8847","longitude":"-43.2265","pontos_turisticos":[{"nome":"Centro Luiz Gonzaga de Tradições Nordestinas","distancia":1533},{"nome":"Teatro Mário Lago","distancia":1710}]},{"linha":"389","descricao_ponto":"Avenida Brasil próximo ao 23090","sequencia":"52","latitude":"-22.8425","longitude":"-43.3736","pontos_turisticos":[]},{"linha":"389","descricao_ponto":"Avenida Brasil próximo ao 23800","sequencia":"55","latitude":"-22.8457","longitude":"-43.3788","pontos_turisticos":[]},{"linha":"389","descricao_ponto":"Estrada Do Taquaral próximo ao 1390","sequencia":"3","latitude":"-22.8697","longitude":"-43.4829","pontos_turisticos":[{"nome":"Parque Municipal Fazenda do Viegas","distancia":1755}]},{"linha":"389","descricao_ponto":"Alca Avenida Brasil próximo ao 99","sequencia":"39","latitude":"-22.8489","longitude":"-43.3831","pontos_turisticos":[]},{"linha":"389","descricao_ponto":"Avenida Brasil próximo ao 2373","sequencia":"40","latitude":"-22.8459","longitude":"-43.3783","pontos_turisticos":[]},{"linha":"389","descricao_ponto":"Avenida Brasil próximo ao 15455","sequencia":"59","latitude":"-22.8196","longitude":"-43.3105","pontos_turisticos":[]},{"linha":"389","descricao_ponto":"BRS 5, I - PRAÇA DA REPÚBLICA","sequencia":"60","latitude":"-22.9044","longitude":"-43.1887","pontos_turisticos":[{"nome":"Academia Brasileira de Letras","distancia":1765},{"nome":"Arcos da Lapa","distancia":1303},{"nome":"Biblioteca Nacional","distancia":1460},{"nome":"Campo de Santana","distancia":255},{"nome":"Casa França Brasil","distancia":1376},{"nome":"Catedral Metropolitana","distancia":1090},{"nome":"Centro Cultural Banco do Brasil","distancia":1317},{"nome":"Centro Cultural dos Correios","distancia":1362},{"nome":"Cidade do Samba","distancia":1406},{"nome":"Confeitaria Colombo","distancia":1018},{"nome":"Espaço Cultural da Marinha","distancia":1506},{"nome":"Igreja de São Francisco da Penitência","distancia":1006},{"nome":"Igreja e Convento de Santa Teresa","distancia":1518},{"nome":"Igreja Nossa Senhora da Candelária","distancia":1204},{"nome":"Igreja Nossa Senhora do Carmo da Antiga Sé","distancia":1382},{"nome":"Memorial dos Pretos Novos","distancia":1024},{"nome":"Mosteiro de São Bento","distancia":1397},{"nome":"Museu de Arte do Rio","distancia":1160},{"nome":"Museu da Chácara do Céu","distancia":1513},{"nome":"Museu de Arte Moderna","distancia":1901},{"nome":"Museu do Clube Naval","distancia":1307},{"nome":"Museu Histórico Nacional","distancia":1977},{"nome":"Museu Nacional de Belas Artes","distancia":1385},{"nome":"Paço Imperial","distancia":1482},{"nome":"Palácio Tiradentes","distancia":1483},{"nome":"Parque das Ruínas","distancia":1597},{"nome":"Praça Paris","distancia":1942},{"nome":"Real Gabinete Português de Leitura","distancia":679},{"nome":"Sala Cecília Meireles","distancia":1540},{"nome":"Sambódromo","distancia":1146},{"nome":"Teatro Carlos Gomes","distancia":707},{"nome":"Teatro Dulcina","distancia":1383},{"nome":"Teatro Glauce Rocha","distancia":1267},{"nome":"Teatro João Caetano","distancia":693},{"nome":"Teatro Municipal","distancia":1378},{"nome":"Teatro Rival Petrobras","distancia":1481}]},{"linha":"389","descricao_ponto":"Rua Doutor Augusto Figueiredo próximo ao 1001","sequencia":"49","latitude":"-22.8741","longitude":"-43.4746","pontos_turisticos":[{"nome":"Parque Municipal Fazenda do Viegas","distancia":1646}]},{"linha":"389","descricao_ponto":"Avenida Brasil próximo ao 10500","sequencia":"24","latitude":"-22.8368","longitude":"-43.2578","pontos_turisticos":[{"nome":"Praia de Ramos","distancia":789}]},{"linha":"389","descricao_ponto":"Avenida Brasil próximo ao 11288","sequencia":"27","latitude":"-22.83","longitude":"-43.2702","pontos_turisticos":[{"nome":"Igreja Nossa Senhora da Penha","distancia":1889}]},{"linha":"389","descricao_ponto":"Avenida Brasil próximo ao 20001","sequencia":"49","latitude":"-22.8314","longitude":"-43.3512","pontos_turisticos":[]},{"linha":"389","descricao_ponto":"Avenida Brasil próximo ao","sequencia":"65","latitude":"-22.8207","longitude":"-43.2829","pontos_turisticos":[]},{"linha":"389","descricao_ponto":"Avenida Brasil próximo ao 7971","sequencia":"73","latitude":"-22.8431","longitude":"-43.2511","pontos_turisticos":[{"nome":"Praia de Ramos","distancia":493}]},{"linha":"389","descricao_ponto":"BRS 1, 3, 5 - CENTRAL","sequencia":"3","latitude":"-22.9055","longitude":"-43.193","pontos_turisticos":[{"nome":"Arcos da Lapa","distancia":1571},{"nome":"Biblioteca Nacional","distancia":1836},{"nome":"Campo de Santana","distancia":495},{"nome":"Casa França Brasil","distancia":1833},{"nome":"Catedral Metropolitana","distancia":1392},{"nome":"Centro Cultural Banco do Brasil","distancia":1774},{"nome":"Centro Cultural dos Correios","distancia":1819},{"nome":"Cidade do Samba","distancia":1308},{"nome":"Confeitaria Colombo","distancia":1454},{"nome":"Espaço Cultural da Marinha","distancia":1963},{"nome":"Igreja de São Francisco da Penitência","distancia":1416},{"nome":"Igreja e Convento de Santa Teresa","distancia":1722},{"nome":"Igreja Nossa Senhora da Candelária","distancia":1660},{"nome":"Igreja Nossa Senhora do Carmo da Antiga Sé","distancia":1834},{"nome":"Memorial dos Pretos Novos","distancia":1048},{"nome":"Mosteiro de São Bento","distancia":1829},{"nome":"Museu de Arte do Rio","distancia":1551},{"nome":"Museu da Chácara do Céu","distancia":1600},{"nome":"Museu do Clube Naval","distancia":1704},{"nome":"Museu Nacional de Belas Artes","distancia":1772},{"nome":"Paço Imperial","distancia":1931},{"nome":"Palácio Tiradentes","distancia":1929},{"nome":"Parque das Ruínas","distancia":1721},{"nome":"Real Gabinete Português de Leitura","distancia":1109},{"nome":"Sala Cecília Meireles","distancia":1804},{"nome":"Sambódromo","distancia":771},{"nome":"Teatro Carlos Gomes","distancia":1090},{"nome":"Teatro Dulcina","distancia":1732},{"nome":"Teatro Glauce Rocha","distancia":1678},{"nome":"Teatro João Caetano","distancia":1102},{"nome":"Teatro Municipal","distancia":1756},{"nome":"Teatro Rival Petrobras","distancia":1827}]},{"linha":"389","descricao_ponto":"Avenida Brasil próximo ao 32400","sequencia":"36","latitude":"-22.8583","longitude":"-43.4641","pontos_turisticos":[]},{"linha":"389","descricao_ponto":"Rua Carangola próximo ao 9","sequencia":"41","latitude":"-22.8664","longitude":"-43.4631","pontos_turisticos":[]},{"linha":"389","descricao_ponto":"Estrada Do Taquaral próximo ao 1360","sequencia":"59","latitude":"-22.8713","longitude":"-43.4856","pontos_turisticos":[{"nome":"Parque Municipal Fazenda do Viegas","distancia":1564}]},{"linha":"389","descricao_ponto":"Rua Doutor Augusto Figueiredo próximo ao 1475","sequencia":"89","latitude":"-22.874","longitude":"-43.483","pontos_turisticos":[{"nome":"Parque Municipal Fazenda do Viegas","distancia":1280}]},{"linha":"389","descricao_ponto":"Avenida Brasil próximo ao","sequencia":"51","latitude":"-22.8294","longitude":"-43.3465","pontos_turisticos":[]},{"linha":"389","descricao_ponto":"Avenida Francisco Bicalho próximo ao 344","sequencia":"91","latitude":"-22.9081","longitude":"-43.2099","pontos_turisticos":[{"nome":"Centro Luiz Gonzaga de Tradições Nordestinas","distancia":1585},{"nome":"Jardim Zoológico (Riozoo)","distancia":1981},{"nome":"Quinta da Boa Vista/Museu Nacional","distancia":1563},{"nome":"Sambódromo","distancia":1389},{"nome":"Teatro Mário Lago","distancia":1498}]},{"linha":"389","descricao_ponto":"Avenida Brasil próximo ao S/n","sequencia":"21","latitude":"-22.849","longitude":"-43.3835","pontos_turisticos":[]},{"linha":"389","descricao_ponto":"Rua Doutor Augusto Figueiredo próximo ao 735","sequencia":"12","latitude":"-22.8741","longitude":"-43.4771","pontos_turisticos":[{"nome":"Parque Municipal Fazenda do Viegas","distancia":1492}]},{"linha":"389","descricao_ponto":"Avenida Brasil próximo ao 16741","sequencia":"57","latitude":"-22.8224","longitude":"-43.3262","pontos_turisticos":[]},{"linha":"389","descricao_ponto":"Avenida Brasil próximo ao 5575","sequencia":"79","latitude":"-22.8647","longitude":"-43.2481","pontos_turisticos":[]},{"linha":"389","descricao_ponto":"Avenida Brasil próximo ao 23109","sequencia":"17","latitude":"-22.8439","longitude":"-43.3759","pontos_turisticos":[]},{"linha":"389","descricao_ponto":"Avenida Brasil próximo ao 29003","sequencia":"28","latitude":"-22.8642","longitude":"-43.4332","pontos_turisticos":[]},{"linha":"389","descricao_ponto":"Avenida Brasil próximo ao 4036","sequencia":"14","latitude":"-22.8777","longitude":"-43.2409","pontos_turisticos":[]},{"linha":"389","descricao_ponto":"Avenida Brasil próximo ao 12049","sequencia":"28","latitude":"-22.8259","longitude":"-43.2754","pontos_turisticos":[]},{"linha":"389","descricao_ponto":"Rua Doutor Augusto Figueiredo próximo ao 715","sequencia":"87","latitude":"-22.8741","longitude":"-43.4785","pontos_turisticos":[{"nome":"Parque Municipal Fazenda do Viegas","distancia":1419}]},{"linha":"389","descricao_ponto":"Rua Ubatam próximo ao 327","sequencia":"6","latitude":"-22.8717","longitude":"-43.4883","pontos_turisticos":[{"nome":"Parque Municipal Fazenda do Viegas","distancia":1555}]},{"linha":"389","descricao_ponto":"Rua Doutor Augusto Figueiredo próximo ao 367","sequencia":"14","latitude":"-22.8741","longitude":"-43.4731","pontos_turisticos":[{"nome":"Parque Municipal Fazenda do Viegas","distancia":1750}]},{"linha":"389","descricao_ponto":"BRS 5, I - PRAÇA DA REPÚBLICA","sequencia":"95","latitude":"-22.9044","longitude":"-43.1887","pontos_turisticos":[{"nome":"Academia Brasileira de Letras","distancia":1765},{"nome":"Arcos da Lapa","distancia":1303},{"nome":"Biblioteca Nacional","distancia":1460},{"nome":"Campo de Santana","distancia":255},{"nome":"Casa França Brasil","distancia":1376},{"nome":"Catedral Metropolitana","distancia":1090},{"nome":"Centro Cultural Banco do Brasil","distancia":1317},{"nome":"Centro Cultural dos Correios","distancia":1362},{"nome":"Cidade do Samba","distancia":1406},{"nome":"Confeitaria Colombo","distancia":1018},{"nome":"Espaço Cultural da Marinha","distancia":1506},{"nome":"Igreja de São Francisco da Penitência","distancia":1006},{"nome":"Igreja e Convento de Santa Teresa","distancia":1518},{"nome":"Igreja Nossa Senhora da Candelária","distancia":1204},{"nome":"Igreja Nossa Senhora do Carmo da Antiga Sé","distancia":1382},{"nome":"Memorial dos Pretos Novos","distancia":1024},{"nome":"Mosteiro de São Bento","distancia":1397},{"nome":"Museu de Arte do Rio","distancia":1160},{"nome":"Museu da Chácara do Céu","distancia":1513},{"nome":"Museu de Arte Moderna","distancia":1901},{"nome":"Museu do Clube Naval","distancia":1307},{"nome":"Museu Histórico Nacional","distancia":1977},{"nome":"Museu Nacional de Belas Artes","distancia":1385},{"nome":"Paço Imperial","distancia":1482},{"nome":"Palácio Tiradentes","distancia":1483},{"nome":"Parque das Ruínas","distancia":1597},{"nome":"Praça Paris","distancia":1942},{"nome":"Real Gabinete Português de Leitura","distancia":679},{"nome":"Sala Cecília Meireles","distancia":1540},{"nome":"Sambódromo","distancia":1146},{"nome":"Teatro Carlos Gomes","distancia":707},{"nome":"Teatro Dulcina","distancia":1383},{"nome":"Teatro Glauce Rocha","distancia":1267},{"nome":"Teatro João Caetano","distancia":693},{"nome":"Teatro Municipal","distancia":1378},{"nome":"Teatro Rival Petrobras","distancia":1481}]},{"linha":"389","descricao_ponto":"Avenida Brasil próximo ao 3666","sequencia":"11","latitude":"-22.886","longitude":"-43.2341","pontos_turisticos":[{"nome":"Centro Luiz Gonzaga de Tradições Nordestinas","distancia":1931},{"nome":"Teatro Mário Lago","distancia":1997}]},{"linha":"389","descricao_ponto":"Avenida Brasil próximo ao 23500","sequencia":"56","latitude":"-22.8476","longitude":"-43.3818","pontos_turisticos":[]},{"linha":"389","descricao_ponto":"Avenida Brasil próximo ao 32400","sequencia":"71","latitude":"-22.8597","longitude":"-43.4578","pontos_turisticos":[]},{"linha":"389","descricao_ponto":"Avenida Brasil próximo ao 27101","sequencia":"33","latitude":"-22.8656","longitude":"-43.4225","pontos_turisticos":[]},{"linha":"389","descricao_ponto":"Avenida Brasil próximo ao 19001","sequencia":"52","latitude":"-22.8281","longitude":"-43.3429","pontos_turisticos":[]},{"linha":"389","descricao_ponto":"Avenida Brasil próximo ao 22253","sequencia":"43","latitude":"-22.843","longitude":"-43.3738","pontos_turisticos":[]},{"linha":"389","descricao_ponto":"Rua Doutor Augusto Figueiredo próximo ao 1475","sequencia":"53","latitude":"-22.874","longitude":"-43.483","pontos_turisticos":[{"nome":"Parque Municipal Fazenda do Viegas","distancia":1280}]},{"linha":"389","descricao_ponto":"Avenida Brasil próximo ao","sequencia":"60","latitude":"-22.8619","longitude":"-43.4114","pontos_turisticos":[]},{"linha":"389","descricao_ponto":"Estrada Agua Branca próximo ao 4003","sequencia":"24","latitude":"-22.8624","longitude":"-43.4522","pontos_turisticos":[]},{"linha":"389","descricao_ponto":"BRS 1, 2, 3, 4, 5, I - CIDADE NOVA","sequencia":"57","latitude":"-22.9101","longitude":"-43.206","pontos_turisticos":[{"nome":"Campo de Santana","distancia":1849},{"nome":"Cidade do Samba","distancia":1980},{"nome":"Sambódromo","distancia":951},{"nome":"Teatro Mário Lago","distancia":1947}]},{"linha":"389","descricao_ponto":"BRS 5,I - CENTRAL","sequencia":"59","latitude":"-22.9061","longitude":"-43.1941","pontos_turisticos":[{"nome":"Arcos da Lapa","distancia":1637},{"nome":"Biblioteca Nacional","distancia":1929},{"nome":"Campo de Santana","distancia":594},{"nome":"Casa França Brasil","distancia":1961},{"nome":"Catedral Metropolitana","distancia":1469},{"nome":"Centro Cultural Banco do Brasil","distancia":1902},{"nome":"Centro Cultural dos Correios","distancia":1945},{"nome":"Cidade do Samba","distancia":1342},{"nome":"Confeitaria Colombo","distancia":1570},{"nome":"Igreja de São Francisco da Penitência","distancia":1523},{"nome":"Igreja e Convento de Santa Teresa","distancia":1768},{"nome":"Igreja Nossa Senhora da Candelária","distancia":1788},{"nome":"Igreja Nossa Senhora do Carmo da Antiga Sé","distancia":1955},{"nome":"Memorial dos Pretos Novos","distancia":1121},{"nome":"Mosteiro de São Bento","distancia":1960},{"nome":"Museu de Arte do Rio","distancia":1680},{"nome":"Museu da Chácara do Céu","distancia":1614},{"nome":"Museu do Clube Naval","distancia":1806},{"nome":"Museu Nacional de Belas Artes","distancia":1870},{"nome":"Parque das Ruínas","distancia":1745},{"nome":"Real Gabinete Português de Leitura","distancia":1224},{"nome":"Sala Cecília Meireles","distancia":1866},{"nome":"Sambódromo","distancia":660},{"nome":"Teatro Carlos Gomes","distancia":1193},{"nome":"Teatro Dulcina","distancia":1819},{"nome":"Teatro Glauce Rocha","distancia":1784},{"nome":"Teatro João Caetano","distancia":1210},{"nome":"Teatro Municipal","distancia":1851},{"nome":"Teatro Rival Petrobras","distancia":1913}]},{"linha":"389","descricao_ponto":"Avenida Brasil próximo ao 28350","sequencia":"23","latitude":"-22.8532","longitude":"-43.3942","pontos_turisticos":[]},{"linha":"389","descricao_ponto":"Avenida Ministro Ary Franco próximo ao 495","sequencia":"43","latitude":"-22.8704","longitude":"-43.465","pontos_turisticos":[]},{"linha":"389","descricao_ponto":"Avenida Brasil próximo ao 532","sequencia":"33","latitude":"-22.8142","longitude":"-43.2963","pontos_turisticos":[]},{"linha":"389","descricao_ponto":"Avenida Brasil próximo ao 16700","sequencia":"39","latitude":"-22.8214","longitude":"-43.3243","pontos_turisticos":[]},{"linha":"389","descricao_ponto":"Avenida Brasil próximo ao 29672","sequencia":"67","latitude":"-22.8629","longitude":"-43.4403","pontos_turisticos":[]},{"linha":"389","descricao_ponto":"Avenida Brasil próximo ao 28960","sequencia":"68","latitude":"-22.8621","longitude":"-43.4445","pontos_turisticos":[]},{"linha":"389","descricao_ponto":"Estrada Porto Nacional próximo ao 63","sequencia":"76","latitude":"-22.8685","longitude":"-43.4612","pontos_turisticos":[]},{"linha":"389","descricao_ponto":"Estrada Do Taquaral próximo ao 795","sequencia":"2","latitude":"-22.8684","longitude":"-43.4818","pontos_turisticos":[{"nome":"Parque Municipal Fazenda do Viegas","distancia":1914}]},{"linha":"389","descricao_ponto":"Avenida Brasil próximo ao 29663","sequencia":"28","latitude":"-22.8629","longitude":"-43.4408","pontos_turisticos":[]},{"linha":"389","descricao_ponto":"Avenida Brasil próximo ao 12235","sequencia":"60","latitude":"-22.8179","longitude":"-43.3075","pontos_turisticos":[]},{"linha":"389","descricao_ponto":"Nome do ponto nao identificado","sequencia":"1","latitude":"-22.9099","longitude":"-43.1827","pontos_turisticos":[{"nome":"Academia Brasileira de Letras","distancia":1002},{"nome":"Arcos da Lapa","distancia":437},{"nome":"Biblioteca Nacional","distancia":718},{"nome":"Campo de Santana","distancia":680},{"nome":"Casa França Brasil","distancia":1261},{"nome":"Catedral Metropolitana","distancia":230},{"nome":"Centro Cultural Banco do Brasil","distancia":1212},{"nome":"Centro Cultural dos Correios","distancia":1188},{"nome":"Confeitaria Colombo","distancia":653},{"nome":"Espaço Cultural da Marinha","distancia":1295},{"nome":"Igreja de São Francisco da Penitência","distancia":485},{"nome":"Igreja e Convento de Santa Teresa","distancia":685},{"nome":"Igreja Nossa Senhora da Candelária","distancia":1143},{"nome":"Igreja Nossa Senhora da Glória do Outeiro","distancia":1477},{"nome":"Igreja Nossa Senhora do Carmo da Antiga Sé","distancia":1062},{"nome":"Memorial dos Pretos Novos","distancia":1862},{"nome":"Monumento aos Pracinhas","distancia":1150},{"nome":"Mosteiro de São Bento","distancia":1543},{"nome":"Museu de Arte do Rio","distancia":1529},{"nome":"Museu da Chácara do Céu","distancia":841},{"nome":"Museu da República","distancia":1888},{"nome":"Museu de Arte Moderna","distancia":1065},{"nome":"Museu de Folclore Edison Carneiro","distancia":1908},{"nome":"Museu do Clube Naval","distancia":652},{"nome":"Museu Histórico Nacional","distancia":1441},{"nome":"Museu Nacional de Belas Artes","distancia":685},{"nome":"Paço Imperial","distancia":1116},{"nome":"Palácio Tiradentes","distancia":1081},{"nome":"Parque das Ruínas","distancia":852},{"nome":"Praça Paris","distancia":1076},{"nome":"Real Gabinete Português de Leitura","distancia":496},{"nome":"Sala Cecília Meireles","distancia":674},{"nome":"Sambódromo","distancia":1459},{"nome":"Teatro Carlos Gomes","distancia":298},{"nome":"Teatro Dulcina","distancia":585},{"nome":"Teatro Glauce Rocha","distancia":678},{"nome":"Teatro Glória","distancia":1778},{"nome":"Teatro João Caetano","distancia":393},{"nome":"Teatro Municipal","distancia":649},{"nome":"Teatro Rival Petrobras","distancia":675}]},{"linha":"389","descricao_ponto":"Avenida Ministro Ary Franco próximo ao 1174","sequencia":"78","latitude":"-22.8675","longitude":"-43.465","pontos_turisticos":[]},{"linha":"389","descricao_ponto":"Avenida Brasil próximo ao 24277","sequencia":"37","latitude":"-22.8525","longitude":"-43.3911","pontos_turisticos":[]},{"linha":"389","descricao_ponto":"Praca Da Republica próximo ao111","sequencia":"2","latitude":"-22.9079","longitude":"-43.1898","pontos_turisticos":[{"nome":"Academia Brasileira de Letras","distancia":1755},{"nome":"Arcos da Lapa","distancia":1154},{"nome":"Biblioteca Nacional","distancia":1460},{"nome":"Campo de Santana","distancia":203},{"nome":"Casa França Brasil","distancia":1643},{"nome":"Catedral Metropolitana","distancia":987},{"nome":"Centro Cultural Banco do Brasil","distancia":1584},{"nome":"Centro Cultural dos Correios","distancia":1608},{"nome":"Cidade do Samba","distancia":1679},{"nome":"Confeitaria Colombo","distancia":1164},{"nome":"Espaço Cultural da Marinha","distancia":1746},{"nome":"Igreja de São Francisco da Penitência","distancia":1085},{"nome":"Igreja e Convento de Santa Teresa","distancia":1300},{"nome":"Igreja Nossa Senhora da Candelária","distancia":1478},{"nome":"Igreja Nossa Senhora do Carmo da Antiga Sé","distancia":1576},{"nome":"Memorial dos Pretos Novos","distancia":1355},{"nome":"Monumento aos Pracinhas","distancia":1875},{"nome":"Mosteiro de São Bento","distancia":1740},{"nome":"Museu de Arte do Rio","distancia":1543},{"nome":"Museu da Chácara do Céu","distancia":1200},{"nome":"Museu de Arte Moderna","distancia":1822},{"nome":"Museu do Clube Naval","distancia":1351},{"nome":"Museu Nacional de Belas Artes","distancia":1408},{"nome":"Paço Imperial","distancia":1663},{"nome":"Palácio Tiradentes","distancia":1650},{"nome":"Parque das Ruínas","distancia":1311},{"nome":"Praça Paris","distancia":1767},{"nome":"Real Gabinete Português de Leitura","distancia":827},{"nome":"Sala Cecília Meireles","distancia":1385},{"nome":"Sambódromo","distancia":823},{"nome":"Teatro Carlos Gomes","distancia":750},{"nome":"Teatro Dulcina","distancia":1342},{"nome":"Teatro Glauce Rocha","distancia":1341},{"nome":"Teatro João Caetano","distancia":787},{"nome":"Teatro Municipal","distancia":1384},{"nome":"Teatro Rival Petrobras","distancia":1434}]},{"linha":"389","descricao_ponto":"Avenida Ministro Ary Franco próximo ao 947","sequencia":"20","latitude":"-22.8665","longitude":"-43.465","pontos_turisticos":[]},{"linha":"389","descricao_ponto":"Avenida Brasil próximo ao 9201","sequencia":"70","latitude":"-22.8354","longitude":"-43.2614","pontos_turisticos":[{"nome":"Praia de Ramos","distancia":1187}]},{"linha":"389","descricao_ponto":"Avenida Brasil próximo ao 21918","sequencia":"14","latitude":"-22.8393","longitude":"-43.3683","pontos_turisticos":[]},{"linha":"389","descricao_ponto":"Avenida Brasil próximo ao 32400","sequencia":"35","latitude":"-22.8597","longitude":"-43.4578","pontos_turisticos":[]},{"linha":"389","descricao_ponto":"Rua Sul America próximo ao 1982","sequencia":"45","latitude":"-22.8735","longitude":"-43.4653","pontos_turisticos":[]},{"linha":"389","descricao_ponto":"Avenida Brasil próximo ao 2870","sequencia":"62","latitude":"-22.8652","longitude":"-43.422","pontos_turisticos":[]},{"linha":"389","descricao_ponto":"Estrada Do Taquaral próximo ao 180","sequencia":"94","latitude":"-22.8713","longitude":"-43.4881","pontos_turisticos":[{"nome":"Parque Municipal Fazenda do Viegas","distancia":1595}]},{"linha":"389","descricao_ponto":"Avenida Brasil próximo ao 20971","sequencia":"45","latitude":"-22.837","longitude":"-43.3636","pontos_turisticos":[]},{"linha":"389","descricao_ponto":"Estrada Do Taquaral próximo ao 389","sequencia":"97","latitude":"-22.8682","longitude":"-43.4802","pontos_turisticos":[{"nome":"Parque Municipal Fazenda do Viegas","distancia":1971}]},{"linha":"389","descricao_ponto":"Avenida Brasil próximo ao 29503","sequencia":"31","latitude":"-22.8643","longitude":"-43.4329","pontos_turisticos":[]},{"linha":"389","descricao_ponto":"Terminal Jamil Amiden (AV. Chile) - Ponto A4","sequencia":"98","latitude":"-22.9089","longitude":"-43.1795","pontos_turisticos":[{"nome":"Academia Brasileira de Letras","distancia":704},{"nome":"Arcos da Lapa","distancia":443},{"nome":"Biblioteca Nacional","distancia":402},{"nome":"Campo de Santana","distancia":938},{"nome":"Casa França Brasil","distancia":1012},{"nome":"Catedral Metropolitana","distancia":254},{"nome":"Centro Cultural Banco do Brasil","distancia":972},{"nome":"Centro Cultural dos Correios","distancia":925},{"nome":"Confeitaria Colombo","distancia":412},{"nome":"Espaço Cultural da Marinha","distancia":1012},{"nome":"Igreja de São Francisco da Penitência","distancia":223},{"nome":"Igreja e Convento de Santa Teresa","distancia":756},{"nome":"Igreja Nossa Senhora da Candelária","distancia":928},{"nome":"Igreja Nossa Senhora da Glória do Outeiro","distancia":1446},{"nome":"Igreja Nossa Senhora do Carmo da Antiga Sé","distancia":764},{"nome":"Ilha Fiscal","distancia":1910},{"nome":"Memorial dos Pretos Novos","distancia":1984},{"nome":"Monumento aos Pracinhas","distancia":1012},{"nome":"Mosteiro de São Bento","distancia":1361},{"nome":"Museu de Arte do Rio","distancia":1433},{"nome":"Museu da Chácara do Céu","distancia":1052},{"nome":"Museu da República","distancia":1912},{"nome":"Museu de Arte Moderna","distancia":845},{"nome":"Museu de Folclore Edison Carneiro","distancia":1934},{"nome":"Museu do Clube Naval","distancia":306},{"nome":"Museu Histórico Nacional","distancia":1095},{"nome":"Museu Nacional de Belas Artes","distancia":349},{"nome":"Paço Imperial","distancia":801},{"nome":"Palácio Tiradentes","distancia":759},{"nome":"Parque das Ruínas","distancia":1010},{"nome":"Praça Paris","distancia":999},{"nome":"Real Gabinete Português de Leitura","distancia":470},{"nome":"Sala Cecília Meireles","distancia":620},{"nome":"Sambódromo","distancia":1799},{"nome":"Teatro Carlos Gomes","distancia":361},{"nome":"Teatro Dulcina","distancia":320},{"nome":"Teatro Glauce Rocha","distancia":337},{"nome":"Teatro Glória","distancia":1713},{"nome":"Teatro João Caetano","distancia":399},{"nome":"Teatro Municipal","distancia":323},{"nome":"Teatro Rival Petrobras","distancia":418}]},{"linha":"389","descricao_ponto":"Avenida Brasil próximo ao S/n","sequencia":"12","latitude":"-22.8367","longitude":"-43.3639","pontos_turisticos":[]},{"linha":"389","descricao_ponto":"Rua Sul America próximo ao 86","sequencia":"46","latitude":"-22.8735","longitude":"-43.467","pontos_turisticos":[]},{"linha":"389","descricao_ponto":"Avenida Brasil próximo ao 13724","sequencia":"31","latitude":"-22.8153","longitude":"-43.29","pontos_turisticos":[]},{"linha":"389","descricao_ponto":"Avenida Do Funcionario próximo ao 124","sequencia":"1","latitude":"-22.8703","longitude":"-43.4797","pontos_turisticos":[{"nome":"Parque Municipal Fazenda do Viegas","distancia":1761}]},{"linha":"389","descricao_ponto":"Avenida Brasil próximo ao 2000","sequencia":"8","latitude":"-22.887","longitude":"-43.224","pontos_turisticos":[{"nome":"Centro Luiz Gonzaga de Tradições Nordestinas","distancia":1191},{"nome":"Jardim Zoológico (Riozoo)","distancia":1996},{"nome":"Teatro Mário Lago","distancia":1392}]},{"linha":"389","descricao_ponto":"Avenida Brasil próximo ao 17810","sequencia":"40","latitude":"-22.8222","longitude":"-43.3267","pontos_turisticos":[]},{"linha":"389","descricao_ponto":"Avenida Brasil próximo ao 29003","sequencia":"64","latitude":"-22.8642","longitude":"-43.4332","pontos_turisticos":[]},{"linha":"389","descricao_ponto":"Rua Coronel Tamarindo próximo ao 2067","sequencia":"16","latitude":"-22.8751","longitude":"-43.4676","pontos_turisticos":[]},{"linha":"389","descricao_ponto":"Avenida Brasil próximo ao 22935","sequencia":"41","latitude":"-22.8448","longitude":"-43.3765","pontos_turisticos":[]},{"linha":"389","descricao_ponto":"Avenida Brasil próximo ao 8883","sequencia":"71","latitude":"-22.837","longitude":"-43.2582","pontos_turisticos":[{"nome":"Praia de Ramos","distancia":823}]},{"linha":"389","descricao_ponto":"Avenida Brasil próximo ao 21484","sequencia":"10","latitude":"-22.8323","longitude":"-43.3546","pontos_turisticos":[]},{"linha":"389","descricao_ponto":"Rua Doutor Augusto Figueiredo próximo ao 87","sequencia":"50","latitude":"-22.8741","longitude":"-43.4763","pontos_turisticos":[{"nome":"Parque Municipal Fazenda do Viegas","distancia":1538}]},{"linha":"389","descricao_ponto":"Avenida Brasil próximo ao 8382","sequencia":"21","latitude":"-22.8467","longitude":"-43.2475","pontos_turisticos":[{"nome":"Praia de Ramos","distancia":936}]},{"linha":"389","descricao_ponto":"Estrada Agua Branca próximo ao 5200","sequencia":"74","latitude":"-22.8622","longitude":"-43.4572","pontos_turisticos":[]},{"linha":"389","descricao_ponto":"Avenida Brasil próximo ao S/n","sequencia":"38","latitude":"-22.8503","longitude":"-43.3847","pontos_turisticos":[]},{"linha":"389","descricao_ponto":"Avenida Brasil próximo ao 20971","sequencia":"47","latitude":"-22.834","longitude":"-43.3586","pontos_turisticos":[]},{"linha":"389","descricao_ponto":"Avenida Brasil próximo ao 19405","sequencia":"51","latitude":"-22.83","longitude":"-43.3479","pontos_turisticos":[]},{"linha":"389","descricao_ponto":"Avenida Brasil próximo ao 18508","sequencia":"42","latitude":"-22.8247","longitude":"-43.3342","pontos_turisticos":[]},{"linha":"389","descricao_ponto":"Avenida Brasil próximo ao 21887","sequencia":"43","latitude":"-22.8415","longitude":"-43.3712","pontos_turisticos":[]},{"linha":"389","descricao_ponto":"Avenida Brasil próximo ao 10857","sequencia":"67","latitude":"-22.8264","longitude":"-43.2755","pontos_turisticos":[]},{"linha":"389","descricao_ponto":"Avenida Brasil próximo ao 9727","sequencia":"69","latitude":"-22.8336","longitude":"-43.2646","pontos_turisticos":[{"nome":"Igreja Nossa Senhora da Penha","distancia":1892},{"nome":"Praia de Ramos","distancia":1564}]},{"linha":"389","descricao_ponto":"Avenida Brasil próximo ao 1940","sequencia":"86","latitude":"-22.8853","longitude":"-43.2265","pontos_turisticos":[{"nome":"Centro Luiz Gonzaga de Tradições Nordestinas","distancia":1475},{"nome":"Teatro Mário Lago","distancia":1648}]},{"linha":"389","descricao_ponto":"Avenida Brasil próximo ao 20971","sequencia":"46","latitude":"-22.837","longitude":"-43.3636","pontos_turisticos":[]},{"linha":"389","descricao_ponto":"Avenida Brasil próximo ao 20001","sequencia":"49","latitude":"-22.8325","longitude":"-43.3547","pontos_turisticos":[]},{"linha":"389","descricao_ponto":"Avenida Brasil próximo ao 31034","sequencia":"34","latitude":"-22.8613","longitude":"-43.4489","pontos_turisticos":[]},{"linha":"389","descricao_ponto":"Rua Doutor Augusto Figueiredo próximo ao 1680","sequencia":"10","latitude":"-22.874","longitude":"-43.4821","pontos_turisticos":[{"nome":"Parque Municipal Fazenda do Viegas","distancia":1298}]},{"linha":"389","descricao_ponto":"Avenida Brasil próximo ao","sequencia":"63","latitude":"-22.8174","longitude":"-43.287","pontos_turisticos":[]},{"linha":"389","descricao_ponto":"Avenida Brasil próximo ao 2231","sequencia":"84","latitude":"-22.8872","longitude":"-43.2308","pontos_turisticos":[{"nome":"Centro Luiz Gonzaga de Tradições Nordestinas","distancia":1587},{"nome":"Jardim Zoológico (Riozoo)","distancia":1923},{"nome":"Teatro Mário Lago","distancia":1677}]},{"linha":"389","descricao_ponto":"Avenida Brasil próximo ao 23500","sequencia":"20","latitude":"-22.8476","longitude":"-43.3818","pontos_turisticos":[]},{"linha":"389","descricao_ponto":"Avenida Brasil próximo ao 2482","sequencia":"10","latitude":"-22.8854","longitude":"-43.2289","pontos_turisticos":[{"nome":"Centro Luiz Gonzaga de Tradições Nordestinas","distancia":1603},{"nome":"Teatro Mário Lago","distancia":1739}]},{"linha":"389","descricao_ponto":"Rua Doutor Augusto Figueiredo próximo ao 1001","sequencia":"85","latitude":"-22.8741","longitude":"-43.4746","pontos_turisticos":[{"nome":"Parque Municipal Fazenda do Viegas","distancia":1646}]},{"linha":"389","descricao_ponto":"Estrada Agua Branca próximo ao 3255","sequencia":"27","latitude":"-22.8667","longitude":"-43.4459","pontos_turisticos":[]},{"linha":"389","descricao_ponto":"Avenida Brasil próximo ao 28783","sequencia":"32","latitude":"-22.8659","longitude":"-43.4257","pontos_turisticos":[]},{"linha":"389","descricao_ponto":"Avenida Brasil próximo ao 11211","sequencia":"66","latitude":"-22.8223","longitude":"-43.2807","pontos_turisticos":[]},{"linha":"389","descricao_ponto":"Avenida Brasil próximo ao 6993","sequencia":"75","latitude":"-22.8499","longitude":"-43.2477","pontos_turisticos":[{"nome":"Praia de Ramos","distancia":1274}]},{"linha":"389","descricao_ponto":"Avenida Brasil próximo ao 3141","sequencia":"82","latitude":"-22.875","longitude":"-43.2435","pontos_turisticos":[]},{"linha":"389","descricao_ponto":"Avenida Brasil próximo ao 3367","sequencia":"40","latitude":"-22.8471","longitude":"-43.3804","pontos_turisticos":[]},{"linha":"389","descricao_ponto":"Avenida Brasil próximo ao","sequencia":"52","latitude":"-22.8294","longitude":"-43.3465","pontos_turisticos":[]},{"linha":"389","descricao_ponto":"Avenida Brasil próximo ao 1580","sequencia":"15","latitude":"-22.8751","longitude":"-43.2428","pontos_turisticos":[]},{"linha":"389","descricao_ponto":"Avenida Brasil próximo ao","sequencia":"37","latitude":"-22.8196","longitude":"-43.3145","pontos_turisticos":[]},{"linha":"389","descricao_ponto":"Avenida Brasil próximo ao 19850","sequencia":"45","latitude":"-22.8295","longitude":"-43.3471","pontos_turisticos":[]},{"linha":"389","descricao_ponto":"Avenida Brasil próximo ao 22300","sequencia":"49","latitude":"-22.8378","longitude":"-43.3657","pontos_turisticos":[]},{"linha":"389","descricao_ponto":"Rua Coronel Tamarindo próximo ao 2179","sequencia":"15","latitude":"-22.8753","longitude":"-43.4691","pontos_turisticos":[{"nome":"Parque Municipal Fazenda do Viegas","distancia":1978}]},{"linha":"389","descricao_ponto":"Estrada Do Taquaral próximo ao 180","sequencia":"58","latitude":"-22.8713","longitude":"-43.4881","pontos_turisticos":[{"nome":"Parque Municipal Fazenda do Viegas","distancia":1595}]},{"linha":"389","descricao_ponto":"Avenida Brasil próximo ao 10590","sequencia":"26","latitude":"-22.8321","longitude":"-43.2665","pontos_turisticos":[{"nome":"Igreja Nossa Senhora da Penha","distancia":1886},{"nome":"Praia de Ramos","distancia":1808}]},{"linha":"389","descricao_ponto":"Avenida Brasil próximo ao 31034","sequencia":"70","latitude":"-22.8613","longitude":"-43.4489","pontos_turisticos":[]},{"linha":"389","descricao_ponto":"Avenida Francisco Bicalho próximo ao 337","sequencia":"90","latitude":"-22.9003","longitude":"-43.2106","pontos_turisticos":[{"nome":"Centro Luiz Gonzaga de Tradições Nordestinas","distancia":976},{"nome":"Cidade do Samba","distancia":1541},{"nome":"Jardim Zoológico (Riozoo)","distancia":1921},{"nome":"Memorial dos Pretos Novos","distancia":1867},{"nome":"Quinta da Boa Vista/Museu Nacional","distancia":1571},{"nome":"Sambódromo","distancia":1879},{"nome":"Teatro Mário Lago","distancia":1058}]},{"linha":"389","descricao_ponto":"Avenida Brasil próximo ao 23390","sequencia":"18","latitude":"-22.8444","longitude":"-43.3766","pontos_turisticos":[]},{"linha":"389","descricao_ponto":"Avenida Brasil próximo ao 24276","sequencia":"22","latitude":"-22.8522","longitude":"-43.3903","pontos_turisticos":[]},{"linha":"389","descricao_ponto":"Rua Doutor Augusto Figueiredo próximo ao 390","sequencia":"47","latitude":"-22.8741","longitude":"-43.4694","pontos_turisticos":[]},{"linha":"389","descricao_ponto":"Estrada Do Taquaral próximo ao 389","sequencia":"61","latitude":"-22.8682","longitude":"-43.4802","pontos_turisticos":[{"nome":"Parque Municipal Fazenda do Viegas","distancia":1971}]},{"linha":"389","descricao_ponto":"Avenida Brasil próximo ao 18476","sequencia":"43","latitude":"-22.8253","longitude":"-43.3362","pontos_turisticos":[]},{"linha":"389","descricao_ponto":"Avenida Brasil próximo ao 24276","sequencia":"58","latitude":"-22.8522","longitude":"-43.3903","pontos_turisticos":[]},{"linha":"389","descricao_ponto":"Estrada Do Taquaral próximo ao 180","sequencia":"5","latitude":"-22.8713","longitude":"-43.4879","pontos_turisticos":[{"nome":"Parque Municipal Fazenda do Viegas","distancia":1591}]},{"linha":"389","descricao_ponto":"Avenida Brasil próximo ao 19003","sequencia":"54","latitude":"-22.8256","longitude":"-43.336","pontos_turisticos":[]},{"linha":"389","descricao_ponto":"Avenida Brasil próximo ao 8701","sequencia":"68","latitude":"-22.83","longitude":"-43.271","pontos_turisticos":[{"nome":"Igreja Nossa Senhora da Penha","distancia":1856}]},{"linha":"389","descricao_ponto":"Avenida Brasil próximo ao","sequencia":"81","latitude":"-22.8716","longitude":"-43.2461","pontos_turisticos":[]},{"linha":"389","descricao_ponto":"Avenida Brasil próximo ao 414","sequencia":"83","latitude":"-22.8859","longitude":"-43.2349","pontos_turisticos":[]},{"linha":"389","descricao_ponto":"Rua Doutor Augusto Figueiredo próximo ao 117","sequencia":"48","latitude":"-22.8741","longitude":"-43.4724","pontos_turisticos":[{"nome":"Parque Municipal Fazenda do Viegas","distancia":1800}]},{"linha":"389","descricao_ponto":"Rua Ubatam próximo ao 1859","sequencia":"56","latitude":"-22.8735","longitude":"-43.4877","pontos_turisticos":[{"nome":"Parque Municipal Fazenda do Viegas","distancia":1347}]},{"linha":"389","descricao_ponto":"Avenida Brasil próximo ao 18200","sequencia":"41","latitude":"-22.8238","longitude":"-43.3317","pontos_turisticos":[]},{"linha":"389","descricao_ponto":"Avenida Brasil próximo ao 21918","sequencia":"50","latitude":"-22.8393","longitude":"-43.3683","pontos_turisticos":[]},{"linha":"389","descricao_ponto":"Estrada Agua Branca próximo ao 4063","sequencia":"75","latitude":"-22.8623","longitude":"-43.4562","pontos_turisticos":[]},{"linha":"389","descricao_ponto":"Rua Doutor Augusto Figueiredo próximo ao 390","sequencia":"83","latitude":"-22.8741","longitude":"-43.4694","pontos_turisticos":[]},{"linha":"389","descricao_ponto":"Avenida Brasil próximo ao 29579","sequencia":"30","latitude":"-22.8638","longitude":"-43.4358","pontos_turisticos":[]},{"linha":"389","descricao_ponto":"Avenida Brasil próximo ao 26785","sequencia":"34","latitude":"-22.8618","longitude":"-43.4109","pontos_turisticos":[]},{"linha":"389","descricao_ponto":"Avenida Brasil próximo ao 17091","sequencia":"56","latitude":"-22.8232","longitude":"-43.3285","pontos_turisticos":[]},{"linha":"389","descricao_ponto":"Avenida Brasil próximo ao 20431","sequencia":"48","latitude":"-22.8331","longitude":"-43.3562","pontos_turisticos":[]},{"linha":"389","descricao_ponto":"Rua Ubatam próximo ao 327","sequencia":"57","latitude":"-22.8716","longitude":"-43.4883","pontos_turisticos":[{"nome":"Parque Municipal Fazenda do Viegas","distancia":1566}]},{"linha":"389","descricao_ponto":"Avenida Brasil próximo ao 7022","sequencia":"19","latitude":"-22.8536","longitude":"-43.2474","pontos_turisticos":[{"nome":"Praia de Ramos","distancia":1683}]},{"linha":"389","descricao_ponto":"Estrada Agua Branca próximo ao 4627","sequencia":"73","latitude":"-22.862","longitude":"-43.4595","pontos_turisticos":[]},{"linha":"389","descricao_ponto":"Estrada Agua Branca próximo ao 1778","sequencia":"23","latitude":"-22.8623","longitude":"-43.4548","pontos_turisticos":[]},{"linha":"389","descricao_ponto":"Avenida Brasil próximo ao 21315","sequencia":"44","latitude":"-22.8396","longitude":"-43.368","pontos_turisticos":[]},{"linha":"389","descricao_ponto":"Avenida Brasil próximo ao 20971","sequencia":"46","latitude":"-22.834","longitude":"-43.3586","pontos_turisticos":[]},{"linha":"389","descricao_ponto":"BRS 1, 2, 3 - CIDADE NOVA","sequencia":"5","latitude":"-22.9098","longitude":"-43.2064","pontos_turisticos":[{"nome":"Campo de Santana","distancia":1883},{"nome":"Centro Luiz Gonzaga de Tradições Nordestinas","distancia":1961},{"nome":"Cidade do Samba","distancia":1970},{"nome":"Quinta da Boa Vista/Museu Nacional","distancia":1954},{"nome":"Sambódromo","distancia":997},{"nome":"Teatro Mário Lago","distancia":1894}]},{"linha":"389","descricao_ponto":"Rua Taiacu próximo ao 20204","sequencia":"9","latitude":"-22.8309","longitude":"-43.3508","pontos_turisticos":[]},{"linha":"389","descricao_ponto":"Estrada Agua Branca próximo ao 4627","sequencia":"37","latitude":"-22.862","longitude":"-43.4595","pontos_turisticos":[]},{"linha":"389","descricao_ponto":"Avenida Ministro Ary Franco próximo ao 1174","sequencia":"42","latitude":"-22.8675","longitude":"-43.465","pontos_turisticos":[]},{"linha":"389","descricao_ponto":"Rua Ubatam próximo ao 1859","sequencia":"7","latitude":"-22.8736","longitude":"-43.4877","pontos_turisticos":[{"nome":"Parque Municipal Fazenda do Viegas","distancia":1336}]},{"linha":"389","descricao_ponto":"Avenida Brasil próximo ao 23377","sequencia":"36","latitude":"-22.8535","longitude":"-43.3943","pontos_turisticos":[]},{"linha":"389","descricao_ponto":"Avenida Brasil próximo ao","sequencia":"61","latitude":"-22.8147","longitude":"-43.2963","pontos_turisticos":[]},{"linha":"389","descricao_ponto":"BRS 4, 5 - PRAÇA ONZE","sequencia":"93","latitude":"-22.9086","longitude":"-43.2013","pontos_turisticos":[{"nome":"Campo de Santana","distancia":1345},{"nome":"Cidade do Samba","distancia":1645},{"nome":"Memorial dos Pretos Novos","distancia":1634},{"nome":"Real Gabinete Português de Leitura","distancia":1990},{"nome":"Sambódromo","distancia":557},{"nome":"Teatro Carlos Gomes","distancia":1930},{"nome":"Teatro João Caetano","distancia":1963}]},{"linha":"389","descricao_ponto":"Avenida Brasil próximo ao 2870","sequencia":"26","latitude":"-22.8652","longitude":"-43.422","pontos_turisticos":[]},{"linha":"389","descricao_ponto":"Rua Ubatam próximo ao 1859","sequencia":"92","latitude":"-22.8735","longitude":"-43.4877","pontos_turisticos":[{"nome":"Parque Municipal Fazenda do Viegas","distancia":1347}]},{"linha":"389","descricao_ponto":"Estrada Porto Nacional próximo ao 2385","sequencia":"22","latitude":"-22.8684","longitude":"-43.4615","pontos_turisticos":[]},{"linha":"389","descricao_ponto":"Avenida Brasil próximo ao 17719","sequencia":"53","latitude":"-22.8272","longitude":"-43.3401","pontos_turisticos":[]},{"linha":"389","descricao_ponto":"Avenida Brasil próximo ao 6691","sequencia":"74","latitude":"-22.8472","longitude":"-43.2478","pontos_turisticos":[{"nome":"Praia de Ramos","distancia":980}]},{"linha":"389","descricao_ponto":"AV. BRASIL (PISTA CENTRAL), PRÓXIMO A RUA SANTOS LIMA","sequencia":"89","latitude":"-22.8948","longitude":"-43.2153","pontos_turisticos":[{"nome":"Centro Luiz Gonzaga de Tradições Nordestinas","distancia":470},{"nome":"Cidade do Samba","distancia":1874},{"nome":"Jardim Zoológico (Riozoo)","distancia":1748},{"nome":"Quinta da Boa Vista/Museu Nacional","distancia":1537},{"nome":"Teatro Mário Lago","distancia":749}]},{"linha":"389","descricao_ponto":"Avenida Brasil próximo ao 19850","sequencia":"8","latitude":"-22.8295","longitude":"-43.3471","pontos_turisticos":[]},{"linha":"389","descricao_ponto":"Avenida Brasil próximo ao 460","sequencia":"15","latitude":"-22.8415","longitude":"-43.3718","pontos_turisticos":[]},{"linha":"389","descricao_ponto":"Avenida Brasil próximo ao 28960","sequencia":"32","latitude":"-22.8621","longitude":"-43.4445","pontos_turisticos":[]},{"linha":"389","descricao_ponto":"Avenida Brasil próximo ao 30801","sequencia":"33","latitude":"-22.8618","longitude":"-43.4464","pontos_turisticos":[]},{"linha":"389","descricao_ponto":"Rua Doutor Augusto Figueiredo próximo ao 1905","sequencia":"54","latitude":"-22.8744","longitude":"-43.4851","pontos_turisticos":[{"nome":"Parque Municipal Fazenda do Viegas","distancia":1218}]},{"linha":"389","descricao_ponto":"Avenida Brasil próximo ao 6288","sequencia":"18","latitude":"-22.8566","longitude":"-43.2475","pontos_turisticos":[]},{"linha":"389","descricao_ponto":"Avenida Brasil próximo ao 9020","sequencia":"23","latitude":"-22.8399","longitude":"-43.2535","pontos_turisticos":[{"nome":"Praia de Ramos","distancia":345}]},{"linha":"389","descricao_ponto":"Avenida Brasil próximo ao 27101","sequencia":"61","latitude":"-22.8637","longitude":"-43.416","pontos_turisticos":[]},{"linha":"389","descricao_ponto":"Avenida Brasil próximo ao 29010","sequencia":"66","latitude":"-22.8634","longitude":"-43.4373","pontos_turisticos":[]},{"linha":"389","descricao_ponto":"Rua Doutor Augusto Figueiredo próximo ao 87","sequencia":"86","latitude":"-22.8741","longitude":"-43.4763","pontos_turisticos":[{"nome":"Parque Municipal Fazenda do Viegas","distancia":1538}]},{"linha":"389","descricao_ponto":"Rua Doutor Augusto Figueiredo próximo ao 1905","sequencia":"90","latitude":"-22.8744","longitude":"-43.4851","pontos_turisticos":[{"nome":"Parque Municipal Fazenda do Viegas","distancia":1218}]},{"linha":"389","descricao_ponto":"Avenida Brasil próximo ao 29627","sequencia":"29","latitude":"-22.8635","longitude":"-43.4379","pontos_turisticos":[]},{"linha":"389","descricao_ponto":"Avenida Brasil próximo ao 19405","sequencia":"50","latitude":"-22.83","longitude":"-43.3479","pontos_turisticos":[]}]