[{"linha":"402","descricao_ponto":"Avenida Itaoca próximo ao 221","sequencia":"64","latitude":"-22.8685","longitude":"-43.2749","pontos_turisticos":[]},{"linha":"402","descricao_ponto":"Estrada Velha Da Pavuna próximo ao 4275","sequencia":"75","latitude":"-22.8654","longitude":"-43.2961","pontos_turisticos":[]},{"linha":"402","descricao_ponto":"Rua Pinheiro Machado próximo ao 75","sequencia":"50","latitude":"-22.9406","longitude":"-43.1828","pontos_turisticos":[{"nome":"Aterro do Flamengo","distancia":1712},{"nome":"Cristo Redentor (Corcovado)","distancia":1606},{"nome":"Fundação Casa de Rui Barbosa","distancia":1069},{"nome":"Mirante Dona Marta","distancia":1611},{"nome":"Museu Carmem Miranda","distancia":1068},{"nome":"Museu da República","distancia":1763},{"nome":"Museu de Folclore Edison Carneiro","distancia":1745},{"nome":"Museu do Índio","distancia":1539},{"nome":"Oi Futuro","distancia":1349},{"nome":"Parque Eduardo Guinle","distancia":1023},{"nome":"Praia de Botafogo","distancia":541},{"nome":"Praia do Flamengo","distancia":1712},{"nome":"Santa Teresa","distancia":1835},{"nome":"Teatro Bibi Ferreira","distancia":661},{"nome":"Teatro do Instituto Benjamin Constant","distancia":1774}]},{"linha":"402","descricao_ponto":"BRS 1,2,3,I - FARANI","sequencia":"57","latitude":"-22.9433","longitude":"-43.1809","pontos_turisticos":[{"nome":"Aterro do Flamengo","distancia":1843},{"nome":"Cristo Redentor (Corcovado)","distancia":1829},{"nome":"Fundação Casa de Rui Barbosa","distancia":919},{"nome":"Mirante Dona Marta","distancia":1718},{"nome":"Museu Carmem Miranda","distancia":895},{"nome":"Museu da República","distancia":1991},{"nome":"Museu de Folclore Edison Carneiro","distancia":1972},{"nome":"Museu do Índio","distancia":1440},{"nome":"Oi Futuro","distancia":1549},{"nome":"Pão de Açúcar","distancia":1982},{"nome":"Parque Eduardo Guinle","distancia":1333},{"nome":"Praia da Urca","distancia":1894},{"nome":"Praia de Botafogo","distancia":202},{"nome":"Praia do Flamengo","distancia":1829},{"nome":"Teatro Bibi Ferreira","distancia":548},{"nome":"Teatro do Instituto Benjamin Constant","distancia":1418}]},{"linha":"402","descricao_ponto":"BRS 1, 3, I - JANGADEIROS","sequencia":"15","latitude":"-22.9847","longitude":"-43.1958","pontos_turisticos":[{"nome":"Casa Laura Alvin","distancia":416},{"nome":"Casa Laura Alvin","distancia":416},{"nome":"Centro Cultural Candido Mendes","distancia":948},{"nome":"Forte de Copacabana","distancia":824},{"nome":"Fundação Eva Klabin Rapaport","distancia":1000},{"nome":"Parque Peter Pan","distancia":418},{"nome":"Praia de Ipanema","distancia":809},{"nome":"Praia do Arpoador","distancia":559},{"nome":"Teatro Brigitte Blair","distancia":884},{"nome":"Teatro da Praia","distancia":278},{"nome":"Teatro Ipanema","distancia":923}]},{"linha":"402","descricao_ponto":"Avenida Dom Helder Camara próximo ao 2400","sequencia":"41","latitude":"-22.8907","longitude":"-43.242","pontos_turisticos":[]},{"linha":"402","descricao_ponto":"Avenida Itaoca próximo ao 1919","sequencia":"17","latitude":"-22.8672","longitude":"-43.2722","pontos_turisticos":[]},{"linha":"402","descricao_ponto":"Rua Sao Luiz Gonzaga próximo ao 1688","sequencia":"38","latitude":"-22.8962","longitude":"-43.2369","pontos_turisticos":[{"nome":"Centro Luiz Gonzaga de Tradições Nordestinas","distancia":1800},{"nome":"Jardim Zoológico (Riozoo)","distancia":1231},{"nome":"Quinta da Boa Vista/Museu Nacional","distancia":1603},{"nome":"Teatro Mário Lago","distancia":1676},{"nome":"Teatro Noel Rosa","distancia":1617},{"nome":"Teatro Odylo Costa Filho","distancia":1608}]},{"linha":"402","descricao_ponto":"BRS 1, 2, 3 - GENERAL VENÂNCIO FLORES","sequencia":"76","latitude":"-22.986","longitude":"-43.2252","pontos_turisticos":[{"nome":"Jardim Botânico","distancia":1692},{"nome":"Jockey Club Brasileiro","distancia":1351},{"nome":"Planetário","distancia":949},{"nome":"Praia do Leblon","distancia":365},{"nome":"Teatro Café Pequeno","distancia":783},{"nome":"Teatro Casa da Gávea","distancia":1340},{"nome":"Teatro Casa do Riso","distancia":727},{"nome":"Teatro Clara Nunes","distancia":1191},{"nome":"Teatro das Artes","distancia":1185},{"nome":"Teatro do Jockey","distancia":1001},{"nome":"Teatro dos Quatro","distancia":1183},{"nome":"Teatro Leblon","distancia":629},{"nome":"Teatro Maria Clara Machado","distancia":949},{"nome":"Teatro Vanucci","distancia":1190}]},{"linha":"402","descricao_ponto":"Estrada Velha Da Pavuna próximo ao 2825","sequencia":"8","latitude":"-22.869","longitude":"-43.2843","pontos_turisticos":[]},{"linha":"402","descricao_ponto":"Rua Teixeira Soares próximo ao 59","sequencia":"43","latitude":"-22.9104","longitude":"-43.2217","pontos_turisticos":[{"nome":"Centro Luiz Gonzaga de Tradições Nordestinas","distancia":1530},{"nome":"Estádio do Maracanã","distancia":1023},{"nome":"Jardim Zoológico (Riozoo)","distancia":989},{"nome":"Quinta da Boa Vista/Museu Nacional","distancia":641},{"nome":"Teatro Mário Lago","distancia":1251},{"nome":"Teatro Noel Rosa","distancia":1631},{"nome":"Teatro Odylo Costa Filho","distancia":1362},{"nome":"Teatro Ziembinski","distancia":1195}]},{"linha":"402","descricao_ponto":"Rua Rainha Guilhermina próximo ao 161","sequencia":"78","latitude":"-22.9834","longitude":"-43.228","pontos_turisticos":[{"nome":"Jardim Botânico","distancia":1473},{"nome":"Jockey Club Brasileiro","distancia":1086},{"nome":"Parque da Cidade","distancia":1913},{"nome":"Planetário","distancia":557},{"nome":"Praia do Leblon","distancia":758},{"nome":"Teatro Café Pequeno","distancia":1032},{"nome":"Teatro Casa da Gávea","distancia":1044},{"nome":"Teatro Casa do Riso","distancia":668},{"nome":"Teatro Clara Nunes","distancia":865},{"nome":"Teatro das Artes","distancia":853},{"nome":"Teatro do Jockey","distancia":778},{"nome":"Teatro dos Quatro","distancia":859},{"nome":"Teatro Leblon","distancia":616},{"nome":"Teatro Maria Clara Machado","distancia":556},{"nome":"Teatro Vanucci","distancia":859}]},{"linha":"402","descricao_ponto":"Terminal da PUC - Ponto A2","sequencia":"86","latitude":"-22.9791","longitude":"-43.2312","pontos_turisticos":[{"nome":"Jardim Botânico","distancia":1221},{"nome":"Jockey Club Brasileiro","distancia":809},{"nome":"Parque da Cidade","distancia":1480},{"nome":"Planetário","distancia":102},{"nome":"Praia do Leblon","distancia":1315},{"nome":"Teatro Café Pequeno","distancia":1456},{"nome":"Teatro Casa da Gávea","distancia":708},{"nome":"Teatro Casa do Riso","distancia":873},{"nome":"Teatro Clara Nunes","distancia":502},{"nome":"Teatro das Artes","distancia":479},{"nome":"Teatro do Jockey","distancia":683},{"nome":"Teatro dos Quatro","distancia":501},{"nome":"Teatro Leblon","distancia":896},{"nome":"Teatro Maria Clara Machado","distancia":101},{"nome":"Teatro Vanucci","distancia":485},{"nome":"Vista Chinesa","distancia":1988}]},{"linha":"402","descricao_ponto":"Avenida Dos Democraticos próximo ao 50","sequencia":"32","latitude":"-22.8826","longitude":"-43.254","pontos_turisticos":[]},{"linha":"402","descricao_ponto":"Avenida Visconde De Albuquerque próximo ao 961","sequencia":"6","latitude":"-22.9833","longitude":"-43.2282","pontos_turisticos":[{"nome":"Jardim Botânico","distancia":1470},{"nome":"Jockey Club Brasileiro","distancia":1080},{"nome":"Parque da Cidade","distancia":1890},{"nome":"Planetário","distancia":538},{"nome":"Praia do Leblon","distancia":781},{"nome":"Teatro Café Pequeno","distancia":1053},{"nome":"Teatro Casa da Gávea","distancia":1035},{"nome":"Teatro Casa do Riso","distancia":678},{"nome":"Teatro Clara Nunes","distancia":854},{"nome":"Teatro das Artes","distancia":842},{"nome":"Teatro do Jockey","distancia":777},{"nome":"Teatro dos Quatro","distancia":848},{"nome":"Teatro Leblon","distancia":630},{"nome":"Teatro Maria Clara Machado","distancia":538},{"nome":"Teatro Vanucci","distancia":848}]},{"linha":"402","descricao_ponto":"Viaduto Oduvaldo Cozzi próximo ao 396","sequencia":"32","latitude":"-22.909","longitude":"-43.2224","pontos_turisticos":[{"nome":"Centro Luiz Gonzaga de Tradições Nordestinas","distancia":1391},{"nome":"Estádio do Maracanã","distancia":1025},{"nome":"Jardim Zoológico (Riozoo)","distancia":834},{"nome":"Quinta da Boa Vista/Museu Nacional","distancia":470},{"nome":"Teatro Mário Lago","distancia":1104},{"nome":"Teatro Noel Rosa","distancia":1570},{"nome":"Teatro Odylo Costa Filho","distancia":1302},{"nome":"Teatro Ziembinski","distancia":1338}]},{"linha":"402","descricao_ponto":"Rua Sao Luiz Gonzaga próximo ao 82","sequencia":"39","latitude":"-22.8944","longitude":"-43.2387","pontos_turisticos":[{"nome":"Jardim Zoológico (Riozoo)","distancia":1503},{"nome":"Quinta da Boa Vista/Museu Nacional","distancia":1874},{"nome":"Teatro Mário Lago","distancia":1903},{"nome":"Teatro Noel Rosa","distancia":1819},{"nome":"Teatro Odylo Costa Filho","distancia":1836}]},{"linha":"402","descricao_ponto":"Avenida Dos Democraticos próximo ao 896","sequencia":"48","latitude":"-22.8764","longitude":"-43.2569","pontos_turisticos":[]},{"linha":"402","descricao_ponto":"Avenida Itaoca próximo ao 2516","sequencia":"66","latitude":"-22.8731","longitude":"-43.278","pontos_turisticos":[{"nome":"Teatro Miguel Falabella","distancia":1677}]},{"linha":"402","descricao_ponto":"Avenida Itaoca próximo ao 958","sequencia":"18","latitude":"-22.8681","longitude":"-43.269","pontos_turisticos":[]},{"linha":"402","descricao_ponto":"Estrada Velha Da Pavuna próximo ao 550","sequencia":"22","latitude":"-22.8738","longitude":"-43.2666","pontos_turisticos":[]},{"linha":"402","descricao_ponto":"Estrada Do Timbo próximo ao 278","sequencia":"24","latitude":"-22.8703","longitude":"-43.2683","pontos_turisticos":[]},{"linha":"402","descricao_ponto":"BRS 3, I - JÚLIO DE CASTILHOS","sequencia":"68","latitude":"-22.9839","longitude":"-43.1917","pontos_turisticos":[{"nome":"Casa Laura Alvin","distancia":832},{"nome":"Casa Laura Alvin","distancia":832},{"nome":"Centro Cultural Candido Mendes","distancia":1372},{"nome":"Forte de Copacabana","distancia":449},{"nome":"Fundação Eva Klabin Rapaport","distancia":1101},{"nome":"Parque Peter Pan","distancia":88},{"nome":"Praia de Ipanema","distancia":1236},{"nome":"Praia do Arpoador","distancia":566},{"nome":"Teatro Brigitte Blair","distancia":666},{"nome":"Teatro da Praia","distancia":171},{"nome":"Teatro Ipanema","distancia":1349}]},{"linha":"402","descricao_ponto":"Viaduto Engenheiro Noronha próximo ao 172","sequencia":"26","latitude":"-22.9334","longitude":"-43.1845","pontos_turisticos":[{"nome":"Aterro do Flamengo","distancia":1389},{"nome":"Cristo Redentor (Corcovado)","distancia":1632},{"nome":"Fundação Casa de Rui Barbosa","distancia":1801},{"nome":"Igreja Nossa Senhora da Glória do Outeiro","distancia":1638},{"nome":"Mirante Dona Marta","distancia":1921},{"nome":"Museu Carmem Miranda","distancia":1524},{"nome":"Museu da Chácara do Céu","distancia":1786},{"nome":"Museu da República","distancia":1175},{"nome":"Museu de Folclore Edison Carneiro","distancia":1164},{"nome":"Oi Futuro","distancia":913},{"nome":"Parque das Ruínas","distancia":1774},{"nome":"Parque Eduardo Guinle","distancia":303},{"nome":"Praia de Botafogo","distancia":1355},{"nome":"Praia do Flamengo","distancia":1422},{"nome":"Santa Teresa","distancia":1398},{"nome":"Teatro Bibi Ferreira","distancia":1411},{"nome":"Teatro Glória","distancia":1675}]},{"linha":"402","descricao_ponto":"Estrada Velha Da Pavuna próximo ao 3461","sequencia":"6","latitude":"-22.8662","longitude":"-43.2885","pontos_turisticos":[]},{"linha":"402","descricao_ponto":"BRS 3, I - BARÃO DE IPANEMA","sequencia":"66","latitude":"-22.974","longitude":"-43.1914","pontos_turisticos":[{"nome":"Casa Laura Alvin","distancia":1623},{"nome":"Casa Laura Alvin","distancia":1623},{"nome":"Centro Cultural Candido Mendes","distancia":1847},{"nome":"Espaço Cultura Sergio Porto","distancia":1932},{"nome":"Forte de Copacabana","distancia":1364},{"nome":"Fundação Eva Klabin Rapaport","distancia":724},{"nome":"Parque Peter Pan","distancia":1024},{"nome":"Praia de Copacabana","distancia":1395},{"nome":"Praia de Ipanema","distancia":1902},{"nome":"Praia do Arpoador","distancia":1662},{"nome":"Sala Baden Powell","distancia":1343},{"nome":"Teatro Brigitte Blair","distancia":436},{"nome":"Teatro da Praia","distancia":1089},{"nome":"Teatro Gláucio Gil","distancia":1446},{"nome":"Teatro Ipanema","distancia":1860}]},{"linha":"402","descricao_ponto":"Rua Vcgove Rubens Berardo próximo ao 1","sequencia":"85","latitude":"-22.9786","longitude":"-43.2297","pontos_turisticos":[{"nome":"Jardim Botânico","distancia":1081},{"nome":"Jockey Club Brasileiro","distancia":666},{"nome":"Parque da Cidade","distancia":1628},{"nome":"Planetário","distancia":62},{"nome":"Praia do Leblon","distancia":1251},{"nome":"Teatro Café Pequeno","distancia":1338},{"nome":"Teatro Casa da Gávea","distancia":577},{"nome":"Teatro Casa do Riso","distancia":729},{"nome":"Teatro Clara Nunes","distancia":371},{"nome":"Teatro das Artes","distancia":351},{"nome":"Teatro do Jockey","distancia":520},{"nome":"Teatro dos Quatro","distancia":368},{"nome":"Teatro Leblon","distancia":764},{"nome":"Teatro Maria Clara Machado","distancia":62},{"nome":"Teatro Vanucci","distancia":357}]},{"linha":"402","descricao_ponto":"Avenida Visconde De Albuquerque próximo ao 1","sequencia":"8","latitude":"-22.9882","longitude":"-43.2283","pontos_turisticos":[{"nome":"Jardim Botânico","distancia":1993},{"nome":"Jockey Club Brasileiro","distancia":1616},{"nome":"Planetário","distancia":1060},{"nome":"Praia do Leblon","distancia":662},{"nome":"Teatro Café Pequeno","distancia":1168},{"nome":"Teatro Casa da Gávea","distancia":1578},{"nome":"Teatro Casa do Riso","distancia":1088},{"nome":"Teatro Clara Nunes","distancia":1399},{"nome":"Teatro das Artes","distancia":1387},{"nome":"Teatro do Jockey","distancia":1293},{"nome":"Teatro dos Quatro","distancia":1393},{"nome":"Teatro Leblon","distancia":1001},{"nome":"Teatro Maria Clara Machado","distancia":1059},{"nome":"Teatro Vanucci","distancia":1392}]},{"linha":"402","descricao_ponto":"BRS 1, 3 - VINÍCIUS DE MORAES","sequencia":"14","latitude":"-22.9844","longitude":"-43.2016","pontos_turisticos":[{"nome":"Casa Laura Alvin","distancia":350},{"nome":"Casa Laura Alvin","distancia":350},{"nome":"Centro Cultural Candido Mendes","distancia":358},{"nome":"Forte de Copacabana","distancia":1417},{"nome":"Fundação Eva Klabin Rapaport","distancia":1002},{"nome":"Lagoa Rodrigo de Freitas","distancia":1787},{"nome":"Parque Peter Pan","distancia":985},{"nome":"Praia de Ipanema","distancia":353},{"nome":"Praia do Arpoador","distancia":1032},{"nome":"Teatro Brigitte Blair","distancia":1278},{"nome":"Teatro Café Pequeno","distancia":1673},{"nome":"Teatro da Praia","distancia":850},{"nome":"Teatro Ipanema","distancia":342}]},{"linha":"402","descricao_ponto":"BRS 3A, 5 - PRAÇA ONZE","sequencia":"27","latitude":"-22.9076","longitude":"-43.1997","pontos_turisticos":[{"nome":"Campo de Santana","distancia":1169},{"nome":"Catedral Metropolitana","distancia":1977},{"nome":"Cidade do Samba","distancia":1500},{"nome":"Memorial dos Pretos Novos","distancia":1456},{"nome":"Museu da Chácara do Céu","distancia":1928},{"nome":"Real Gabinete Português de Leitura","distancia":1811},{"nome":"Sambódromo","distancia":521},{"nome":"Teatro Carlos Gomes","distancia":1760},{"nome":"Teatro João Caetano","distancia":1788}]},{"linha":"402","descricao_ponto":"Rua Ana Neri próximo ao 1688","sequencia":"35","latitude":"-22.8987","longitude":"-43.2376","pontos_turisticos":[{"nome":"Centro Luiz Gonzaga de Tradições Nordestinas","distancia":1882},{"nome":"Estádio do Maracanã","distancia":1787},{"nome":"Jardim Zoológico (Riozoo)","distancia":1100},{"nome":"Quinta da Boa Vista/Museu Nacional","distancia":1503},{"nome":"Teatro Mário Lago","distancia":1716},{"nome":"Teatro Noel Rosa","distancia":1338},{"nome":"Teatro Odylo Costa Filho","distancia":1345}]},{"linha":"402","descricao_ponto":"Estrada Velha Da Pavuna próximo ao 4181","sequencia":"74","latitude":"-22.8651","longitude":"-43.2944","pontos_turisticos":[]},{"linha":"402","descricao_ponto":"Rua Benedito Hipolito próximo ao 425","sequencia":"48","latitude":"-22.9085","longitude":"-43.198","pontos_turisticos":[{"nome":"Arcos da Lapa","distancia":1916},{"nome":"Campo de Santana","distancia":1011},{"nome":"Catedral Metropolitana","distancia":1789},{"nome":"Cidade do Samba","distancia":1578},{"nome":"Confeitaria Colombo","distancia":1999},{"nome":"Igreja de São Francisco da Penitência","distancia":1928},{"nome":"Igreja e Convento de Santa Teresa","distancia":1979},{"nome":"Memorial dos Pretos Novos","distancia":1475},{"nome":"Museu da Chácara do Céu","distancia":1727},{"nome":"Parque das Ruínas","distancia":1883},{"nome":"Real Gabinete Português de Leitura","distancia":1656},{"nome":"Sambódromo","distancia":351},{"nome":"Teatro Carlos Gomes","distancia":1592},{"nome":"Teatro João Caetano","distancia":1626}]},{"linha":"402","descricao_ponto":"Avenida Visconde De Albuquerque proximo ao 920","sequencia":"80","latitude":"-22.9808","longitude":"-43.2264","pontos_turisticos":[{"nome":"Jardim Botânico","distancia":1148},{"nome":"Jockey Club Brasileiro","distancia":775},{"nome":"Lagoa Rodrigo de Freitas","distancia":1836},{"nome":"Parque da Cidade","distancia":1995},{"nome":"Planetário","distancia":450},{"nome":"Praia do Leblon","distancia":854},{"nome":"Teatro Café Pequeno","distancia":930},{"nome":"Teatro Casa da Gávea","distancia":752},{"nome":"Teatro Casa do Riso","distancia":391},{"nome":"Teatro Clara Nunes","distancia":601},{"nome":"Teatro das Artes","distancia":596},{"nome":"Teatro do Jockey","distancia":449},{"nome":"Teatro dos Quatro","distancia":593},{"nome":"Teatro Leblon","distancia":384},{"nome":"Teatro Maria Clara Machado","distancia":450},{"nome":"Teatro Vanucci","distancia":601}]},{"linha":"402","descricao_ponto":"Rua Ana Neri próximo ao 15","sequencia":"34","latitude":"-22.899","longitude":"-43.2397","pontos_turisticos":[{"nome":"Estádio do Maracanã","distancia":1849},{"nome":"Jardim Zoológico (Riozoo)","distancia":1266},{"nome":"Quinta da Boa Vista/Museu Nacional","distancia":1678},{"nome":"Teatro Mário Lago","distancia":1930},{"nome":"Teatro Noel Rosa","distancia":1322},{"nome":"Teatro Odylo Costa Filho","distancia":1372}]},{"linha":"402","descricao_ponto":"Rua Santa Mariana próximo ao 186","sequencia":"58","latitude":"-22.8698","longitude":"-43.2657","pontos_turisticos":[]},{"linha":"402","descricao_ponto":"Estrada Do Timbo próximo ao 278","sequencia":"19","latitude":"-22.8702","longitude":"-43.2684","pontos_turisticos":[]},{"linha":"402","descricao_ponto":"Rua Teixeira Soares próximo ao 1","sequencia":"45","latitude":"-22.9114","longitude":"-43.2144","pontos_turisticos":[{"nome":"Centro Luiz Gonzaga de Tradições Nordestinas","distancia":1700},{"nome":"Estádio do Maracanã","distancia":1725},{"nome":"Jardim Zoológico (Riozoo)","distancia":1670},{"nome":"Quinta da Boa Vista/Museu Nacional","distancia":1262},{"nome":"Sambódromo","distancia":1799},{"nome":"Teatro Mário Lago","distancia":1511},{"nome":"Teatro Ziembinski","distancia":1441}]},{"linha":"402","descricao_ponto":"Avenida Das Nacoes Unidas próximo ao 501","sequencia":"60","latitude":"-22.9495","longitude":"-43.1806","pontos_turisticos":[{"nome":"Fundação Casa de Rui Barbosa","distancia":646},{"nome":"Mirante Dona Marta","distancia":1770},{"nome":"Museu Carmem Miranda","distancia":1231},{"nome":"Museu do Índio","distancia":1132},{"nome":"Pão de Açúcar","distancia":1560},{"nome":"Praia da Urca","distancia":1807},{"nome":"Praia de Botafogo","distancia":488},{"nome":"Praia Vermelha","distancia":1745},{"nome":"Sala Baden Powell","distancia":1959},{"nome":"Teatro Bibi Ferreira","distancia":616},{"nome":"Teatro do Instituto Benjamin Constant","distancia":968},{"nome":"Teatro Gláucio Gil","distancia":1768},{"nome":"Teatro Princesa Isabel","distancia":1635},{"nome":"Teatro Villa Lobos","distancia":1421}]},{"linha":"402","descricao_ponto":"BRS 1, 2, 3, I - DUVIVIER","sequencia":"62","latitude":"-22.9638","longitude":"-43.1784","pontos_turisticos":[{"nome":"Fundação Casa de Rui Barbosa","distancia":1819},{"nome":"Museu do Índio","distancia":1862},{"nome":"Pão de Açúcar","distancia":1492},{"nome":"Praia de Copacabana","distancia":537},{"nome":"Praia Leme","distancia":1210},{"nome":"Praia Vermelha","distancia":1708},{"nome":"Sala Baden Powell","distancia":434},{"nome":"Teatro do Instituto Benjamin Constant","distancia":1365},{"nome":"Teatro Gláucio Gil","distancia":303},{"nome":"Teatro Princesa Isabel","distancia":428},{"nome":"Teatro Villa Lobos","distancia":423}]},{"linha":"402","descricao_ponto":"Terminal Da Puc próximo ao S/n","sequencia":"1","latitude":"-22.979","longitude":"-43.2309","pontos_turisticos":[{"nome":"Jardim Botânico","distancia":1193},{"nome":"Jockey Club Brasileiro","distancia":780},{"nome":"Parque da Cidade","distancia":1510},{"nome":"Planetário","distancia":69},{"nome":"Praia do Leblon","distancia":1301},{"nome":"Teatro Café Pequeno","distancia":1432},{"nome":"Teatro Casa da Gávea","distancia":680},{"nome":"Teatro Casa do Riso","distancia":844},{"nome":"Teatro Clara Nunes","distancia":474},{"nome":"Teatro das Artes","distancia":452},{"nome":"Teatro do Jockey","distancia":650},{"nome":"Teatro dos Quatro","distancia":473},{"nome":"Teatro Leblon","distancia":869},{"nome":"Teatro Maria Clara Machado","distancia":69},{"nome":"Teatro Vanucci","distancia":458}]},{"linha":"402","descricao_ponto":"Avenida Visconde De Albuquerque proximo ao 1165","sequencia":"4","latitude":"-22.9795","longitude":"-43.2266","pontos_turisticos":[{"nome":"Jardim Botânico","distancia":1016},{"nome":"Jockey Club Brasileiro","distancia":633},{"nome":"Lagoa Rodrigo de Freitas","distancia":1774},{"nome":"Parque da Cidade","distancia":1953},{"nome":"Planetário","distancia":381},{"nome":"Praia do Leblon","distancia":989},{"nome":"Teatro Amador O Tablado","distancia":1903},{"nome":"Teatro Café Pequeno","distancia":1009},{"nome":"Teatro Casa da Gávea","distancia":606},{"nome":"Teatro Casa do Riso","distancia":400},{"nome":"Teatro Clara Nunes","distancia":457},{"nome":"Teatro das Artes","distancia":453},{"nome":"Teatro do Jockey","distancia":326},{"nome":"Teatro dos Quatro","distancia":449},{"nome":"Teatro Leblon","distancia":431},{"nome":"Teatro Maria Clara Machado","distancia":381},{"nome":"Teatro Vanucci","distancia":458}]},{"linha":"402","descricao_ponto":"Estrada Velha Da Pavuna próximo ao","sequencia":"1","latitude":"-22.8655","longitude":"-43.2998","pontos_turisticos":[]},{"linha":"402","descricao_ponto":"Rua Sao Luiz Gonzaga próximo ao 1688","sequencia":"37","latitude":"-22.8975","longitude":"-43.2368","pontos_turisticos":[{"nome":"Centro Luiz Gonzaga de Tradições Nordestinas","distancia":1790},{"nome":"Estádio do Maracanã","distancia":1884},{"nome":"Jardim Zoológico (Riozoo)","distancia":1121},{"nome":"Quinta da Boa Vista/Museu Nacional","distancia":1506},{"nome":"Teatro Mário Lago","distancia":1644},{"nome":"Teatro Noel Rosa","distancia":1474},{"nome":"Teatro Odylo Costa Filho","distancia":1463}]},{"linha":"402","descricao_ponto":"Avenida Dos Democraticos próximo ao 1806","sequencia":"50","latitude":"-22.8704","longitude":"-43.2584","pontos_turisticos":[]},{"linha":"402","descricao_ponto":"Estrada Velha Da Pavuna próximo ao 44","sequencia":"2","latitude":"-22.8653","longitude":"-43.2987","pontos_turisticos":[]},{"linha":"402","descricao_ponto":"BRS 1,2,3,I - VISCONDE DE OURO PRETO","sequencia":"56","latitude":"-22.9472","longitude":"-43.1822","pontos_turisticos":[{"nome":"Cristo Redentor (Corcovado)","distancia":1829},{"nome":"Fundação Casa de Rui Barbosa","distancia":543},{"nome":"Mirante Dona Marta","distancia":1567},{"nome":"Museu Carmem Miranda","distancia":1193},{"nome":"Museu do Índio","distancia":1075},{"nome":"Pão de Açúcar","distancia":1825},{"nome":"Parque Eduardo Guinle","distancia":1757},{"nome":"Praia da Urca","distancia":1961},{"nome":"Praia de Botafogo","distancia":270},{"nome":"Praia Vermelha","distancia":1997},{"nome":"Teatro Bibi Ferreira","distancia":344},{"nome":"Teatro do Instituto Benjamin Constant","distancia":1233},{"nome":"Teatro Princesa Isabel","distancia":1935},{"nome":"Teatro Villa Lobos","distancia":1721}]},{"linha":"402","descricao_ponto":"Avenida Lauro Sodre próximo ao 150","sequencia":"61","latitude":"-22.9549","longitude":"-43.1783","pontos_turisticos":[{"nome":"Fundação Casa de Rui Barbosa","distancia":1070},{"nome":"Museu Carmem Miranda","distancia":1619},{"nome":"Museu do Índio","distancia":1371},{"nome":"Pão de Açúcar","distancia":1172},{"nome":"Praia da Urca","distancia":1750},{"nome":"Praia de Botafogo","distancia":1119},{"nome":"Praia de Copacabana","distancia":1524},{"nome":"Praia Leme","distancia":1512},{"nome":"Praia Vermelha","distancia":1395},{"nome":"Sala Baden Powell","distancia":1379},{"nome":"Teatro Bibi Ferreira","distancia":1217},{"nome":"Teatro do Instituto Benjamin Constant","distancia":680},{"nome":"Teatro Gláucio Gil","distancia":1195},{"nome":"Teatro Princesa Isabel","distancia":990},{"nome":"Teatro Villa Lobos","distancia":777}]},{"linha":"402","descricao_ponto":"BRS 1, 3 - TEIXEIRA DE MELO","sequencia":"71","latitude":"-22.9856","longitude":"-43.1998","pontos_turisticos":[{"nome":"Casa Laura Alvin","distancia":133},{"nome":"Casa Laura Alvin","distancia":133},{"nome":"Centro Cultural Candido Mendes","distancia":545},{"nome":"Forte de Copacabana","distancia":1224},{"nome":"Fundação Eva Klabin Rapaport","distancia":1084},{"nome":"Parque Peter Pan","distancia":836},{"nome":"Praia de Ipanema","distancia":393},{"nome":"Praia do Arpoador","distancia":806},{"nome":"Teatro Brigitte Blair","distancia":1220},{"nome":"Teatro Café Pequeno","distancia":1866},{"nome":"Teatro da Praia","distancia":696},{"nome":"Teatro Ipanema","distancia":512}]},{"linha":"402","descricao_ponto":"Rua Marq De Sao Vicente próximo ao 124","sequencia":"84","latitude":"-22.9766","longitude":"-43.2296","pontos_turisticos":[{"nome":"Jardim Botânico","distancia":907},{"nome":"Jockey Club Brasileiro","distancia":501},{"nome":"Lagoa Rodrigo de Freitas","distancia":1922},{"nome":"Parque da Cidade","distancia":1637},{"nome":"Planetário","distancia":258},{"nome":"Praia do Leblon","distancia":1424},{"nome":"Teatro Amador O Tablado","distancia":1849},{"nome":"Teatro Café Pequeno","distancia":1439},{"nome":"Teatro Casa da Gávea","distancia":390},{"nome":"Teatro Casa do Riso","distancia":794},{"nome":"Teatro Clara Nunes","distancia":191},{"nome":"Teatro das Artes","distancia":166},{"nome":"Teatro do Jockey","distancia":480},{"nome":"Teatro dos Quatro","distancia":192},{"nome":"Teatro Leblon","distancia":854},{"nome":"Teatro Maria Clara Machado","distancia":258},{"nome":"Teatro Vanucci","distancia":171}]},{"linha":"402","descricao_ponto":"BRS 1, 3, I - CONSELHEIRO LAFAIETE","sequencia":"16","latitude":"-22.9836","longitude":"-43.1935","pontos_turisticos":[{"nome":"Casa Laura Alvin","distancia":680},{"nome":"Casa Laura Alvin","distancia":680},{"nome":"Centro Cultural Candido Mendes","distancia":1191},{"nome":"Forte de Copacabana","distancia":629},{"nome":"Fundação Eva Klabin Rapaport","distancia":972},{"nome":"Parque Peter Pan","distancia":154},{"nome":"Praia de Ipanema","distancia":1073},{"nome":"Praia do Arpoador","distancia":593},{"nome":"Teatro Brigitte Blair","distancia":671},{"nome":"Teatro da Praia","distancia":17},{"nome":"Teatro Ipanema","distancia":1171}]},{"linha":"402","descricao_ponto":"Rua Santa Mariana próximo ao 290","sequencia":"57","latitude":"-22.87","longitude":"-43.2623","pontos_turisticos":[]},{"linha":"402","descricao_ponto":"Avenida Bartolomeu Mitre próximo ao 95","sequencia":"83","latitude":"-22.9751","longitude":"-43.2258","pontos_turisticos":[{"nome":"Jardim Botânico","distancia":535},{"nome":"Jockey Club Brasileiro","distancia":138},{"nome":"Lagoa Rodrigo de Freitas","distancia":1501},{"nome":"Planetário","distancia":617},{"nome":"Praia do Leblon","distancia":1411},{"nome":"Teatro Amador O Tablado","distancia":1460},{"nome":"Teatro Café Pequeno","distancia":1261},{"nome":"Teatro Casa da Gávea","distancia":167},{"nome":"Teatro Casa do Riso","distancia":618},{"nome":"Teatro Clara Nunes","distancia":240},{"nome":"Teatro das Artes","distancia":264},{"nome":"Teatro do Jockey","distancia":229},{"nome":"Teatro dos Quatro","distancia":236},{"nome":"Teatro Leblon","distancia":716},{"nome":"Teatro Maria Clara Machado","distancia":617},{"nome":"Teatro Vanucci","distancia":260}]},{"linha":"402","descricao_ponto":"Nome do ponto nao identificado","sequencia":"12","latitude":"-22.9838","longitude":"-43.2118","pontos_turisticos":[{"nome":"Casa Laura Alvin","distancia":1325},{"nome":"Casa Laura Alvin","distancia":1325},{"nome":"Centro Cultural Candido Mendes","distancia":700},{"nome":"Fundação Eva Klabin Rapaport","distancia":1647},{"nome":"Jardim Botânico","distancia":1856},{"nome":"Jockey Club Brasileiro","distancia":1803},{"nome":"Lagoa Rodrigo de Freitas","distancia":1388},{"nome":"Planetário","distancia":1967},{"nome":"Praia de Ipanema","distancia":955},{"nome":"Praia do Leblon","distancia":1105},{"nome":"Teatro Café Pequeno","distancia":627},{"nome":"Teatro Casa da Gávea","distancia":1894},{"nome":"Teatro Casa do Riso","distancia":1199},{"nome":"Teatro Clara Nunes","distancia":1898},{"nome":"Teatro da Praia","distancia":1890},{"nome":"Teatro das Artes","distancia":1911},{"nome":"Teatro do Jockey","distancia":1543},{"nome":"Teatro dos Quatro","distancia":1890},{"nome":"Teatro Ipanema","distancia":737},{"nome":"Teatro Leblon","distancia":1158},{"nome":"Teatro Maria Clara Machado","distancia":1967},{"nome":"Teatro Vanucci","distancia":1912}]},{"linha":"402","descricao_ponto":"Avenida Venceslau Braz próximo ao 3554","sequencia":"24","latitude":"-22.9528","longitude":"-43.1762","pontos_turisticos":[{"nome":"Fundação Casa de Rui Barbosa","distancia":1158},{"nome":"Museu Carmem Miranda","distancia":1327},{"nome":"Museu do Índio","distancia":1550},{"nome":"Pão de Açúcar","distancia":1004},{"nome":"Praia da Urca","distancia":1457},{"nome":"Praia de Botafogo","distancia":978},{"nome":"Praia de Copacabana","distancia":1781},{"nome":"Praia Leme","distancia":1517},{"nome":"Praia Vermelha","distancia":1207},{"nome":"Sala Baden Powell","distancia":1655},{"nome":"Teatro Bibi Ferreira","distancia":1197},{"nome":"Teatro do Instituto Benjamin Constant","distancia":434},{"nome":"Teatro Gláucio Gil","distancia":1478},{"nome":"Teatro Princesa Isabel","distancia":1152},{"nome":"Teatro Villa Lobos","distancia":951}]},{"linha":"402","descricao_ponto":"Estrada Velha Da Pavuna próximo ao 4563","sequencia":"76","latitude":"-22.8654","longitude":"-43.2995","pontos_turisticos":[]},{"linha":"402","descricao_ponto":"Avenida Padre Leonel Franca próximo ao 110","sequencia":"3","latitude":"-22.9786","longitude":"-43.2271","pontos_turisticos":[{"nome":"Jardim Botânico","distancia":943},{"nome":"Jockey Club Brasileiro","distancia":546},{"nome":"Lagoa Rodrigo de Freitas","distancia":1770},{"nome":"Parque da Cidade","distancia":1893},{"nome":"Planetário","distancia":323},{"nome":"Praia do Leblon","distancia":1101},{"nome":"Teatro Amador O Tablado","distancia":1849},{"nome":"Teatro Café Pequeno","distancia":1104},{"nome":"Teatro Casa da Gávea","distancia":505},{"nome":"Teatro Casa do Riso","distancia":471},{"nome":"Teatro Clara Nunes","distancia":346},{"nome":"Teatro das Artes","distancia":341},{"nome":"Teatro do Jockey","distancia":285},{"nome":"Teatro dos Quatro","distancia":338},{"nome":"Teatro Leblon","distancia":520},{"nome":"Teatro Maria Clara Machado","distancia":324},{"nome":"Teatro Vanucci","distancia":346}]},{"linha":"402","descricao_ponto":"BRS 3, I - SOUSA LIMA","sequencia":"17","latitude":"-22.9824","longitude":"-43.191","pontos_turisticos":[{"nome":"Casa Laura Alvin","distancia":969},{"nome":"Casa Laura Alvin","distancia":969},{"nome":"Centro Cultural Candido Mendes","distancia":1465},{"nome":"Forte de Copacabana","distancia":499},{"nome":"Fundação Eva Klabin Rapaport","distancia":1023},{"nome":"Parque Peter Pan","distancia":140},{"nome":"Praia de Copacabana","distancia":1960},{"nome":"Praia de Ipanema","distancia":1361},{"nome":"Praia do Arpoador","distancia":744},{"nome":"Teatro Brigitte Blair","distancia":499},{"nome":"Teatro da Praia","distancia":276},{"nome":"Teatro Ipanema","distancia":1448}]},{"linha":"402","descricao_ponto":"Estrada Velha Da Pavuna próximo ao 1947","sequencia":"13","latitude":"-22.8729","longitude":"-43.2805","pontos_turisticos":[{"nome":"Teatro Miguel Falabella","distancia":1639}]},{"linha":"402","descricao_ponto":"Viaduto De Benfica próximo ao 517","sequencia":"35","latitude":"-22.8899","longitude":"-43.2445","pontos_turisticos":[]},{"linha":"402","descricao_ponto":"Avenida Oswaldo Aranha próximo ao 200","sequencia":"31","latitude":"-22.9099","longitude":"-43.221","pontos_turisticos":[{"nome":"Centro Luiz Gonzaga de Tradições Nordestinas","distancia":1466},{"nome":"Estádio do Maracanã","distancia":1110},{"nome":"Jardim Zoológico (Riozoo)","distancia":1008},{"nome":"Quinta da Boa Vista/Museu Nacional","distancia":636},{"nome":"Teatro Mário Lago","distancia":1192},{"nome":"Teatro Noel Rosa","distancia":1704},{"nome":"Teatro Odylo Costa Filho","distancia":1436},{"nome":"Teatro Ziembinski","distancia":1264}]},{"linha":"402","descricao_ponto":"Avenida Dom Helder Camara próximo ao 1325","sequencia":"34","latitude":"-22.8865","longitude":"-43.2513","pontos_turisticos":[]},{"linha":"402","descricao_ponto":"Rua Senador Bernardo Monteiro próximo ao 1258","sequencia":"39","latitude":"-22.8955","longitude":"-43.24","pontos_turisticos":[{"nome":"Jardim Zoológico (Riozoo)","distancia":1513},{"nome":"Quinta da Boa Vista/Museu Nacional","distancia":1902},{"nome":"Teatro Noel Rosa","distancia":1711},{"nome":"Teatro Odylo Costa Filho","distancia":1751}]},{"linha":"402","descricao_ponto":"Avenida Visconde De Albuquerque próximo ao 1335","sequencia":"7","latitude":"-22.9843","longitude":"-43.2291","pontos_turisticos":[{"nome":"Jardim Botânico","distancia":1606},{"nome":"Jockey Club Brasileiro","distancia":1211},{"nome":"Parque da Cidade","distancia":1847},{"nome":"Planetário","distancia":618},{"nome":"Praia do Leblon","distancia":807},{"nome":"Teatro Café Pequeno","distancia":1145},{"nome":"Teatro Casa da Gávea","distancia":1159},{"nome":"Teatro Casa do Riso","distancia":818},{"nome":"Teatro Clara Nunes","distancia":971},{"nome":"Teatro das Artes","distancia":957},{"nome":"Teatro do Jockey","distancia":917},{"nome":"Teatro dos Quatro","distancia":965},{"nome":"Teatro Leblon","distancia":763},{"nome":"Teatro Maria Clara Machado","distancia":618},{"nome":"Teatro Vanucci","distancia":963}]},{"linha":"402","descricao_ponto":"Rua Sao Luiz Gonzaga próximo ao 2074","sequencia":"36","latitude":"-22.8989","longitude":"-43.2359","pontos_turisticos":[{"nome":"Centro Luiz Gonzaga de Tradições Nordestinas","distancia":1712},{"nome":"Estádio do Maracanã","distancia":1708},{"nome":"Jardim Zoológico (Riozoo)","distancia":948},{"nome":"Quinta da Boa Vista/Museu Nacional","distancia":1342},{"nome":"Teatro Mário Lago","distancia":1541},{"nome":"Teatro Noel Rosa","distancia":1327},{"nome":"Teatro Odylo Costa Filho","distancia":1299}]},{"linha":"402","descricao_ponto":"Estrada Do Timbo próximo ao 144","sequencia":"59","latitude":"-22.8691","longitude":"-43.268","pontos_turisticos":[]},{"linha":"402","descricao_ponto":"Estrada Velha Da Pavuna próximo ao 3821","sequencia":"73","latitude":"-22.8654","longitude":"-43.2921","pontos_turisticos":[]},{"linha":"402","descricao_ponto":"Rua Muniz Barreto próximo ao 100","sequencia":"51","latitude":"-22.9435","longitude":"-43.1836","pontos_turisticos":[{"nome":"Cristo Redentor (Corcovado)","distancia":1562},{"nome":"Fundação Casa de Rui Barbosa","distancia":742},{"nome":"Mirante Dona Marta","distancia":1442},{"nome":"Museu Carmem Miranda","distancia":1170},{"nome":"Museu do Índio","distancia":1232},{"nome":"Oi Futuro","distancia":1673},{"nome":"Parque Eduardo Guinle","distancia":1350},{"nome":"Praia de Botafogo","distancia":335},{"nome":"Santa Teresa","distancia":1960},{"nome":"Teatro Bibi Ferreira","distancia":336},{"nome":"Teatro do Instituto Benjamin Constant","distancia":1596}]},{"linha":"402","descricao_ponto":"Avenida Das Nacoes Unidas próximo ao 402","sequencia":"59","latitude":"-22.9457","longitude":"-43.1818","pontos_turisticos":[{"nome":"Cristo Redentor (Corcovado)","distancia":1806},{"nome":"Fundação Casa de Rui Barbosa","distancia":668},{"nome":"Mirante Dona Marta","distancia":1601},{"nome":"Museu Carmem Miranda","distancia":1074},{"nome":"Museu do Índio","distancia":1200},{"nome":"Oi Futuro","distancia":1832},{"nome":"Pão de Açúcar","distancia":1883},{"nome":"Parque Eduardo Guinle","distancia":1592},{"nome":"Praia da Urca","distancia":1933},{"nome":"Praia de Botafogo","distancia":118},{"nome":"Teatro Bibi Ferreira","distancia":364},{"nome":"Teatro do Instituto Benjamin Constant","distancia":1297},{"nome":"Teatro Villa Lobos","distancia":1859}]},{"linha":"402","descricao_ponto":"Estrada Velha Da Pavuna próximo ao 3497","sequencia":"71","latitude":"-22.866","longitude":"-43.2886","pontos_turisticos":[]},{"linha":"402","descricao_ponto":"Rua Teixeira De Macedo próximo ao 13","sequencia":"11","latitude":"-22.8731","longitude":"-43.2819","pontos_turisticos":[{"nome":"Teatro Miguel Falabella","distancia":1600}]},{"linha":"402","descricao_ponto":"Avenida Itaoca próximo ao 2691","sequencia":"14","latitude":"-22.8719","longitude":"-43.2768","pontos_turisticos":[{"nome":"Teatro Miguel Falabella","distancia":1843}]},{"linha":"402","descricao_ponto":"Nome do ponto nao identificado","sequencia":"70","latitude":"-22.9857","longitude":"-43.197","pontos_turisticos":[{"nome":"Casa Laura Alvin","distancia":254},{"nome":"Casa Laura Alvin","distancia":254},{"nome":"Centro Cultural Candido Mendes","distancia":830},{"nome":"Forte de Copacabana","distancia":937},{"nome":"Fundação Eva Klabin Rapaport","distancia":1088},{"nome":"Parque Peter Pan","distancia":577},{"nome":"Praia de Ipanema","distancia":659},{"nome":"Praia do Arpoador","distancia":559},{"nome":"Teatro Brigitte Blair","distancia":1044},{"nome":"Teatro da Praia","distancia":439},{"nome":"Teatro Ipanema","distancia":799}]},{"linha":"402","descricao_ponto":"BRS 3, I - BOLÍVAR","sequencia":"18","latitude":"-22.9762","longitude":"-43.1901","pontos_turisticos":[{"nome":"Casa Laura Alvin","distancia":1495},{"nome":"Casa Laura Alvin","distancia":1495},{"nome":"Centro Cultural Candido Mendes","distancia":1809},{"nome":"Forte de Copacabana","distancia":1095},{"nome":"Fundação Eva Klabin Rapaport","distancia":824},{"nome":"Parque Peter Pan","distancia":802},{"nome":"Praia de Copacabana","distancia":1408},{"nome":"Praia de Ipanema","distancia":1817},{"nome":"Praia do Arpoador","distancia":1437},{"nome":"Sala Baden Powell","distancia":1400},{"nome":"Teatro Brigitte Blair","distancia":227},{"nome":"Teatro da Praia","distancia":891},{"nome":"Teatro Gláucio Gil","distancia":1533},{"nome":"Teatro Ipanema","distancia":1813}]},{"linha":"402","descricao_ponto":"BRS 3, I - SIQUEIRA CAMPOS","sequencia":"20","latitude":"-22.9694","longitude":"-43.1849","pontos_turisticos":[{"nome":"Espaço Cultura Sergio Porto","distancia":1941},{"nome":"Forte de Copacabana","distancia":1851},{"nome":"Fundação Eva Klabin Rapaport","distancia":1540},{"nome":"Parque Peter Pan","distancia":1699},{"nome":"Praia de Copacabana","distancia":600},{"nome":"Praia Leme","distancia":1997},{"nome":"Sala Baden Powell","distancia":506},{"nome":"Teatro Brigitte Blair","distancia":1151},{"nome":"Teatro da Praia","distancia":1803},{"nome":"Teatro Gláucio Gil","distancia":612},{"nome":"Teatro Princesa Isabel","distancia":1296},{"nome":"Teatro Villa Lobos","distancia":1334}]},{"linha":"402","descricao_ponto":"Rua Miguel Burnier próximo ao 106","sequencia":"56","latitude":"-22.8696","longitude":"-43.2594","pontos_turisticos":[]},{"linha":"402","descricao_ponto":"Avenida Itaoca próximo ao 958","sequencia":"61","latitude":"-22.8681","longitude":"-43.2689","pontos_turisticos":[]},{"linha":"402","descricao_ponto":"Rua Santa Mariana próximo ao 11","sequencia":"26","latitude":"-22.8699","longitude":"-43.2644","pontos_turisticos":[]},{"linha":"402","descricao_ponto":"Rua Afonso Cavalcanti próximo ao 55","sequencia":"47","latitude":"-22.9094","longitude":"-43.2009","pontos_turisticos":[{"nome":"Campo de Santana","distancia":1323},{"nome":"Cidade do Samba","distancia":1721},{"nome":"Memorial dos Pretos Novos","distancia":1691},{"nome":"Museu da Chácara do Céu","distancia":1931},{"nome":"Real Gabinete Português de Leitura","distancia":1968},{"nome":"Sambódromo","distancia":475},{"nome":"Teatro Carlos Gomes","distancia":1898},{"nome":"Teatro João Caetano","distancia":1935}]},{"linha":"402","descricao_ponto":"BRS 3, I - FERNANDO MENDES","sequencia":"21","latitude":"-22.9665","longitude":"-43.1793","pontos_turisticos":[{"nome":"Pão de Açúcar","distancia":1758},{"nome":"Praia de Copacabana","distancia":233},{"nome":"Praia Leme","distancia":1352},{"nome":"Praia Vermelha","distancia":1964},{"nome":"Sala Baden Powell","distancia":152},{"nome":"Teatro Brigitte Blair","distancia":1766},{"nome":"Teatro do Instituto Benjamin Constant","distancia":1673},{"nome":"Teatro Gláucio Gil","distancia":197},{"nome":"Teatro Princesa Isabel","distancia":641},{"nome":"Teatro Villa Lobos","distancia":709}]},{"linha":"402","descricao_ponto":"Estrada Velha Da Pavuna próximo ao 4240","sequencia":"5","latitude":"-22.8654","longitude":"-43.2898","pontos_turisticos":[]},{"linha":"402","descricao_ponto":"Avenida Dos Democraticos próximo ao 337","sequencia":"30","latitude":"-22.8785","longitude":"-43.2552","pontos_turisticos":[]},{"linha":"402","descricao_ponto":"Avenida Presidente Castelo Branco próximo ao 217","sequencia":"42","latitude":"-22.9106","longitude":"-43.2287","pontos_turisticos":[{"nome":"Centro Luiz Gonzaga de Tradições Nordestinas","distancia":1808},{"nome":"Estádio do Maracanã","distancia":413},{"nome":"Jardim Zoológico (Riozoo)","distancia":690},{"nome":"Quinta da Boa Vista/Museu Nacional","distancia":694},{"nome":"Teatro Mário Lago","distancia":1503},{"nome":"Teatro Noel Rosa","distancia":913},{"nome":"Teatro Odylo Costa Filho","distancia":645},{"nome":"Teatro Ziembinski","distancia":1250}]},{"linha":"402","descricao_ponto":"Avenida Dom Helder Camara próximo ao 104","sequencia":"40","latitude":"-22.8915","longitude":"-43.2407","pontos_turisticos":[{"nome":"Jardim Zoológico (Riozoo)","distancia":1880}]},{"linha":"402","descricao_ponto":"Avenida Dos Democraticos próximo ao 337","sequencia":"47","latitude":"-22.8784","longitude":"-43.2552","pontos_turisticos":[]},{"linha":"402","descricao_ponto":"Estrada Do Timbo próximo ao 336","sequencia":"20","latitude":"-22.8725","longitude":"-43.2682","pontos_turisticos":[]},{"linha":"402","descricao_ponto":"Avenida Dos Democraticos próximo ao 1157","sequencia":"28","latitude":"-22.87","longitude":"-43.2585","pontos_turisticos":[]},{"linha":"402","descricao_ponto":"Rua Muniz Barreto próximo ao 424","sequencia":"53","latitude":"-22.9475","longitude":"-43.1842","pontos_turisticos":[{"nome":"Cristo Redentor (Corcovado)","distancia":1660},{"nome":"Espaço Cultura Sergio Porto","distancia":1981},{"nome":"Fundação Casa de Rui Barbosa","distancia":351},{"nome":"Mirante Dona Marta","distancia":1367},{"nome":"Museu Carmem Miranda","distancia":1385},{"nome":"Museu do Índio","distancia":884},{"nome":"Pão de Açúcar","distancia":1989},{"nome":"Parque Eduardo Guinle","distancia":1799},{"nome":"Praia de Botafogo","distancia":434},{"nome":"Teatro Bibi Ferreira","distancia":197},{"nome":"Teatro do Instituto Benjamin Constant","distancia":1396},{"nome":"Teatro Villa Lobos","distancia":1786}]},{"linha":"402","descricao_ponto":"BRS 2,3 - NELSON MANDELA","sequencia":"55","latitude":"-22.951","longitude":"-43.1833","pontos_turisticos":[{"nome":"Cristo Redentor (Corcovado)","distancia":1949},{"nome":"Espaço Cultura Sergio Porto","distancia":1853},{"nome":"Fundação Casa de Rui Barbosa","distancia":408},{"nome":"Mirante Dona Marta","distancia":1554},{"nome":"Museu Carmem Miranda","distancia":1544},{"nome":"Museu do Índio","distancia":828},{"nome":"Pão de Açúcar","distancia":1757},{"nome":"Praia de Botafogo","distancia":701},{"nome":"Praia Vermelha","distancia":1960},{"nome":"Sala Baden Powell","distancia":1813},{"nome":"Teatro Bibi Ferreira","distancia":586},{"nome":"Teatro do Instituto Benjamin Constant","distancia":1182},{"nome":"Teatro Gláucio Gil","distancia":1621},{"nome":"Teatro Princesa Isabel","distancia":1622},{"nome":"Teatro Villa Lobos","distancia":1410}]},{"linha":"402","descricao_ponto":"Avenida Das Nacoes Unidas próximo ao 530","sequencia":"58","latitude":"-22.9433","longitude":"-43.1805","pontos_turisticos":[{"nome":"Aterro do Flamengo","distancia":1823},{"nome":"Cristo Redentor (Corcovado)","distancia":1869},{"nome":"Fundação Casa de Rui Barbosa","distancia":947},{"nome":"Mirante Dona Marta","distancia":1759},{"nome":"Museu Carmem Miranda","distancia":855},{"nome":"Museu da República","distancia":1982},{"nome":"Museu de Folclore Edison Carneiro","distancia":1963},{"nome":"Museu do Índio","distancia":1471},{"nome":"Oi Futuro","distancia":1538},{"nome":"Pão de Açúcar","distancia":1953},{"nome":"Parque Eduardo Guinle","distancia":1339},{"nome":"Praia da Urca","distancia":1854},{"nome":"Praia de Botafogo","distancia":205},{"nome":"Praia do Flamengo","distancia":1808},{"nome":"Teatro Bibi Ferreira","distancia":582},{"nome":"Teatro do Instituto Benjamin Constant","distancia":1392}]},{"linha":"402","descricao_ponto":"Avenida Padre Leonel Franca próximo ao 1165","sequencia":"2","latitude":"-22.9793","longitude":"-43.2293","pontos_turisticos":[{"nome":"Jardim Botânico","distancia":1120},{"nome":"Jockey Club Brasileiro","distancia":707},{"nome":"Parque da Cidade","distancia":1676},{"nome":"Planetário","distancia":110},{"nome":"Praia do Leblon","distancia":1165},{"nome":"Teatro Café Pequeno","distancia":1268},{"nome":"Teatro Casa da Gávea","distancia":629},{"nome":"Teatro Casa do Riso","distancia":677},{"nome":"Teatro Clara Nunes","distancia":428},{"nome":"Teatro das Artes","distancia":410},{"nome":"Teatro do Jockey","distancia":515},{"nome":"Teatro dos Quatro","distancia":424},{"nome":"Teatro Leblon","distancia":702},{"nome":"Teatro Maria Clara Machado","distancia":110},{"nome":"Teatro Vanucci","distancia":417}]},{"linha":"402","descricao_ponto":"Henrique Dumont 2","sequencia":"11","latitude":"-22.9842","longitude":"-43.2135","pontos_turisticos":[{"nome":"Casa Laura Alvin","distancia":1485},{"nome":"Casa Laura Alvin","distancia":1485},{"nome":"Centro Cultural Candido Mendes","distancia":867},{"nome":"Fundação Eva Klabin Rapaport","distancia":1819},{"nome":"Jardim Botânico","distancia":1787},{"nome":"Jockey Club Brasileiro","distancia":1698},{"nome":"Lagoa Rodrigo de Freitas","distancia":1444},{"nome":"Planetário","distancia":1815},{"nome":"Praia de Ipanema","distancia":1103},{"nome":"Praia do Leblon","distancia":927},{"nome":"Teatro Café Pequeno","distancia":455},{"nome":"Teatro Casa da Gávea","distancia":1782},{"nome":"Teatro Casa do Riso","distancia":1059},{"nome":"Teatro Clara Nunes","distancia":1771},{"nome":"Teatro das Artes","distancia":1783},{"nome":"Teatro do Jockey","distancia":1418},{"nome":"Teatro dos Quatro","distancia":1763},{"nome":"Teatro Ipanema","distancia":900},{"nome":"Teatro Leblon","distancia":1008},{"nome":"Teatro Maria Clara Machado","distancia":1815},{"nome":"Teatro Vanucci","distancia":1784}]},{"linha":"402","descricao_ponto":"Avenida Dos Democraticos próximo ao 1791","sequencia":"52","latitude":"-22.8681","longitude":"-43.258","pontos_turisticos":[]},{"linha":"402","descricao_ponto":"Avenida Dos Democraticos próximo ao 1191","sequencia":"55","latitude":"-22.8668","longitude":"-43.2567","pontos_turisticos":[]},{"linha":"402","descricao_ponto":"Estrada Velha Da Pavuna próximo ao 2565","sequencia":"69","latitude":"-22.8701","longitude":"-43.284","pontos_turisticos":[{"nome":"Teatro Miguel Falabella","distancia":1932}]},{"linha":"402","descricao_ponto":"Rua Afonso Cavalcanti próximo ao 33","sequencia":"46","latitude":"-22.9102","longitude":"-43.2037","pontos_turisticos":[{"nome":"Campo de Santana","distancia":1622},{"nome":"Cidade do Samba","distancia":1892},{"nome":"Memorial dos Pretos Novos","distancia":1918},{"nome":"Sambódromo","distancia":717}]},{"linha":"402","descricao_ponto":"Avenida Visconde De Albuquerque próximo ao 1271","sequencia":"81","latitude":"-22.9771","longitude":"-43.2255","pontos_turisticos":[{"nome":"Jardim Botânico","distancia":728},{"nome":"Jockey Club Brasileiro","distancia":361},{"nome":"Lagoa Rodrigo de Freitas","distancia":1550},{"nome":"Planetário","distancia":523},{"nome":"Praia do Leblon","distancia":1190},{"nome":"Teatro Amador O Tablado","distancia":1618},{"nome":"Teatro Café Pequeno","distancia":1077},{"nome":"Teatro Casa da Gávea","distancia":371},{"nome":"Teatro Casa do Riso","distancia":420},{"nome":"Teatro Clara Nunes","distancia":310},{"nome":"Teatro das Artes","distancia":323},{"nome":"Teatro do Jockey","distancia":59},{"nome":"Teatro dos Quatro","distancia":302},{"nome":"Teatro Leblon","distancia":509},{"nome":"Teatro Maria Clara Machado","distancia":523},{"nome":"Teatro Vanucci","distancia":324}]},{"linha":"402","descricao_ponto":"Avenida Dos Democraticos próximo ao 1580","sequencia":"49","latitude":"-22.8735","longitude":"-43.2581","pontos_turisticos":[]},{"linha":"402","descricao_ponto":"Rua Teixeira De Macedo próximo ao 1931","sequencia":"10","latitude":"-22.8721","longitude":"-43.2827","pontos_turisticos":[{"nome":"Teatro Miguel Falabella","distancia":1707}]},{"linha":"402","descricao_ponto":"Avenida Dom Helder Camara próximo ao 1325","sequencia":"43","latitude":"-22.8865","longitude":"-43.2511","pontos_turisticos":[]},{"linha":"402","descricao_ponto":"Rua Teixeira Soares próximo ao 139","sequencia":"44","latitude":"-22.9107","longitude":"-43.2182","pontos_turisticos":[{"nome":"Centro Luiz Gonzaga de Tradições Nordestinas","distancia":1549},{"nome":"Estádio do Maracanã","distancia":1357},{"nome":"Jardim Zoológico (Riozoo)","distancia":1294},{"nome":"Quinta da Boa Vista/Museu Nacional","distancia":900},{"nome":"Teatro Mário Lago","distancia":1310},{"nome":"Teatro Noel Rosa","distancia":1989},{"nome":"Teatro Odylo Costa Filho","distancia":1721},{"nome":"Teatro Ziembinski","distancia":1281}]},{"linha":"402","descricao_ponto":"BRS 1, 2, 3 - ALFREDO GOMES","sequencia":"54","latitude":"-22.9488","longitude":"-43.1842","pontos_turisticos":[{"nome":"Cristo Redentor (Corcovado)","distancia":1733},{"nome":"Espaço Cultura Sergio Porto","distancia":1896},{"nome":"Fundação Casa de Rui Barbosa","distancia":286},{"nome":"Mirante Dona Marta","distancia":1393},{"nome":"Museu Carmem Miranda","distancia":1462},{"nome":"Museu do Índio","distancia":811},{"nome":"Pão de Açúcar","distancia":1928},{"nome":"Parque Eduardo Guinle","distancia":1943},{"nome":"Praia de Botafogo","distancia":535},{"nome":"Teatro Bibi Ferreira","distancia":325},{"nome":"Teatro do Instituto Benjamin Constant","distancia":1339},{"nome":"Teatro Gláucio Gil","distancia":1878},{"nome":"Teatro Princesa Isabel","distancia":1877},{"nome":"Teatro Villa Lobos","distancia":1664}]},{"linha":"402","descricao_ponto":"BRS 1, 3 - MARIA QUITÉRIA","sequencia":"13","latitude":"-22.9841","longitude":"-43.2076","pontos_turisticos":[{"nome":"Casa Laura Alvin","distancia":902},{"nome":"Casa Laura Alvin","distancia":902},{"nome":"Centro Cultural Candido Mendes","distancia":273},{"nome":"Fundação Eva Klabin Rapaport","distancia":1325},{"nome":"Lagoa Rodrigo de Freitas","distancia":1483},{"nome":"Parque Peter Pan","distancia":1593},{"nome":"Praia de Ipanema","distancia":565},{"nome":"Praia do Arpoador","distancia":1608},{"nome":"Praia do Leblon","distancia":1507},{"nome":"Teatro Brigitte Blair","distancia":1805},{"nome":"Teatro Café Pequeno","distancia":1058},{"nome":"Teatro Casa do Riso","distancia":1617},{"nome":"Teatro da Praia","distancia":1461},{"nome":"Teatro do Jockey","distancia":1942},{"nome":"Teatro Ipanema","distancia":318},{"nome":"Teatro Leblon","distancia":1583}]},{"linha":"402","descricao_ponto":"Rua Visconde De Niteroi próximo ao 48","sequencia":"41","latitude":"-22.9017","longitude":"-43.2411","pontos_turisticos":[{"nome":"Estádio do Maracanã","distancia":1676},{"nome":"Jardim Zoológico (Riozoo)","distancia":1293},{"nome":"Quinta da Boa Vista/Museu Nacional","distancia":1712},{"nome":"Teatro Noel Rosa","distancia":1066},{"nome":"Teatro Odylo Costa Filho","distancia":1166}]},{"linha":"402","descricao_ponto":"BRS 3, I - HILÁRIO DE GOUVEIA","sequencia":"64","latitude":"-22.9675","longitude":"-43.184","pontos_turisticos":[{"nome":"Espaço Cultura Sergio Porto","distancia":1891},{"nome":"Fundação Eva Klabin Rapaport","distancia":1727},{"nome":"Museu do Índio","distancia":1878},{"nome":"Parque Peter Pan","distancia":1930},{"nome":"Praia de Copacabana","distancia":515},{"nome":"Praia Leme","distancia":1845},{"nome":"Sala Baden Powell","distancia":349},{"nome":"Teatro Brigitte Blair","distancia":1378},{"nome":"Teatro Gláucio Gil","distancia":402},{"nome":"Teatro Princesa Isabel","distancia":1111},{"nome":"Teatro Villa Lobos","distancia":1127}]},{"linha":"402","descricao_ponto":"Avenida Dos Democraticos próximo ao 51","sequencia":"46","latitude":"-22.8802","longitude":"-43.2537","pontos_turisticos":[]},{"linha":"402","descricao_ponto":"Estrada Velha Da Pavuna próximo ao 4275","sequencia":"3","latitude":"-22.8653","longitude":"-43.2961","pontos_turisticos":[]},{"linha":"402","descricao_ponto":"Praca Vinte E Quatro De Outubro próximo ao 1851","sequencia":"12","latitude":"-22.8731","longitude":"-43.2814","pontos_turisticos":[{"nome":"Teatro Miguel Falabella","distancia":1605}]},{"linha":"402","descricao_ponto":"Avenida Dom Helder Camara próximo ao 1715","sequencia":"33","latitude":"-22.8853","longitude":"-43.2524","pontos_turisticos":[]},{"linha":"402","descricao_ponto":"Avenida Dom Helder Camara próximo ao 89","sequencia":"36","latitude":"-22.8906","longitude":"-43.2424","pontos_turisticos":[]},{"linha":"402","descricao_ponto":"Avenida Dom Helder Camara próximo ao 28","sequencia":"37","latitude":"-22.8916","longitude":"-43.2409","pontos_turisticos":[{"nome":"Jardim Zoológico (Riozoo)","distancia":1885}]},{"linha":"402","descricao_ponto":"BRS 1, 2, 3 - JOÃO LIRA","sequencia":"75","latitude":"-22.9852","longitude":"-43.2219","pontos_turisticos":[{"nome":"Centro Cultural Candido Mendes","distancia":1724},{"nome":"Jardim Botânico","distancia":1598},{"nome":"Jockey Club Brasileiro","distancia":1320},{"nome":"Lagoa Rodrigo de Freitas","distancia":1863},{"nome":"Planetário","distancia":1109},{"nome":"Praia de Ipanema","distancia":1924},{"nome":"Praia do Leblon","distancia":231},{"nome":"Teatro Café Pequeno","distancia":435},{"nome":"Teatro Casa da Gávea","distancia":1344},{"nome":"Teatro Casa do Riso","distancia":598},{"nome":"Teatro Clara Nunes","distancia":1238},{"nome":"Teatro das Artes","distancia":1239},{"nome":"Teatro do Jockey","distancia":964},{"nome":"Teatro dos Quatro","distancia":1230},{"nome":"Teatro Ipanema","distancia":1752},{"nome":"Teatro Leblon","distancia":490},{"nome":"Teatro Maria Clara Machado","distancia":1109},{"nome":"Teatro Vanucci","distancia":1243}]},{"linha":"402","descricao_ponto":"Avenida Visconde De Albuquerque próximo ao 1080","sequencia":"79","latitude":"-22.9823","longitude":"-43.2269","pontos_turisticos":[{"nome":"Jardim Botânico","distancia":1322},{"nome":"Jockey Club Brasileiro","distancia":946},{"nome":"Lagoa Rodrigo de Freitas","distancia":1976},{"nome":"Parque da Cidade","distancia":1983},{"nome":"Planetário","distancia":515},{"nome":"Praia do Leblon","distancia":753},{"nome":"Teatro Café Pequeno","distancia":934},{"nome":"Teatro Casa da Gávea","distancia":917},{"nome":"Teatro Casa do Riso","distancia":506},{"nome":"Teatro Clara Nunes","distancia":752},{"nome":"Teatro das Artes","distancia":744},{"nome":"Teatro do Jockey","distancia":623},{"nome":"Teatro dos Quatro","distancia":745},{"nome":"Teatro Leblon","distancia":464},{"nome":"Teatro Maria Clara Machado","distancia":515},{"nome":"Teatro Vanucci","distancia":749}]},{"linha":"402","descricao_ponto":"BRS 1, 3 - GAL. VENÂNCIO FLORES","sequencia":"9","latitude":"-22.9873","longitude":"-43.2239","pontos_turisticos":[{"nome":"Centro Cultural Candido Mendes","distancia":1948},{"nome":"Jardim Botânico","distancia":1826},{"nome":"Jockey Club Brasileiro","distancia":1506},{"nome":"Planetário","distancia":1143},{"nome":"Praia do Leblon","distancia":203},{"nome":"Teatro Café Pequeno","distancia":724},{"nome":"Teatro Casa da Gávea","distancia":1506},{"nome":"Teatro Casa do Riso","distancia":834},{"nome":"Teatro Clara Nunes","distancia":1367},{"nome":"Teatro das Artes","distancia":1363},{"nome":"Teatro do Jockey","distancia":1151},{"nome":"Teatro dos Quatro","distancia":1359},{"nome":"Teatro Ipanema","distancia":1969},{"nome":"Teatro Leblon","distancia":728},{"nome":"Teatro Maria Clara Machado","distancia":1143},{"nome":"Teatro Vanucci","distancia":1367}]},{"linha":"402","descricao_ponto":"BRS 1, 2, 3 - CIDADE NOVA","sequencia":"28","latitude":"-22.9099","longitude":"-43.2064","pontos_turisticos":[{"nome":"Campo de Santana","distancia":1885},{"nome":"Centro Luiz Gonzaga de Tradições Nordestinas","distancia":1969},{"nome":"Cidade do Samba","distancia":1980},{"nome":"Quinta da Boa Vista/Museu Nacional","distancia":1957},{"nome":"Sambódromo","distancia":995},{"nome":"Teatro Mário Lago","distancia":1901}]},{"linha":"402","descricao_ponto":"Avenida Dom Helder Camara próximo ao 1790","sequencia":"45","latitude":"-22.8836","longitude":"-43.2537","pontos_turisticos":[]},{"linha":"402","descricao_ponto":"Avenida Itaoca próximo ao 1443","sequencia":"60","latitude":"-22.8687","longitude":"-43.2683","pontos_turisticos":[]},{"linha":"402","descricao_ponto":"Avenida Itaoca próximo ao 2532","sequencia":"65","latitude":"-22.8706","longitude":"-43.2764","pontos_turisticos":[{"nome":"Teatro Miguel Falabella","distancia":1993}]},{"linha":"402","descricao_ponto":"Estrada Velha Da Pavuna próximo ao 272","sequencia":"70","latitude":"-22.8675","longitude":"-43.2858","pontos_turisticos":[]},{"linha":"402","descricao_ponto":"Estrada Do Timbo próximo ao S/n","sequencia":"23","latitude":"-22.8723","longitude":"-43.268","pontos_turisticos":[]},{"linha":"402","descricao_ponto":"BRS 1, 3 - AFRÂNIO DE MELO FRANCO","sequencia":"74","latitude":"-22.9847","longitude":"-43.2175","pontos_turisticos":[{"nome":"Casa Laura Alvin","distancia":1882},{"nome":"Casa Laura Alvin","distancia":1882},{"nome":"Centro Cultural Candido Mendes","distancia":1274},{"nome":"Jardim Botânico","distancia":1646},{"nome":"Jockey Club Brasileiro","distancia":1469},{"nome":"Lagoa Rodrigo de Freitas","distancia":1602},{"nome":"Planetário","distancia":1459},{"nome":"Praia de Ipanema","distancia":1487},{"nome":"Praia do Leblon","distancia":535},{"nome":"Teatro Café Pequeno","distancia":107},{"nome":"Teatro Casa da Gávea","distancia":1530},{"nome":"Teatro Casa do Riso","distancia":757},{"nome":"Teatro Clara Nunes","distancia":1480},{"nome":"Teatro das Artes","distancia":1488},{"nome":"Teatro do Jockey","distancia":1146},{"nome":"Teatro dos Quatro","distancia":1472},{"nome":"Teatro Ipanema","distancia":1303},{"nome":"Teatro Leblon","distancia":679},{"nome":"Teatro Maria Clara Machado","distancia":1459},{"nome":"Teatro Vanucci","distancia":1490}]},{"linha":"402","descricao_ponto":"BRS 3, I - NOSSA SRA. DE COPACABANA","sequencia":"22","latitude":"-22.9634","longitude":"-43.1741","pontos_turisticos":[{"nome":"Pão de Açúcar","distancia":1141},{"nome":"Praia de Copacabana","distancia":772},{"nome":"Praia Leme","distancia":769},{"nome":"Praia Vermelha","distancia":1337},{"nome":"Sala Baden Powell","distancia":785},{"nome":"Teatro do Instituto Benjamin Constant","distancia":1171},{"nome":"Teatro Gláucio Gil","distancia":721},{"nome":"Teatro Princesa Isabel","distancia":48},{"nome":"Teatro Villa Lobos","distancia":262}]},{"linha":"402","descricao_ponto":"Avenida Itaoca próximo ao 1826","sequencia":"62","latitude":"-22.8671","longitude":"-43.2701","pontos_turisticos":[]},{"linha":"402","descricao_ponto":"Rua Miguel Burnier próximo ao 1818","sequencia":"27","latitude":"-22.8699","longitude":"-43.2612","pontos_turisticos":[]},{"linha":"402","descricao_ponto":"Avenida Bartolomeu Mitre próximo ao 1281","sequencia":"82","latitude":"-22.9764","longitude":"-43.2251","pontos_turisticos":[{"nome":"Jardim Botânico","distancia":641},{"nome":"Jockey Club Brasileiro","distancia":289},{"nome":"Lagoa Rodrigo de Freitas","distancia":1481},{"nome":"Planetário","distancia":593},{"nome":"Praia do Leblon","distancia":1253},{"nome":"Teatro Amador O Tablado","distancia":1531},{"nome":"Teatro Café Pequeno","distancia":1104},{"nome":"Teatro Casa da Gávea","distancia":324},{"nome":"Teatro Casa do Riso","distancia":457},{"nome":"Teatro Clara Nunes","distancia":316},{"nome":"Teatro das Artes","distancia":334},{"nome":"Teatro do Jockey","distancia":69},{"nome":"Teatro dos Quatro","distancia":309},{"nome":"Teatro Leblon","distancia":555},{"nome":"Teatro Maria Clara Machado","distancia":593},{"nome":"Teatro Vanucci","distancia":334}]},{"linha":"402","descricao_ponto":"BRS 1, 3 - JOSÉ LINHARES","sequencia":"10","latitude":"-22.9868","longitude":"-43.2204","pontos_turisticos":[{"nome":"Centro Cultural Candido Mendes","distancia":1585},{"nome":"Jardim Botânico","distancia":1794},{"nome":"Jockey Club Brasileiro","distancia":1538},{"nome":"Lagoa Rodrigo de Freitas","distancia":1937},{"nome":"Planetário","distancia":1342},{"nome":"Praia de Ipanema","distancia":1758},{"nome":"Praia do Leblon","distancia":164},{"nome":"Teatro Café Pequeno","distancia":417},{"nome":"Teatro Casa da Gávea","distancia":1569},{"nome":"Teatro Casa do Riso","distancia":805},{"nome":"Teatro Clara Nunes","distancia":1470},{"nome":"Teatro das Artes","distancia":1472},{"nome":"Teatro do Jockey","distancia":1185},{"nome":"Teatro dos Quatro","distancia":1462},{"nome":"Teatro Ipanema","distancia":1607},{"nome":"Teatro Leblon","distancia":701},{"nome":"Teatro Maria Clara Machado","distancia":1341},{"nome":"Teatro Vanucci","distancia":1476}]},{"linha":"402","descricao_ponto":"Rua Uranos próximo ao 691","sequencia":"54","latitude":"-22.8675","longitude":"-43.2555","pontos_turisticos":[]},{"linha":"402","descricao_ponto":"Avenida Itaoca próximo ao 1842","sequencia":"63","latitude":"-22.8671","longitude":"-43.2717","pontos_turisticos":[]},{"linha":"402","descricao_ponto":"Estrada Velha Da Pavuna próximo ao 2565","sequencia":"9","latitude":"-22.8707","longitude":"-43.2837","pontos_turisticos":[{"nome":"Teatro Miguel Falabella","distancia":1864}]},{"linha":"402","descricao_ponto":"Estrada Velha Da Pavuna próximo ao 257","sequencia":"21","latitude":"-22.8741","longitude":"-43.2667","pontos_turisticos":[]},{"linha":"402","descricao_ponto":"BRS 1, 3 - ANÍBAL DE MENDONÇA","sequencia":"73","latitude":"-22.985","longitude":"-43.2109","pontos_turisticos":[{"nome":"Casa Laura Alvin","distancia":1208},{"nome":"Casa Laura Alvin","distancia":1208},{"nome":"Centro Cultural Candido Mendes","distancia":598},{"nome":"Fundação Eva Klabin Rapaport","distancia":1648},{"nome":"Jockey Club Brasileiro","distancia":1958},{"nome":"Lagoa Rodrigo de Freitas","distancia":1524},{"nome":"Parque Peter Pan","distancia":1938},{"nome":"Praia de Ipanema","distancia":822},{"nome":"Praia do Arpoador","distancia":1905},{"nome":"Praia do Leblon","distancia":1156},{"nome":"Teatro Café Pequeno","distancia":731},{"nome":"Teatro Casa do Riso","distancia":1337},{"nome":"Teatro da Praia","distancia":1804},{"nome":"Teatro do Jockey","distancia":1690},{"nome":"Teatro Ipanema","distancia":626},{"nome":"Teatro Leblon","distancia":1289}]},{"linha":"402","descricao_ponto":"Estrada Velha Da Pavuna próximo ao 2518","sequencia":"68","latitude":"-22.8713","longitude":"-43.2828","pontos_turisticos":[{"nome":"Teatro Miguel Falabella","distancia":1796}]},{"linha":"402","descricao_ponto":"Rua Santa Mariana próximo ao 163","sequencia":"25","latitude":"-22.8698","longitude":"-43.2675","pontos_turisticos":[]},{"linha":"402","descricao_ponto":"Rua Senador Bernardo Monteiro próximo ao 211","sequencia":"40","latitude":"-22.8979","longitude":"-43.2404","pontos_turisticos":[{"nome":"Estádio do Maracanã","distancia":1991},{"nome":"Jardim Zoológico (Riozoo)","distancia":1389},{"nome":"Quinta da Boa Vista/Museu Nacional","distancia":1797},{"nome":"Teatro Noel Rosa","distancia":1455},{"nome":"Teatro Odylo Costa Filho","distancia":1512}]},{"linha":"402","descricao_ponto":"Rua Elpidio Boamorte próximo ao 93","sequencia":"29","latitude":"-22.9109","longitude":"-43.2141","pontos_turisticos":[{"nome":"Centro Luiz Gonzaga de Tradições Nordestinas","distancia":1656},{"nome":"Estádio do Maracanã","distancia":1764},{"nome":"Jardim Zoológico (Riozoo)","distancia":1672},{"nome":"Quinta da Boa Vista/Museu Nacional","distancia":1260},{"nome":"Sambódromo","distancia":1769},{"nome":"Teatro Mário Lago","distancia":1476},{"nome":"Teatro Ziembinski","distancia":1503}]},{"linha":"402","descricao_ponto":"Avenida Itaoca próximo ao 2153","sequencia":"16","latitude":"-22.8684","longitude":"-43.2747","pontos_turisticos":[]},{"linha":"402","descricao_ponto":"Rua Senador Bernardo Monteiro próximo ao 123","sequencia":"38","latitude":"-22.894","longitude":"-43.2398","pontos_turisticos":[{"nome":"Jardim Zoológico (Riozoo)","distancia":1613},{"nome":"Quinta da Boa Vista/Museu Nacional","distancia":1988},{"nome":"Teatro Noel Rosa","distancia":1874},{"nome":"Teatro Odylo Costa Filho","distancia":1905}]},{"linha":"402","descricao_ponto":"Avenida Visconde De Albuquerque próximo ao 618","sequencia":"77","latitude":"-22.9855","longitude":"-43.2294","pontos_turisticos":[{"nome":"Jardim Botânico","distancia":1742},{"nome":"Jockey Club Brasileiro","distancia":1348},{"nome":"Parque da Cidade","distancia":1878},{"nome":"Planetário","distancia":746},{"nome":"Praia do Leblon","distancia":791},{"nome":"Teatro Café Pequeno","distancia":1189},{"nome":"Teatro Casa da Gávea","distancia":1296},{"nome":"Teatro Casa do Riso","distancia":927},{"nome":"Teatro Clara Nunes","distancia":1107},{"nome":"Teatro das Artes","distancia":1092},{"nome":"Teatro do Jockey","distancia":1050},{"nome":"Teatro dos Quatro","distancia":1101},{"nome":"Teatro Leblon","distancia":863},{"nome":"Teatro Maria Clara Machado","distancia":745},{"nome":"Teatro Vanucci","distancia":1098}]},{"linha":"402","descricao_ponto":"BRS 3, I - RAIMUNDO CORREIA","sequencia":"19","latitude":"-22.9729","longitude":"-43.1882","pontos_turisticos":[{"nome":"Casa Laura Alvin","distancia":1904},{"nome":"Casa Laura Alvin","distancia":1904},{"nome":"Espaço Cultura Sergio Porto","distancia":1994},{"nome":"Forte de Copacabana","distancia":1437},{"nome":"Fundação Eva Klabin Rapaport","distancia":1073},{"nome":"Parque Peter Pan","distancia":1210},{"nome":"Praia de Copacabana","distancia":1047},{"nome":"Praia do Arpoador","distancia":1839},{"nome":"Sala Baden Powell","distancia":1008},{"nome":"Teatro Brigitte Blair","distancia":642},{"nome":"Teatro da Praia","distancia":1304},{"nome":"Teatro Gláucio Gil","distancia":1127},{"nome":"Teatro Princesa Isabel","distancia":1798},{"nome":"Teatro Villa Lobos","distancia":1847}]},{"linha":"402","descricao_ponto":"Rua Visconde De Niteroi próximo ao 1120","sequencia":"33","latitude":"-22.9089","longitude":"-43.2332","pontos_turisticos":[{"nome":"Centro Luiz Gonzaga de Tradições Nordestinas","distancia":1955},{"nome":"Estádio do Maracanã","distancia":567},{"nome":"Jardim Zoológico (Riozoo)","distancia":673},{"nome":"Quinta da Boa Vista/Museu Nacional","distancia":935},{"nome":"Teatro Mário Lago","distancia":1663},{"nome":"Teatro Noel Rosa","distancia":496},{"nome":"Teatro Odylo Costa Filho","distancia":261},{"nome":"Teatro Ziembinski","distancia":1643}]},{"linha":"402","descricao_ponto":"Praca Del Prete próximo ao 82","sequencia":"49","latitude":"-22.9363","longitude":"-43.1839","pontos_turisticos":[{"nome":"Aterro do Flamengo","distancia":1481},{"nome":"Cristo Redentor (Corcovado)","distancia":1563},{"nome":"Fundação Casa de Rui Barbosa","distancia":1493},{"nome":"Igreja Nossa Senhora da Glória do Outeiro","distancia":1882},{"nome":"Mirante Dona Marta","distancia":1751},{"nome":"Museu Carmem Miranda","distancia":1306},{"nome":"Museu da República","distancia":1389},{"nome":"Museu de Folclore Edison Carneiro","distancia":1374},{"nome":"Museu do Índio","distancia":1905},{"nome":"Oi Futuro","distancia":1040},{"nome":"Parque Eduardo Guinle","distancia":564},{"nome":"Praia de Botafogo","distancia":1029},{"nome":"Praia do Flamengo","distancia":1500},{"nome":"Santa Teresa","distancia":1528},{"nome":"Teatro Bibi Ferreira","distancia":1096},{"nome":"Teatro Glória","distancia":1874}]},{"linha":"402","descricao_ponto":"BRS 3, I - APOLLO ONZE","sequencia":"69","latitude":"-22.9862","longitude":"-43.1954","pontos_turisticos":[{"nome":"Casa Laura Alvin","distancia":397},{"nome":"Casa Laura Alvin","distancia":397},{"nome":"Centro Cultural Candido Mendes","distancia":1000},{"nome":"Forte de Copacabana","distancia":774},{"nome":"Fundação Eva Klabin Rapaport","distancia":1172},{"nome":"Parque Peter Pan","distancia":478},{"nome":"Praia de Ipanema","distancia":809},{"nome":"Praia do Arpoador","distancia":402},{"nome":"Teatro Brigitte Blair","distancia":1012},{"nome":"Teatro da Praia","distancia":355},{"nome":"Teatro Ipanema","distancia":966}]},{"linha":"402","descricao_ponto":"BRS 1, 3 - VINÍCIUS DE MORAES","sequencia":"72","latitude":"-22.9854","longitude":"-43.2039","pontos_turisticos":[{"nome":"Casa Laura Alvin","distancia":498},{"nome":"Casa Laura Alvin","distancia":498},{"nome":"Centro Cultural Candido Mendes","distancia":133},{"nome":"Forte de Copacabana","distancia":1644},{"nome":"Fundação Eva Klabin Rapaport","distancia":1203},{"nome":"Lagoa Rodrigo de Freitas","distancia":1759},{"nome":"Parque Peter Pan","distancia":1236},{"nome":"Praia de Ipanema","distancia":211},{"nome":"Praia do Arpoador","distancia":1203},{"nome":"Praia do Leblon","distancia":1856},{"nome":"Teatro Brigitte Blair","distancia":1535},{"nome":"Teatro Café Pequeno","distancia":1447},{"nome":"Teatro da Praia","distancia":1099},{"nome":"Teatro Ipanema","distancia":92},{"nome":"Teatro Leblon","distancia":1985}]},{"linha":"402","descricao_ponto":"Rua Muniz Barreto próximo ao 396","sequencia":"52","latitude":"-22.9453","longitude":"-43.1841","pontos_turisticos":[{"nome":"Cristo Redentor (Corcovado)","distancia":1569},{"nome":"Fundação Casa de Rui Barbosa","distancia":543},{"nome":"Mirante Dona Marta","distancia":1367},{"nome":"Museu Carmem Miranda","distancia":1274},{"nome":"Museu do Índio","distancia":1050},{"nome":"Oi Futuro","distancia":1876},{"nome":"Parque Eduardo Guinle","distancia":1554},{"nome":"Praia de Botafogo","distancia":334},{"nome":"Teatro Bibi Ferreira","distancia":152},{"nome":"Teatro do Instituto Benjamin Constant","distancia":1512},{"nome":"Teatro Villa Lobos","distancia":1996}]},{"linha":"402","descricao_ponto":"BRS 3, I - SANTA CLARA","sequencia":"65","latitude":"-22.9701","longitude":"-43.188","pontos_turisticos":[{"nome":"Espaço Cultura Sergio Porto","distancia":1765},{"nome":"Forte de Copacabana","distancia":1748},{"nome":"Fundação Eva Klabin Rapaport","distancia":1226},{"nome":"Parque Peter Pan","distancia":1513},{"nome":"Praia de Copacabana","distancia":926},{"nome":"Sala Baden Powell","distancia":825},{"nome":"Teatro Brigitte Blair","distancia":933},{"nome":"Teatro da Praia","distancia":1601},{"nome":"Teatro Gláucio Gil","distancia":904},{"nome":"Teatro Princesa Isabel","distancia":1608},{"nome":"Teatro Villa Lobos","distancia":1628}]},{"linha":"402","descricao_ponto":"Avenida Dom Helder Camara próximo ao 749","sequencia":"42","latitude":"-22.8897","longitude":"-43.2436","pontos_turisticos":[]},{"linha":"402","descricao_ponto":"Estrada Velha Da Pavuna próximo ao 100","sequencia":"67","latitude":"-22.8719","longitude":"-43.2813","pontos_turisticos":[{"nome":"Teatro Miguel Falabella","distancia":1738}]},{"linha":"402","descricao_ponto":"Avenida Dos Democraticos próximo ao 51","sequencia":"31","latitude":"-22.8802","longitude":"-43.2537","pontos_turisticos":[]},{"linha":"402","descricao_ponto":"BRS 3, I - MIGUEL LEMOS","sequencia":"67","latitude":"-22.9772","longitude":"-43.1927","pontos_turisticos":[{"nome":"Casa Laura Alvin","distancia":1249},{"nome":"Casa Laura Alvin","distancia":1249},{"nome":"Centro Cultural Candido Mendes","distancia":1525},{"nome":"Forte de Copacabana","distancia":1080},{"nome":"Fundação Eva Klabin Rapaport","distancia":574},{"nome":"Parque Peter Pan","distancia":669},{"nome":"Praia de Copacabana","distancia":1689},{"nome":"Praia de Ipanema","distancia":1548},{"nome":"Praia do Arpoador","distancia":1300},{"nome":"Sala Baden Powell","distancia":1669},{"nome":"Teatro Brigitte Blair","distancia":165},{"nome":"Teatro da Praia","distancia":718},{"nome":"Teatro Gláucio Gil","distancia":1791},{"nome":"Teatro Ipanema","distancia":1531}]},{"linha":"402","descricao_ponto":"BRS 3, I - AVENIDA LAURO SODRE","sequencia":"23","latitude":"-22.9564","longitude":"-43.1775","pontos_turisticos":[{"nome":"Fundação Casa de Rui Barbosa","distancia":1236},{"nome":"Museu Carmem Miranda","distancia":1748},{"nome":"Museu do Índio","distancia":1496},{"nome":"Pão de Açúcar","distancia":1092},{"nome":"Praia da Urca","distancia":1763},{"nome":"Praia de Botafogo","distancia":1301},{"nome":"Praia de Copacabana","distancia":1365},{"nome":"Praia Leme","distancia":1348},{"nome":"Praia Vermelha","distancia":1322},{"nome":"Sala Baden Powell","distancia":1234},{"nome":"Teatro Bibi Ferreira","distancia":1401},{"nome":"Teatro do Instituto Benjamin Constant","distancia":678},{"nome":"Teatro Gláucio Gil","distancia":1056},{"nome":"Teatro Princesa Isabel","distancia":805},{"nome":"Teatro Villa Lobos","distancia":591}]},{"linha":"402","descricao_ponto":"Avenida Dos Democraticos próximo ao 408","sequencia":"51","latitude":"-22.8686","longitude":"-43.2583","pontos_turisticos":[]},{"linha":"402","descricao_ponto":"Avenida Itaoca próximo ao","sequencia":"53","latitude":"-22.8676","longitude":"-43.2568","pontos_turisticos":[]},{"linha":"402","descricao_ponto":"Avenida Itaoca próximo ao 2481","sequencia":"15","latitude":"-22.8703","longitude":"-43.2763","pontos_turisticos":[]},{"linha":"402","descricao_ponto":"Avenida Visconde De Albuquerque próximo ao 581","sequencia":"5","latitude":"-22.9811","longitude":"-43.2267","pontos_turisticos":[{"nome":"Jardim Botânico","distancia":1189},{"nome":"Jockey Club Brasileiro","distancia":811},{"nome":"Lagoa Rodrigo de Freitas","distancia":1880},{"nome":"Parque da Cidade","distancia":1971},{"nome":"Planetário","distancia":442},{"nome":"Praia do Leblon","distancia":844},{"nome":"Teatro Café Pequeno","distancia":948},{"nome":"Teatro Casa da Gávea","distancia":784},{"nome":"Teatro Casa do Riso","distancia":430},{"nome":"Teatro Clara Nunes","distancia":625},{"nome":"Teatro das Artes","distancia":619},{"nome":"Teatro do Jockey","distancia":491},{"nome":"Teatro dos Quatro","distancia":618},{"nome":"Teatro Leblon","distancia":415},{"nome":"Teatro Maria Clara Machado","distancia":442},{"nome":"Teatro Vanucci","distancia":624}]},{"linha":"402","descricao_ponto":"Rua Farani próximo ao 8","sequencia":"25","latitude":"-22.9412","longitude":"-43.182","pontos_turisticos":[{"nome":"Aterro do Flamengo","distancia":1712},{"nome":"Cristo Redentor (Corcovado)","distancia":1690},{"nome":"Fundação Casa de Rui Barbosa","distancia":1045},{"nome":"Mirante Dona Marta","distancia":1665},{"nome":"Museu Carmem Miranda","distancia":982},{"nome":"Museu da República","distancia":1797},{"nome":"Museu de Folclore Edison Carneiro","distancia":1779},{"nome":"Museu do Índio","distancia":1534},{"nome":"Oi Futuro","distancia":1372},{"nome":"Parque Eduardo Guinle","distancia":1091},{"nome":"Praia de Botafogo","distancia":451},{"nome":"Praia do Flamengo","distancia":1707},{"nome":"Santa Teresa","distancia":1940},{"nome":"Teatro Bibi Ferreira","distancia":640},{"nome":"Teatro do Instituto Benjamin Constant","distancia":1671}]},{"linha":"402","descricao_ponto":"Rua Elpidio Boamorte próximo ao 323","sequencia":"30","latitude":"-22.9104","longitude":"-43.2152","pontos_turisticos":[{"nome":"Centro Luiz Gonzaga de Tradições Nordestinas","distancia":1570},{"nome":"Estádio do Maracanã","distancia":1664},{"nome":"Jardim Zoológico (Riozoo)","distancia":1547},{"nome":"Quinta da Boa Vista/Museu Nacional","distancia":1135},{"nome":"Sambódromo","distancia":1884},{"nome":"Teatro Mário Lago","distancia":1376},{"nome":"Teatro Ziembinski","distancia":1474}]},{"linha":"402","descricao_ponto":"Estrada Velha Da Pavuna próximo ao 4240","sequencia":"72","latitude":"-22.8655","longitude":"-43.2897","pontos_turisticos":[]},{"linha":"402","descricao_ponto":"Estrada Velha Da Pavuna próximo ao 3864","sequencia":"4","latitude":"-22.8651","longitude":"-43.293","pontos_turisticos":[]},{"linha":"402","descricao_ponto":"Estrada Velha Da Pavuna próximo ao 3119","sequencia":"7","latitude":"-22.8673","longitude":"-43.2868","pontos_turisticos":[]},{"linha":"402","descricao_ponto":"Avenida Dom Helder Camara próximo ao 1715","sequencia":"44","latitude":"-22.8854","longitude":"-43.2523","pontos_turisticos":[]},{"linha":"402","descricao_ponto":"Avenida Dos Democraticos próximo ao 896","sequencia":"29","latitude":"-22.8763","longitude":"-43.2569","pontos_turisticos":[]},{"linha":"402","descricao_ponto":"BRS 3, I - CARDEAL ARCOVERDE","sequencia":"63","latitude":"-22.9651","longitude":"-43.1803","pontos_turisticos":[{"nome":"Fundação Casa de Rui Barbosa","distancia":1868},{"nome":"Museu do Índio","distancia":1841},{"nome":"Pão de Açúcar","distancia":1734},{"nome":"Praia de Copacabana","distancia":407},{"nome":"Praia Leme","distancia":1419},{"nome":"Praia Vermelha","distancia":1950},{"nome":"Sala Baden Powell","distancia":227},{"nome":"Teatro Brigitte Blair","distancia":1816},{"nome":"Teatro do Instituto Benjamin Constant","distancia":1588},{"nome":"Teatro Gláucio Gil","distancia":61},{"nome":"Teatro Princesa Isabel","distancia":656},{"nome":"Teatro Villa Lobos","distancia":665}]}]