[{"linha":"416","descricao_ponto":"BRS 2 - ALZIRA BRANDÃO","sequencia":"29","latitude":"-22.9208","longitude":"-43.2242","pontos_turisticos":[{"nome":"Estádio do Maracanã","distancia":1065},{"nome":"Jardim Zoológico (Riozoo)","distancia":1885},{"nome":"Quinta da Boa Vista/Museu Nacional","distancia":1709},{"nome":"Teatro Noel Rosa","distancia":1773},{"nome":"Teatro Odylo Costa Filho","distancia":1588},{"nome":"Teatro Ziembinski","distancia":33}]},{"linha":"416","descricao_ponto":"Avenida Paulo De Frontin próximo ao 763","sequencia":"23","latitude":"-22.9316","longitude":"-43.2092","pontos_turisticos":[{"nome":"Cristo Redentor (Corcovado)","distancia":1473},{"nome":"Mirante Dona Marta","distancia":1996},{"nome":"Santa Teresa","distancia":1142},{"nome":"Teatro Ziembinski","distancia":1917}]},{"linha":"416","descricao_ponto":"Rua Pacheco Leao próximo ao 1197","sequencia":"38","latitude":"-22.9668","longitude":"-43.2313","pontos_turisticos":[{"nome":"Jardim Botânico","distancia":938},{"nome":"Jockey Club Brasileiro","distancia":972},{"nome":"Parque da Cidade","distancia":1883},{"nome":"Parque Lage","distancia":1960},{"nome":"Planetário","distancia":1343},{"nome":"Teatro Amador O Tablado","distancia":1520},{"nome":"Teatro Casa da Gávea","distancia":920},{"nome":"Teatro Casa do Riso","distancia":1699},{"nome":"Teatro Clara Nunes","distancia":1035},{"nome":"Teatro das Artes","distancia":1040},{"nome":"Teatro do Jockey","distancia":1308},{"nome":"Teatro dos Quatro","distancia":1043},{"nome":"Teatro Leblon","distancia":1796},{"nome":"Teatro Maria Clara Machado","distancia":1344},{"nome":"Teatro Vanucci","distancia":1035}]},{"linha":"416","descricao_ponto":"BRS 2 - AFONSO PENA","sequencia":"27","latitude":"-22.9186","longitude":"-43.2182","pontos_turisticos":[{"nome":"Estádio do Maracanã","distancia":1430},{"nome":"Jardim Zoológico (Riozoo)","distancia":1918},{"nome":"Quinta da Boa Vista/Museu Nacional","distancia":1615},{"nome":"Teatro Odylo Costa Filho","distancia":1939},{"nome":"Teatro Ziembinski","distancia":641}]},{"linha":"416","descricao_ponto":"Avenida Paulo De Frontin próximo ao 543","sequencia":"20","latitude":"-22.9258","longitude":"-43.2095","pontos_turisticos":[{"nome":"Cristo Redentor (Corcovado)","distancia":1980},{"nome":"Santa Teresa","distancia":1357},{"nome":"Teatro Ziembinski","distancia":1572}]},{"linha":"416","descricao_ponto":"Rua Jardim Botanico próximo ao 391","sequencia":"26","latitude":"-22.9611","longitude":"-43.2123","pontos_turisticos":[{"nome":"Espaço Cultura Sergio Porto","distancia":1341},{"nome":"Jardim Botânico","distancia":1564},{"nome":"Jockey Club Brasileiro","distancia":1975},{"nome":"Lagoa Rodrigo de Freitas","distancia":1137},{"nome":"Parque Lage","distancia":86},{"nome":"Teatro Amador O Tablado","distancia":623}]},{"linha":"416","descricao_ponto":"Rua Pacheco Leao próximo ao 1311","sequencia":"3","latitude":"-22.9663","longitude":"-43.2298","pontos_turisticos":[{"nome":"Jardim Botânico","distancia":840},{"nome":"Jockey Club Brasileiro","distancia":939},{"nome":"Lagoa Rodrigo de Freitas","distancia":1933},{"nome":"Parque Lage","distancia":1797},{"nome":"Planetário","distancia":1395},{"nome":"Teatro Amador O Tablado","distancia":1361},{"nome":"Teatro Casa da Gávea","distancia":910},{"nome":"Teatro Casa do Riso","distancia":1675},{"nome":"Teatro Clara Nunes","distancia":1051},{"nome":"Teatro das Artes","distancia":1060},{"nome":"Teatro do Jockey","distancia":1290},{"nome":"Teatro dos Quatro","distancia":1059},{"nome":"Teatro Leblon","distancia":1776},{"nome":"Teatro Maria Clara Machado","distancia":1396},{"nome":"Teatro Vanucci","distancia":1055}]},{"linha":"416","descricao_ponto":"Avenida Paulo De Frontin próximo ao 619","sequencia":"19","latitude":"-22.9277","longitude":"-43.2094","pontos_turisticos":[{"nome":"Cristo Redentor (Corcovado)","distancia":1804},{"nome":"Santa Teresa","distancia":1254},{"nome":"Teatro Ziembinski","distancia":1666}]},{"linha":"416","descricao_ponto":"Rua Jardim Botanico próximo ao 414","sequencia":"10","latitude":"-22.9612","longitude":"-43.2132","pontos_turisticos":[{"nome":"Espaço Cultura Sergio Porto","distancia":1433},{"nome":"Jardim Botânico","distancia":1492},{"nome":"Jockey Club Brasileiro","distancia":1904},{"nome":"Lagoa Rodrigo de Freitas","distancia":1135},{"nome":"Parque Lage","distancia":13},{"nome":"Teatro Amador O Tablado","distancia":553}]},{"linha":"416","descricao_ponto":"Avenida Heitor Beltrao próximo ao 377","sequencia":"5","latitude":"-22.9268","longitude":"-43.234","pontos_turisticos":[{"nome":"Estádio do Maracanã","distancia":1498},{"nome":"Teatro Noel Rosa","distancia":1825},{"nome":"Teatro Odylo Costa Filho","distancia":1809},{"nome":"Teatro Ziembinski","distancia":1221}]},{"linha":"416","descricao_ponto":"Rua Jardim Botanico próximo ao 584 (PONTO DESATIVADO EM 10/04/2014)","sequencia":"28","latitude":"-22.9632","longitude":"-43.2166","pontos_turisticos":[{"nome":"Espaço Cultura Sergio Porto","distancia":1827},{"nome":"Jardim Botânico","distancia":1094},{"nome":"Jockey Club Brasileiro","distancia":1509},{"nome":"Lagoa Rodrigo de Freitas","distancia":1031},{"nome":"Parque Lage","distancia":416},{"nome":"Teatro Amador O Tablado","distancia":210},{"nome":"Teatro Casa da Gávea","distancia":1608},{"nome":"Teatro Casa do Riso","distancia":1957},{"nome":"Teatro Clara Nunes","distancia":1813},{"nome":"Teatro das Artes","distancia":1836},{"nome":"Teatro do Jockey","distancia":1755},{"nome":"Teatro dos Quatro","distancia":1814},{"nome":"Teatro Vanucci","distancia":1830}]},{"linha":"416","descricao_ponto":"Rua Pacheco Leao próximo ao 650","sequencia":"5","latitude":"-22.9654","longitude":"-43.2227","pontos_turisticos":[{"nome":"Jardim Botânico","distancia":613},{"nome":"Jockey Club Brasileiro","distancia":990},{"nome":"Lagoa Rodrigo de Freitas","distancia":1302},{"nome":"Parque Lage","distancia":1083},{"nome":"Planetário","distancia":1682},{"nome":"Teatro Amador O Tablado","distancia":628},{"nome":"Teatro Casa da Gávea","distancia":1058},{"nome":"Teatro Casa do Riso","distancia":1610},{"nome":"Teatro Clara Nunes","distancia":1263},{"nome":"Teatro das Artes","distancia":1283},{"nome":"Teatro do Jockey","distancia":1310},{"nome":"Teatro dos Quatro","distancia":1266},{"nome":"Teatro Leblon","distancia":1718},{"nome":"Teatro Maria Clara Machado","distancia":1683},{"nome":"Teatro Vanucci","distancia":1277}]},{"linha":"416","descricao_ponto":"Rua Santo Afonso próximo ao 60","sequencia":"31","latitude":"-22.9226","longitude":"-43.2319","pontos_turisticos":[{"nome":"Estádio do Maracanã","distancia":1004},{"nome":"Teatro Noel Rosa","distancia":1444},{"nome":"Teatro Odylo Costa Filho","distancia":1376},{"nome":"Teatro Ziembinski","distancia":838}]},{"linha":"416","descricao_ponto":"Praça Gabriel Soares","sequencia":"35","latitude":"-22.9313","longitude":"-43.2344","pontos_turisticos":[{"nome":"Estádio do Maracanã","distancia":1997},{"nome":"Teatro Ziembinski","distancia":1574}]},{"linha":"416","descricao_ponto":"Rua Conde De Bonfim próximo ao 155","sequencia":"10","latitude":"-22.925","longitude":"-43.226","pontos_turisticos":[{"nome":"Estádio do Maracanã","distancia":1369},{"nome":"Teatro Noel Rosa","distancia":1983},{"nome":"Teatro Odylo Costa Filho","distancia":1852},{"nome":"Teatro Ziembinski","distancia":499}]},{"linha":"416","descricao_ponto":"Rua Lopes Quintas próximo ao 23","sequencia":"31","latitude":"-22.9642","longitude":"-43.2214","pontos_turisticos":[{"nome":"Jardim Botânico","distancia":768},{"nome":"Jockey Club Brasileiro","distancia":1162},{"nome":"Lagoa Rodrigo de Freitas","distancia":1268},{"nome":"Parque Lage","distancia":908},{"nome":"Planetário","distancia":1863},{"nome":"Teatro Amador O Tablado","distancia":504},{"nome":"Teatro Casa da Gávea","distancia":1236},{"nome":"Teatro Casa do Riso","distancia":1749},{"nome":"Teatro Clara Nunes","distancia":1442},{"nome":"Teatro das Artes","distancia":1463},{"nome":"Teatro do Jockey","distancia":1468},{"nome":"Teatro dos Quatro","distancia":1445},{"nome":"Teatro Leblon","distancia":1856},{"nome":"Teatro Maria Clara Machado","distancia":1863},{"nome":"Teatro Vanucci","distancia":1457}]},{"linha":"416","descricao_ponto":"Rua Pacheco Leao próximo ao 675","sequencia":"4","latitude":"-22.9656","longitude":"-43.2249","pontos_turisticos":[{"nome":"Jardim Botânico","distancia":611},{"nome":"Jockey Club Brasileiro","distancia":923},{"nome":"Lagoa Rodrigo de Freitas","distancia":1491},{"nome":"Parque Lage","distancia":1299},{"nome":"Planetário","distancia":1571},{"nome":"Teatro Amador O Tablado","distancia":854},{"nome":"Teatro Casa da Gávea","distancia":964},{"nome":"Teatro Casa do Riso","distancia":1603},{"nome":"Teatro Clara Nunes","distancia":1161},{"nome":"Teatro das Artes","distancia":1178},{"nome":"Teatro do Jockey","distancia":1267},{"nome":"Teatro dos Quatro","distancia":1165},{"nome":"Teatro Leblon","distancia":1711},{"nome":"Teatro Maria Clara Machado","distancia":1571},{"nome":"Teatro Vanucci","distancia":1172}]},{"linha":"416","descricao_ponto":"Rua Jardim Botanico próximo ao 633","sequencia":"8","latitude":"-22.9649","longitude":"-43.2182","pontos_turisticos":[{"nome":"Jardim Botânico","distancia":845},{"nome":"Jockey Club Brasileiro","distancia":1259},{"nome":"Lagoa Rodrigo de Freitas","distancia":974},{"nome":"Parque Lage","distancia":658},{"nome":"Planetário","distancia":1981},{"nome":"Teatro Amador O Tablado","distancia":168},{"nome":"Teatro Casa da Gávea","distancia":1358},{"nome":"Teatro Casa do Riso","distancia":1728},{"nome":"Teatro Clara Nunes","distancia":1563},{"nome":"Teatro das Artes","distancia":1586},{"nome":"Teatro do Jockey","distancia":1511},{"nome":"Teatro dos Quatro","distancia":1564},{"nome":"Teatro Leblon","distancia":1831},{"nome":"Teatro Maria Clara Machado","distancia":1981},{"nome":"Teatro Vanucci","distancia":1580}]},{"linha":"416","descricao_ponto":"Avenida Paulo De Frontin próximo ao 257","sequencia":"24","latitude":"-22.918","longitude":"-43.2099","pontos_turisticos":[{"nome":"Sambódromo","distancia":1522},{"nome":"Santa Teresa","distancia":1969},{"nome":"Teatro Ziembinski","distancia":1472}]},{"linha":"416","descricao_ponto":"Rua Barao De Pirassinunga próximo ao 375","sequencia":"4","latitude":"-22.927","longitude":"-43.2329","pontos_turisticos":[{"nome":"Estádio do Maracanã","distancia":1501},{"nome":"Teatro Noel Rosa","distancia":1872},{"nome":"Teatro Odylo Costa Filho","distancia":1841},{"nome":"Teatro Ziembinski","distancia":1140}]},{"linha":"416","descricao_ponto":"Rua Jardim Botanico próximo ao 518","sequencia":"27","latitude":"-22.9618","longitude":"-43.2151","pontos_turisticos":[{"nome":"Espaço Cultura Sergio Porto","distancia":1637},{"nome":"Jardim Botânico","distancia":1312},{"nome":"Jockey Club Brasileiro","distancia":1726},{"nome":"Lagoa Rodrigo de Freitas","distancia":1113},{"nome":"Parque Lage","distancia":211},{"nome":"Teatro Amador O Tablado","distancia":395},{"nome":"Teatro Casa da Gávea","distancia":1827},{"nome":"Teatro do Jockey","distancia":1967}]},{"linha":"416","descricao_ponto":"Rua Jardim Botanico próximo ao 138","sequencia":"29","latitude":"-22.9648","longitude":"-43.218","pontos_turisticos":[{"nome":"Jardim Botânico","distancia":866},{"nome":"Jockey Club Brasileiro","distancia":1280},{"nome":"Lagoa Rodrigo de Freitas","distancia":968},{"nome":"Parque Lage","distancia":635},{"nome":"Teatro Amador O Tablado","distancia":149},{"nome":"Teatro Casa da Gávea","distancia":1380},{"nome":"Teatro Casa do Riso","distancia":1745},{"nome":"Teatro Clara Nunes","distancia":1585},{"nome":"Teatro das Artes","distancia":1608},{"nome":"Teatro do Jockey","distancia":1531},{"nome":"Teatro dos Quatro","distancia":1586},{"nome":"Teatro Leblon","distancia":1847},{"nome":"Teatro Vanucci","distancia":1602}]},{"linha":"416","descricao_ponto":"Rua Von Martius próximo ao 320","sequencia":"32","latitude":"-22.9646","longitude":"-43.2225","pontos_turisticos":[{"nome":"Jardim Botânico","distancia":703},{"nome":"Jockey Club Brasileiro","distancia":1081},{"nome":"Lagoa Rodrigo de Freitas","distancia":1332},{"nome":"Parque Lage","distancia":1029},{"nome":"Planetário","distancia":1771},{"nome":"Teatro Amador O Tablado","distancia":609},{"nome":"Teatro Casa da Gávea","distancia":1147},{"nome":"Teatro Casa do Riso","distancia":1699},{"nome":"Teatro Clara Nunes","distancia":1352},{"nome":"Teatro das Artes","distancia":1372},{"nome":"Teatro do Jockey","distancia":1401},{"nome":"Teatro dos Quatro","distancia":1355},{"nome":"Teatro Leblon","distancia":1807},{"nome":"Teatro Maria Clara Machado","distancia":1771},{"nome":"Teatro Vanucci","distancia":1366}]},{"linha":"416","descricao_ponto":"BRS 2 - DOMÍCIO DA GAMA","sequencia":"26","latitude":"-22.917","longitude":"-43.2143","pontos_turisticos":[{"nome":"Estádio do Maracanã","distancia":1758},{"nome":"Quinta da Boa Vista/Museu Nacional","distancia":1681},{"nome":"Sambódromo","distancia":1891},{"nome":"Teatro Ziembinski","distancia":1078}]},{"linha":"416","descricao_ponto":"Avenida Paulo De Frontin próximo ao 238","sequencia":"18","latitude":"-22.9178","longitude":"-43.2101","pontos_turisticos":[{"nome":"Sambódromo","distancia":1530},{"nome":"Santa Teresa","distancia":1999},{"nome":"Teatro Ziembinski","distancia":1458}]},{"linha":"416","descricao_ponto":"Rua Pacheco Leao próximo ao 1311","sequencia":"37","latitude":"-22.9662","longitude":"-43.2297","pontos_turisticos":[{"nome":"Jardim Botânico","distancia":839},{"nome":"Jockey Club Brasileiro","distancia":945},{"nome":"Lagoa Rodrigo de Freitas","distancia":1926},{"nome":"Parque Lage","distancia":1784},{"nome":"Planetário","distancia":1407},{"nome":"Teatro Amador O Tablado","distancia":1349},{"nome":"Teatro Casa da Gávea","distancia":917},{"nome":"Teatro Casa do Riso","distancia":1681},{"nome":"Teatro Clara Nunes","distancia":1061},{"nome":"Teatro das Artes","distancia":1070},{"nome":"Teatro do Jockey","distancia":1296},{"nome":"Teatro dos Quatro","distancia":1068},{"nome":"Teatro Leblon","distancia":1782},{"nome":"Teatro Maria Clara Machado","distancia":1407},{"nome":"Teatro Vanucci","distancia":1064}]},{"linha":"416","descricao_ponto":"BRS 2 - CONSELHEIRO ZENHA","sequencia":"30","latitude":"-22.9216","longitude":"-43.2282","pontos_turisticos":[{"nome":"Estádio do Maracanã","distancia":936},{"nome":"Jardim Zoológico (Riozoo)","distancia":1914},{"nome":"Quinta da Boa Vista/Museu Nacional","distancia":1829},{"nome":"Teatro Noel Rosa","distancia":1546},{"nome":"Teatro Odylo Costa Filho","distancia":1412},{"nome":"Teatro Ziembinski","distancia":445}]},{"linha":"416","descricao_ponto":"Rua Conde De Bonfim próximo ao 370","sequencia":"7","latitude":"-22.9245","longitude":"-43.2331","pontos_turisticos":[{"nome":"Estádio do Maracanã","distancia":1229},{"nome":"Teatro Noel Rosa","distancia":1599},{"nome":"Teatro Odylo Costa Filho","distancia":1563},{"nome":"Teatro Ziembinski","distancia":1020}]},{"linha":"416","descricao_ponto":"Rua Santo Afonso próximo ao 26","sequencia":"32","latitude":"-22.9236","longitude":"-43.2338","pontos_turisticos":[{"nome":"Estádio do Maracanã","distancia":1146},{"nome":"Teatro Noel Rosa","distancia":1483},{"nome":"Teatro Odylo Costa Filho","distancia":1456},{"nome":"Teatro Ziembinski","distancia":1054}]},{"linha":"416","descricao_ponto":"Rua Pacheco Leao próximo ao 1124","sequencia":"36","latitude":"-22.9657","longitude":"-43.2287","pontos_turisticos":[{"nome":"Jardim Botânico","distancia":800},{"nome":"Jockey Club Brasileiro","distancia":958},{"nome":"Lagoa Rodrigo de Freitas","distancia":1847},{"nome":"Parque Lage","distancia":1670},{"nome":"Planetário","distancia":1470},{"nome":"Teatro Amador O Tablado","distancia":1243},{"nome":"Teatro Casa da Gávea","distancia":946},{"nome":"Teatro Casa do Riso","distancia":1691},{"nome":"Teatro Clara Nunes","distancia":1105},{"nome":"Teatro das Artes","distancia":1116},{"nome":"Teatro do Jockey","distancia":1314},{"nome":"Teatro dos Quatro","distancia":1112},{"nome":"Teatro Leblon","distancia":1795},{"nome":"Teatro Maria Clara Machado","distancia":1470},{"nome":"Teatro Vanucci","distancia":1110}]},{"linha":"416","descricao_ponto":"Rua Pacheco Leao próximo ao 1317","sequencia":"39","latitude":"-22.9665","longitude":"-43.2354","pontos_turisticos":[{"nome":"Jardim Botânico","distancia":1333},{"nome":"Jockey Club Brasileiro","distancia":1286},{"nome":"Parque da Cidade","distancia":1605},{"nome":"Planetário","distancia":1470},{"nome":"Teatro Amador O Tablado","distancia":1934},{"nome":"Teatro Casa da Gávea","distancia":1204},{"nome":"Teatro Casa do Riso","distancia":1975},{"nome":"Teatro Clara Nunes","distancia":1262},{"nome":"Teatro das Artes","distancia":1259},{"nome":"Teatro do Jockey","distancia":1585},{"nome":"Teatro dos Quatro","distancia":1270},{"nome":"Teatro Maria Clara Machado","distancia":1470},{"nome":"Teatro Vanucci","distancia":1255},{"nome":"Vista Chinesa","distancia":1632}]},{"linha":"416","descricao_ponto":"Rua Pacheco Leao próximo ao 1111","sequencia":"2","latitude":"-22.9666","longitude":"-43.2321","pontos_turisticos":[{"nome":"Jardim Botânico","distancia":1021},{"nome":"Jockey Club Brasileiro","distancia":1039},{"nome":"Parque da Cidade","distancia":1835},{"nome":"Planetário","distancia":1374},{"nome":"Teatro Amador O Tablado","distancia":1598},{"nome":"Teatro Casa da Gávea","distancia":981},{"nome":"Teatro Casa do Riso","distancia":1762},{"nome":"Teatro Clara Nunes","distancia":1085},{"nome":"Teatro das Artes","distancia":1088},{"nome":"Teatro do Jockey","distancia":1369},{"nome":"Teatro dos Quatro","distancia":1093},{"nome":"Teatro Leblon","distancia":1856},{"nome":"Teatro Maria Clara Machado","distancia":1375},{"nome":"Teatro Vanucci","distancia":1083},{"nome":"Vista Chinesa","distancia":1934}]},{"linha":"416","descricao_ponto":"Rua Conde De Bonfim próximo ao 193","sequencia":"9","latitude":"-22.9242","longitude":"-43.2279","pontos_turisticos":[{"nome":"Estádio do Maracanã","distancia":1222},{"nome":"Teatro Noel Rosa","distancia":1798},{"nome":"Teatro Odylo Costa Filho","distancia":1682},{"nome":"Teatro Ziembinski","distancia":545}]},{"linha":"416","descricao_ponto":"Rua Pacheco Leao próximo ao 744","sequencia":"34","latitude":"-22.9656","longitude":"-43.2245","pontos_turisticos":[{"nome":"Jardim Botânico","distancia":601},{"nome":"Jockey Club Brasileiro","distancia":927},{"nome":"Lagoa Rodrigo de Freitas","distancia":1454},{"nome":"Parque Lage","distancia":1261},{"nome":"Planetário","distancia":1585},{"nome":"Teatro Amador O Tablado","distancia":813},{"nome":"Teatro Casa da Gávea","distancia":974},{"nome":"Teatro Casa do Riso","distancia":1598},{"nome":"Teatro Clara Nunes","distancia":1173},{"nome":"Teatro das Artes","distancia":1191},{"nome":"Teatro do Jockey","distancia":1268},{"nome":"Teatro dos Quatro","distancia":1177},{"nome":"Teatro Leblon","distancia":1706},{"nome":"Teatro Maria Clara Machado","distancia":1586},{"nome":"Teatro Vanucci","distancia":1185}]},{"linha":"416","descricao_ponto":"BRS 1,2A,3,I - ENG. MARQUES PORTO","sequencia":"14","latitude":"-22.9596","longitude":"-43.2015","pontos_turisticos":[{"nome":"Espaço Cultura Sergio Porto","distancia":244},{"nome":"Fundação Casa de Rui Barbosa","distancia":1873},{"nome":"Fundação Eva Klabin Rapaport","distancia":1852},{"nome":"Lagoa Rodrigo de Freitas","distancia":1671},{"nome":"Mirante Dona Marta","distancia":1578},{"nome":"Museu do Índio","distancia":1342},{"nome":"Parque Lage","distancia":1204},{"nome":"Teatro Amador O Tablado","distancia":1660}]},{"linha":"416","descricao_ponto":"Avenida Paulo De Frontin próximo ao 299","sequencia":"23","latitude":"-22.9194","longitude":"-43.2098","pontos_turisticos":[{"nome":"Sambódromo","distancia":1594},{"nome":"Santa Teresa","distancia":1842},{"nome":"Teatro Ziembinski","distancia":1456}]},{"linha":"416","descricao_ponto":"Rua Haddock Lobo próximo ao 153","sequencia":"15","latitude":"-22.9197","longitude":"-43.2152","pontos_turisticos":[{"nome":"Estádio do Maracanã","distancia":1761},{"nome":"Quinta da Boa Vista/Museu Nacional","distancia":1870},{"nome":"Teatro Ziembinski","distancia":903}]},{"linha":"416","descricao_ponto":"Rua Conde De Bonfim próximo ao 189","sequencia":"8","latitude":"-22.9233","longitude":"-43.2301","pontos_turisticos":[{"nome":"Estádio do Maracanã","distancia":1083},{"nome":"Teatro Noel Rosa","distancia":1596},{"nome":"Teatro Odylo Costa Filho","distancia":1503},{"nome":"Teatro Ziembinski","distancia":685}]},{"linha":"416","descricao_ponto":"Avenida Paulo De Frontin próximo ao 628","sequencia":"21","latitude":"-22.9274","longitude":"-43.2096","pontos_turisticos":[{"nome":"Cristo Redentor (Corcovado)","distancia":1843},{"nome":"Santa Teresa","distancia":1286},{"nome":"Teatro Ziembinski","distancia":1632}]},{"linha":"416","descricao_ponto":"Rua Pacheco Leao próximo ao 650","sequencia":"33","latitude":"-22.9654","longitude":"-43.2227","pontos_turisticos":[{"nome":"Jardim Botânico","distancia":613},{"nome":"Jockey Club Brasileiro","distancia":990},{"nome":"Lagoa Rodrigo de Freitas","distancia":1302},{"nome":"Parque Lage","distancia":1083},{"nome":"Planetário","distancia":1682},{"nome":"Teatro Amador O Tablado","distancia":628},{"nome":"Teatro Casa da Gávea","distancia":1058},{"nome":"Teatro Casa do Riso","distancia":1610},{"nome":"Teatro Clara Nunes","distancia":1263},{"nome":"Teatro das Artes","distancia":1283},{"nome":"Teatro do Jockey","distancia":1310},{"nome":"Teatro dos Quatro","distancia":1266},{"nome":"Teatro Leblon","distancia":1718},{"nome":"Teatro Maria Clara Machado","distancia":1683},{"nome":"Teatro Vanucci","distancia":1277}]},{"linha":"416","descricao_ponto":"Rua Haddock Lobo próximo ao 269","sequencia":"14","latitude":"-22.9207","longitude":"-43.2176","pontos_turisticos":[{"nome":"Estádio do Maracanã","distancia":1589},{"nome":"Quinta da Boa Vista/Museu Nacional","distancia":1853},{"nome":"Teatro Ziembinski","distancia":648}]},{"linha":"416","descricao_ponto":"Avenida Paulo De Frontin próximo ao 452","sequencia":"20","latitude":"-22.9259","longitude":"-43.2097","pontos_turisticos":[{"nome":"Cristo Redentor (Corcovado)","distancia":1983},{"nome":"Santa Teresa","distancia":1369},{"nome":"Teatro Ziembinski","distancia":1557}]},{"linha":"416","descricao_ponto":"Rua Pacheco Leao próximo ao 1317","sequencia":"1","latitude":"-22.9665","longitude":"-43.2354","pontos_turisticos":[{"nome":"Jardim Botânico","distancia":1333},{"nome":"Jockey Club Brasileiro","distancia":1286},{"nome":"Parque da Cidade","distancia":1605},{"nome":"Planetário","distancia":1470},{"nome":"Teatro Amador O Tablado","distancia":1934},{"nome":"Teatro Casa da Gávea","distancia":1204},{"nome":"Teatro Casa do Riso","distancia":1975},{"nome":"Teatro Clara Nunes","distancia":1262},{"nome":"Teatro das Artes","distancia":1259},{"nome":"Teatro do Jockey","distancia":1585},{"nome":"Teatro dos Quatro","distancia":1270},{"nome":"Teatro Maria Clara Machado","distancia":1470},{"nome":"Teatro Vanucci","distancia":1255},{"nome":"Vista Chinesa","distancia":1632}]},{"linha":"416","descricao_ponto":"Rua Jardim Botanico próximo ao 291","sequencia":"11","latitude":"-22.9609","longitude":"-43.2103","pontos_turisticos":[{"nome":"Espaço Cultura Sergio Porto","distancia":1136},{"nome":"Jardim Botânico","distancia":1732},{"nome":"Lagoa Rodrigo de Freitas","distancia":1167},{"nome":"Parque Lage","distancia":291},{"nome":"Teatro Amador O Tablado","distancia":793}]},{"linha":"416","descricao_ponto":"Avenida Paulo De Frontin próximo ao 763","sequencia":"17","latitude":"-22.9314","longitude":"-43.2089","pontos_turisticos":[{"nome":"Cristo Redentor (Corcovado)","distancia":1465},{"nome":"Mirante Dona Marta","distancia":1995},{"nome":"Santa Teresa","distancia":1112},{"nome":"Teatro Ziembinski","distancia":1928}]},{"linha":"416","descricao_ponto":"BRS 2, 5, 6, I - PROFESSOR GABIZO","sequencia":"28","latitude":"-22.9195","longitude":"-43.2202","pontos_turisticos":[{"nome":"Estádio do Maracanã","distancia":1292},{"nome":"Jardim Zoológico (Riozoo)","distancia":1898},{"nome":"Quinta da Boa Vista/Museu Nacional","distancia":1635},{"nome":"Teatro Odylo Costa Filho","distancia":1813},{"nome":"Teatro Ziembinski","distancia":413}]},{"linha":"416","descricao_ponto":"Rua Bom Pastor próximo ao 42","sequencia":"2","latitude":"-22.9293","longitude":"-43.2317","pontos_turisticos":[{"nome":"Estádio do Maracanã","distancia":1747},{"nome":"Teatro Ziembinski","distancia":1224}]},{"linha":"416","descricao_ponto":"BRS 2 - RUA DO MATOSO","sequencia":"25","latitude":"-22.9161","longitude":"-43.212","pontos_turisticos":[{"nome":"Estádio do Maracanã","distancia":1973},{"nome":"Quinta da Boa Vista/Museu Nacional","distancia":1774},{"nome":"Sambódromo","distancia":1636},{"nome":"Teatro Ziembinski","distancia":1334}]},{"linha":"416","descricao_ponto":"Rua Conde De Bonfim próximo ao 25","sequencia":"11","latitude":"-22.9245","longitude":"-43.2242","pontos_turisticos":[{"nome":"Estádio do Maracanã","distancia":1401},{"nome":"Teatro Odylo Costa Filho","distancia":1905},{"nome":"Teatro Ziembinski","distancia":396}]},{"linha":"416","descricao_ponto":"Rua Haddock Lobo próximo ao 347","sequencia":"13","latitude":"-22.9213","longitude":"-43.2198","pontos_turisticos":[{"nome":"Estádio do Maracanã","distancia":1437},{"nome":"Quinta da Boa Vista/Museu Nacional","distancia":1839},{"nome":"Teatro Odylo Costa Filho","distancia":1962},{"nome":"Teatro Ziembinski","distancia":423}]},{"linha":"416","descricao_ponto":"Rua Jardim Botanico próximo ao 266","sequencia":"24","latitude":"-22.9605","longitude":"-43.2067","pontos_turisticos":[{"nome":"Espaço Cultura Sergio Porto","distancia":770},{"nome":"Fundação Eva Klabin Rapaport","distancia":1930},{"nome":"Lagoa Rodrigo de Freitas","distancia":1308},{"nome":"Mirante Dona Marta","distancia":1879},{"nome":"Museu do Índio","distancia":1837},{"nome":"Parque Lage","distancia":662},{"nome":"Teatro Amador O Tablado","distancia":1132}]},{"linha":"416","descricao_ponto":"Rua Des Izidro próximo ao 15","sequencia":"33","latitude":"-22.9256","longitude":"-43.2327","pontos_turisticos":[{"nome":"Estádio do Maracanã","distancia":1344},{"nome":"Teatro Noel Rosa","distancia":1728},{"nome":"Teatro Odylo Costa Filho","distancia":1689},{"nome":"Teatro Ziembinski","distancia":1038}]},{"linha":"416","descricao_ponto":"Avenida Paulo De Frontin próximo ao 431","sequencia":"22","latitude":"-22.9228","longitude":"-43.2097","pontos_turisticos":[{"nome":"Sambódromo","distancia":1823},{"nome":"Santa Teresa","distancia":1567},{"nome":"Teatro Ziembinski","distancia":1471}]},{"linha":"416","descricao_ponto":"Rua Pacheco Leao próximo ao 960","sequencia":"35","latitude":"-22.9655","longitude":"-43.2262","pontos_turisticos":[{"nome":"Jardim Botânico","distancia":669},{"nome":"Jockey Club Brasileiro","distancia":931},{"nome":"Lagoa Rodrigo de Freitas","distancia":1617},{"nome":"Parque Lage","distancia":1419},{"nome":"Planetário","distancia":1540},{"nome":"Teatro Amador O Tablado","distancia":986},{"nome":"Teatro Casa da Gávea","distancia":955},{"nome":"Teatro Casa do Riso","distancia":1638},{"nome":"Teatro Clara Nunes","distancia":1142},{"nome":"Teatro das Artes","distancia":1157},{"nome":"Teatro do Jockey","distancia":1285},{"nome":"Teatro dos Quatro","distancia":1147},{"nome":"Teatro Leblon","distancia":1745},{"nome":"Teatro Maria Clara Machado","distancia":1541},{"nome":"Teatro Vanucci","distancia":1151}]},{"linha":"416","descricao_ponto":"Rua Jardim Botanico próximo ao 308","sequencia":"9","latitude":"-22.9622","longitude":"-43.2155","pontos_turisticos":[{"nome":"Espaço Cultura Sergio Porto","distancia":1688},{"nome":"Jardim Botânico","distancia":1252},{"nome":"Jockey Club Brasileiro","distancia":1666},{"nome":"Lagoa Rodrigo de Freitas","distancia":1085},{"nome":"Parque Lage","distancia":265},{"nome":"Teatro Amador O Tablado","distancia":339},{"nome":"Teatro Casa da Gávea","distancia":1766},{"nome":"Teatro Clara Nunes","distancia":1971},{"nome":"Teatro das Artes","distancia":1994},{"nome":"Teatro do Jockey","distancia":1908},{"nome":"Teatro dos Quatro","distancia":1972},{"nome":"Teatro Vanucci","distancia":1988}]},{"linha":"416","descricao_ponto":"Rua Jardim Botanico próximo ao 728","sequencia":"7","latitude":"-22.966","longitude":"-43.2191","pontos_turisticos":[{"nome":"Jardim Botânico","distancia":691},{"nome":"Jockey Club Brasileiro","distancia":1106},{"nome":"Lagoa Rodrigo de Freitas","distancia":959},{"nome":"Parque Lage","distancia":806},{"nome":"Planetário","distancia":1828},{"nome":"Teatro Amador O Tablado","distancia":278},{"nome":"Teatro Café Pequeno","distancia":1985},{"nome":"Teatro Casa da Gávea","distancia":1206},{"nome":"Teatro Casa do Riso","distancia":1587},{"nome":"Teatro Clara Nunes","distancia":1410},{"nome":"Teatro das Artes","distancia":1433},{"nome":"Teatro do Jockey","distancia":1361},{"nome":"Teatro dos Quatro","distancia":1411},{"nome":"Teatro Leblon","distancia":1691},{"nome":"Teatro Maria Clara Machado","distancia":1828},{"nome":"Teatro Vanucci","distancia":1428}]},{"linha":"416","descricao_ponto":"Avenida Paulo De Frontin próximo ao 481","sequencia":"21","latitude":"-22.924","longitude":"-43.2096","pontos_turisticos":[{"nome":"Sambódromo","distancia":1910},{"nome":"Santa Teresa","distancia":1476},{"nome":"Teatro Ziembinski","distancia":1505}]},{"linha":"416","descricao_ponto":"Rua Barao De Pirassinunga próximo ao 78","sequencia":"3","latitude":"-22.9277","longitude":"-43.2318","pontos_turisticos":[{"nome":"Estádio do Maracanã","distancia":1569},{"nome":"Teatro Noel Rosa","distancia":1979},{"nome":"Teatro Odylo Costa Filho","distancia":1934},{"nome":"Teatro Ziembinski","distancia":1103}]},{"linha":"416","descricao_ponto":"Rua Conde De Bonfim próximo ao 412","sequencia":"6","latitude":"-22.9252","longitude":"-43.2341","pontos_turisticos":[{"nome":"Estádio do Maracanã","distancia":1326},{"nome":"Teatro Noel Rosa","distancia":1649},{"nome":"Teatro Odylo Costa Filho","distancia":1631},{"nome":"Teatro Ziembinski","distancia":1145}]},{"linha":"416","descricao_ponto":"Rua Conde De Bonfim próximo ao 25","sequencia":"12","latitude":"-22.9228","longitude":"-43.2223","pontos_turisticos":[{"nome":"Estádio do Maracanã","distancia":1361},{"nome":"Quinta da Boa Vista/Museu Nacional","distancia":1948},{"nome":"Teatro Odylo Costa Filho","distancia":1883},{"nome":"Teatro Ziembinski","distancia":264}]},{"linha":"416","descricao_ponto":"Rua Jardim Botanico próximo ao 266","sequencia":"25","latitude":"-22.9608","longitude":"-43.2093","pontos_turisticos":[{"nome":"Espaço Cultura Sergio Porto","distancia":1035},{"nome":"Jardim Botânico","distancia":1818},{"nome":"Lagoa Rodrigo de Freitas","distancia":1195},{"nome":"Parque Lage","distancia":394},{"nome":"Teatro Amador O Tablado","distancia":884}]},{"linha":"416","descricao_ponto":"Avenida Paulo De Frontin próximo ao 742","sequencia":"22","latitude":"-22.9297","longitude":"-43.2092","pontos_turisticos":[{"nome":"Cristo Redentor (Corcovado)","distancia":1622},{"nome":"Santa Teresa","distancia":1168},{"nome":"Teatro Ziembinski","distancia":1794}]},{"linha":"416","descricao_ponto":"BRS 1, I - VISCONDE DE SILVA","sequencia":"16","latitude":"-22.959","longitude":"-43.2006","pontos_turisticos":[{"nome":"Espaço Cultura Sergio Porto","distancia":130},{"nome":"Fundação Casa de Rui Barbosa","distancia":1759},{"nome":"Fundação Eva Klabin Rapaport","distancia":1904},{"nome":"Lagoa Rodrigo de Freitas","distancia":1781},{"nome":"Mirante Dona Marta","distancia":1491},{"nome":"Museu do Índio","distancia":1228},{"nome":"Parque Lage","distancia":1306},{"nome":"Teatro Amador O Tablado","distancia":1770}]},{"linha":"416","descricao_ponto":"Rua Jardim Botanico próximo ao 243","sequencia":"13","latitude":"-22.9603","longitude":"-43.2046","pontos_turisticos":[{"nome":"Espaço Cultura Sergio Porto","distancia":561},{"nome":"Fundação Eva Klabin Rapaport","distancia":1864},{"nome":"Lagoa Rodrigo de Freitas","distancia":1425},{"nome":"Mirante Dona Marta","distancia":1760},{"nome":"Museu do Índio","distancia":1643},{"nome":"Parque Lage","distancia":879},{"nome":"Teatro Amador O Tablado","distancia":1337}]},{"linha":"416","descricao_ponto":"Rua Haddock Lobo próximo ao 135","sequencia":"16","latitude":"-22.9182","longitude":"-43.2123","pontos_turisticos":[{"nome":"Estádio do Maracanã","distancia":1989},{"nome":"Quinta da Boa Vista/Museu Nacional","distancia":1917},{"nome":"Sambódromo","distancia":1752},{"nome":"Teatro Ziembinski","distancia":1228}]},{"linha":"416","descricao_ponto":"Rua Lopes Quintas próximo ao 340","sequencia":"30","latitude":"-22.9648","longitude":"-43.2197","pontos_turisticos":[{"nome":"Jardim Botânico","distancia":769},{"nome":"Jockey Club Brasileiro","distancia":1181},{"nome":"Lagoa Rodrigo de Freitas","distancia":1091},{"nome":"Parque Lage","distancia":779},{"nome":"Planetário","distancia":1898},{"nome":"Teatro Amador O Tablado","distancia":322},{"nome":"Teatro Casa da Gávea","distancia":1271},{"nome":"Teatro Casa do Riso","distancia":1705},{"nome":"Teatro Clara Nunes","distancia":1477},{"nome":"Teatro das Artes","distancia":1500},{"nome":"Teatro do Jockey","distancia":1458},{"nome":"Teatro dos Quatro","distancia":1479},{"nome":"Teatro Leblon","distancia":1810},{"nome":"Teatro Maria Clara Machado","distancia":1899},{"nome":"Teatro Vanucci","distancia":1494}]},{"linha":"416","descricao_ponto":"Rua Jardim Botanico próximo ao 67","sequencia":"12","latitude":"-22.9606","longitude":"-43.2072","pontos_turisticos":[{"nome":"Espaço Cultura Sergio Porto","distancia":822},{"nome":"Fundação Eva Klabin Rapaport","distancia":1944},{"nome":"Lagoa Rodrigo de Freitas","distancia":1278},{"nome":"Mirante Dona Marta","distancia":1915},{"nome":"Museu do Índio","distancia":1886},{"nome":"Parque Lage","distancia":610},{"nome":"Teatro Amador O Tablado","distancia":1082}]},{"linha":"416","descricao_ponto":"Praça Gabriel Soares","sequencia":"1","latitude":"-22.9313","longitude":"-43.2344","pontos_turisticos":[{"nome":"Estádio do Maracanã","distancia":1997},{"nome":"Teatro Ziembinski","distancia":1574}]},{"linha":"416","descricao_ponto":"BRS 2, 4, 5 - BARÃO DE UBÁ","sequencia":"17","latitude":"-22.9174","longitude":"-43.2111","pontos_turisticos":[{"nome":"Quinta da Boa Vista/Museu Nacional","distancia":1939},{"nome":"Sambódromo","distancia":1603},{"nome":"Teatro Ziembinski","distancia":1371}]},{"linha":"416","descricao_ponto":"Avenida Paulo De Frontin próximo ao 679","sequencia":"18","latitude":"-22.9296","longitude":"-43.209","pontos_turisticos":[{"nome":"Cristo Redentor (Corcovado)","distancia":1616},{"nome":"Santa Teresa","distancia":1151},{"nome":"Teatro Ziembinski","distancia":1805}]},{"linha":"416","descricao_ponto":"Rua Pacheco Leao próximo ao 501","sequencia":"6","latitude":"-22.9658","longitude":"-43.221","pontos_turisticos":[{"nome":"Jardim Botânico","distancia":612},{"nome":"Jockey Club Brasileiro","distancia":1018},{"nome":"Lagoa Rodrigo de Freitas","distancia":1130},{"nome":"Parque Lage","distancia":951},{"nome":"Planetário","distancia":1732},{"nome":"Teatro Amador O Tablado","distancia":460},{"nome":"Teatro Casa da Gávea","distancia":1104},{"nome":"Teatro Casa do Riso","distancia":1575},{"nome":"Teatro Clara Nunes","distancia":1310},{"nome":"Teatro das Artes","distancia":1332},{"nome":"Teatro do Jockey","distancia":1309},{"nome":"Teatro dos Quatro","distancia":1313},{"nome":"Teatro Leblon","distancia":1682},{"nome":"Teatro Maria Clara Machado","distancia":1732},{"nome":"Teatro Vanucci","distancia":1326}]},{"linha":"416","descricao_ponto":"BRS 2B - VISCONDE DE SILVA","sequencia":"15","latitude":"-22.9589","longitude":"-43.2","pontos_turisticos":[{"nome":"Espaço Cultura Sergio Porto","distancia":78},{"nome":"Fundação Casa de Rui Barbosa","distancia":1704},{"nome":"Fundação Eva Klabin Rapaport","distancia":1908},{"nome":"Lagoa Rodrigo de Freitas","distancia":1829},{"nome":"Mirante Dona Marta","distancia":1468},{"nome":"Museu do Índio","distancia":1174},{"nome":"Parque Lage","distancia":1369},{"nome":"Teatro Amador O Tablado","distancia":1831}]},{"linha":"416","descricao_ponto":"Rua Des Izidro próximo ao 144","sequencia":"34","latitude":"-22.9276","longitude":"-43.2335","pontos_turisticos":[{"nome":"Estádio do Maracanã","distancia":1576},{"nome":"Teatro Noel Rosa","distancia":1923},{"nome":"Teatro Odylo Costa Filho","distancia":1901},{"nome":"Teatro Ziembinski","distancia":1229}]},{"linha":"416","descricao_ponto":"Avenida Paulo De Frontin próximo ao 500","sequencia":"19","latitude":"-22.924","longitude":"-43.2098","pontos_turisticos":[{"nome":"Sambódromo","distancia":1924},{"nome":"Santa Teresa","distancia":1492},{"nome":"Teatro Ziembinski","distancia":1485}]}]