[{"linha":"420","descricao_ponto":"Rua Sao Francisco Xavier próximo ao 579","sequencia":"14","latitude":"-22.9152","longitude":"-43.2325","pontos_turisticos":[{"nome":"Estádio do Maracanã","distancia":230},{"nome":"Jardim Zoológico (Riozoo)","distancia":1259},{"nome":"Quinta da Boa Vista/Museu Nacional","distancia":1336},{"nome":"Teatro Noel Rosa","distancia":722},{"nome":"Teatro Odylo Costa Filho","distancia":576},{"nome":"Teatro Ziembinski","distancia":1087}]},{"linha":"420","descricao_ponto":"Rua Professor Gabizo próximo ao 246","sequencia":"17","latitude":"-22.9171","longitude":"-43.2211","pontos_turisticos":[{"nome":"Estádio do Maracanã","distancia":1092},{"nome":"Jardim Zoológico (Riozoo)","distancia":1619},{"nome":"Quinta da Boa Vista/Museu Nacional","distancia":1353},{"nome":"Teatro Mário Lago","distancia":1993},{"nome":"Teatro Noel Rosa","distancia":1834},{"nome":"Teatro Odylo Costa Filho","distancia":1599},{"nome":"Teatro Ziembinski","distancia":516}]},{"linha":"420","descricao_ponto":"BRS 2 - PRAÇA CASTELO BRANCO","sequencia":"9","latitude":"-22.9121","longitude":"-43.1981","pontos_turisticos":[{"nome":"Arcos da Lapa","distancia":1865},{"nome":"Campo de Santana","distancia":1169},{"nome":"Catedral Metropolitana","distancia":1784},{"nome":"Cidade do Samba","distancia":1978},{"nome":"Igreja e Convento de Santa Teresa","distancia":1865},{"nome":"Memorial dos Pretos Novos","distancia":1859},{"nome":"Museu da Chácara do Céu","distancia":1545},{"nome":"Parque das Ruínas","distancia":1713},{"nome":"Real Gabinete Português de Leitura","distancia":1791},{"nome":"Sambódromo","distancia":147},{"nome":"Teatro Carlos Gomes","distancia":1685},{"nome":"Teatro João Caetano","distancia":1739}]},{"linha":"420","descricao_ponto":"BRS 2 - DOMÍCIO DA GAMA","sequencia":"14","latitude":"-22.917","longitude":"-43.2143","pontos_turisticos":[{"nome":"Estádio do Maracanã","distancia":1758},{"nome":"Quinta da Boa Vista/Museu Nacional","distancia":1681},{"nome":"Sambódromo","distancia":1891},{"nome":"Teatro Ziembinski","distancia":1078}]},{"linha":"420","descricao_ponto":"BRS 2 - CORREIA VASQUES","sequencia":"10","latitude":"-22.9128","longitude":"-43.2016","pontos_turisticos":[{"nome":"Campo de Santana","distancia":1520},{"nome":"Museu da Chácara do Céu","distancia":1859},{"nome":"Sambódromo","distancia":510}]},{"linha":"420","descricao_ponto":"BRS 4, 5, I - BARÃO DE SÃO FRANCISCO","sequencia":"5","latitude":"-22.9187","longitude":"-43.2518","pontos_turisticos":[{"nome":"Teatro Noel Rosa","distancia":1702},{"nome":"Teatro Odylo Costa Filho","distancia":1944}]},{"linha":"420","descricao_ponto":"Rua Eleone De Almeida próximo ao 89","sequencia":"5","latitude":"-22.9174","longitude":"-43.1941","pontos_turisticos":[{"nome":"Arcos da Lapa","distancia":1538},{"nome":"Campo de Santana","distancia":1332},{"nome":"Catedral Metropolitana","distancia":1549},{"nome":"Igreja de São Francisco da Penitência","distancia":1916},{"nome":"Igreja e Convento de Santa Teresa","distancia":1426},{"nome":"Igreja Nossa Senhora da Glória do Outeiro","distancia":1970},{"nome":"Museu da Chácara do Céu","distancia":1021},{"nome":"Parque das Ruínas","distancia":1192},{"nome":"Parque Eduardo Guinle","distancia":1959},{"nome":"Praça Paris","distancia":1871},{"nome":"Real Gabinete Português de Leitura","distancia":1804},{"nome":"Sala Cecília Meireles","distancia":1660},{"nome":"Sambódromo","distancia":717},{"nome":"Santa Teresa","distancia":1667},{"nome":"Teatro Carlos Gomes","distancia":1639},{"nome":"Teatro Dulcina","distancia":1898},{"nome":"Teatro João Caetano","distancia":1721},{"nome":"Teatro Rival Petrobras","distancia":1953}]},{"linha":"420","descricao_ponto":"Rua Sao Francisco Xavier próximo ao 214","sequencia":"17","latitude":"-22.9165","longitude":"-43.2263","pontos_turisticos":[{"nome":"Estádio do Maracanã","distancia":585},{"nome":"Jardim Zoológico (Riozoo)","distancia":1371},{"nome":"Quinta da Boa Vista/Museu Nacional","distancia":1238},{"nome":"Teatro Noel Rosa","distancia":1325},{"nome":"Teatro Odylo Costa Filho","distancia":1109},{"nome":"Teatro Ziembinski","distancia":551}]},{"linha":"420","descricao_ponto":"Rua Haddock Lobo próximo ao 269","sequencia":"22","latitude":"-22.9207","longitude":"-43.2176","pontos_turisticos":[{"nome":"Estádio do Maracanã","distancia":1589},{"nome":"Quinta da Boa Vista/Museu Nacional","distancia":1853},{"nome":"Teatro Ziembinski","distancia":648}]},{"linha":"420","descricao_ponto":"BRS 1,2,3,I - VISCONDE DE OURO PRETO","sequencia":"3","latitude":"-22.9472","longitude":"-43.1822","pontos_turisticos":[{"nome":"Cristo Redentor (Corcovado)","distancia":1829},{"nome":"Fundação Casa de Rui Barbosa","distancia":543},{"nome":"Mirante Dona Marta","distancia":1567},{"nome":"Museu Carmem Miranda","distancia":1193},{"nome":"Museu do Índio","distancia":1075},{"nome":"Pão de Açúcar","distancia":1825},{"nome":"Parque Eduardo Guinle","distancia":1757},{"nome":"Praia da Urca","distancia":1961},{"nome":"Praia de Botafogo","distancia":270},{"nome":"Praia Vermelha","distancia":1997},{"nome":"Teatro Bibi Ferreira","distancia":344},{"nome":"Teatro do Instituto Benjamin Constant","distancia":1233},{"nome":"Teatro Princesa Isabel","distancia":1935},{"nome":"Teatro Villa Lobos","distancia":1721}]},{"linha":"420","descricao_ponto":"Rua Doutor Lagden próximo ao S/n","sequencia":"6","latitude":"-22.9162","longitude":"-43.1945","pontos_turisticos":[{"nome":"Arcos da Lapa","distancia":1540},{"nome":"Campo de Santana","distancia":1234},{"nome":"Catedral Metropolitana","distancia":1529},{"nome":"Igreja de São Francisco da Penitência","distancia":1872},{"nome":"Igreja e Convento de Santa Teresa","distancia":1455},{"nome":"Museu da Chácara do Céu","distancia":1069},{"nome":"Parque das Ruínas","distancia":1242},{"nome":"Praça Paris","distancia":1915},{"nome":"Real Gabinete Português de Leitura","distancia":1738},{"nome":"Sala Cecília Meireles","distancia":1679},{"nome":"Sambódromo","distancia":578},{"nome":"Santa Teresa","distancia":1788},{"nome":"Teatro Carlos Gomes","distancia":1582},{"nome":"Teatro Dulcina","distancia":1888},{"nome":"Teatro João Caetano","distancia":1660},{"nome":"Teatro Rival Petrobras","distancia":1949}]},{"linha":"420","descricao_ponto":"BRS 4, 5, I - BARÃO DE DRUMMOND","sequencia":"33","latitude":"-22.9164","longitude":"-43.2495","pontos_turisticos":[{"nome":"Estádio do Maracanã","distancia":1913},{"nome":"Teatro Noel Rosa","distancia":1371},{"nome":"Teatro Odylo Costa Filho","distancia":1621}]},{"linha":"420","descricao_ponto":"Rua Haddock Lobo próximo ao 153","sequencia":"23","latitude":"-22.9197","longitude":"-43.2152","pontos_turisticos":[{"nome":"Estádio do Maracanã","distancia":1761},{"nome":"Quinta da Boa Vista/Museu Nacional","distancia":1870},{"nome":"Teatro Ziembinski","distancia":903}]},{"linha":"420","descricao_ponto":"BRS 2 - RUA DO MATOSO","sequencia":"13","latitude":"-22.9161","longitude":"-43.212","pontos_turisticos":[{"nome":"Estádio do Maracanã","distancia":1973},{"nome":"Quinta da Boa Vista/Museu Nacional","distancia":1774},{"nome":"Sambódromo","distancia":1636},{"nome":"Teatro Ziembinski","distancia":1334}]},{"linha":"420","descricao_ponto":"Rua Felipe Camarao próximo ao 67","sequencia":"27","latitude":"-22.9159","longitude":"-43.2353","pontos_turisticos":[{"nome":"Estádio do Maracanã","distancia":503},{"nome":"Jardim Zoológico (Riozoo)","distancia":1441},{"nome":"Quinta da Boa Vista/Museu Nacional","distancia":1578},{"nome":"Teatro Noel Rosa","distancia":622},{"nome":"Teatro Odylo Costa Filho","distancia":595},{"nome":"Teatro Ziembinski","distancia":1294}]},{"linha":"420","descricao_ponto":"BRS 1, 2, 4 - REVERENDO ÁLVARO REIS","sequencia":"28","latitude":"-22.9131","longitude":"-43.2029","pontos_turisticos":[{"nome":"Campo de Santana","distancia":1655},{"nome":"Museu da Chácara do Céu","distancia":1979},{"nome":"Sambódromo","distancia":647}]},{"linha":"420","descricao_ponto":"Rua Haddock Lobo próximo ao 135","sequencia":"24","latitude":"-22.9182","longitude":"-43.2123","pontos_turisticos":[{"nome":"Estádio do Maracanã","distancia":1989},{"nome":"Quinta da Boa Vista/Museu Nacional","distancia":1917},{"nome":"Sambódromo","distancia":1752},{"nome":"Teatro Ziembinski","distancia":1228}]},{"linha":"420","descricao_ponto":"BRS 3, I - VISCONDE DE OURO PRETO","sequencia":"1","latitude":"-22.9464","longitude":"-43.1826","pontos_turisticos":[{"nome":"Cristo Redentor (Corcovado)","distancia":1756},{"nome":"Fundação Casa de Rui Barbosa","distancia":556},{"nome":"Mirante Dona Marta","distancia":1520},{"nome":"Museu Carmem Miranda","distancia":1183},{"nome":"Museu do Índio","distancia":1089},{"nome":"Oi Futuro","distancia":1931},{"nome":"Pão de Açúcar","distancia":1907},{"nome":"Parque Eduardo Guinle","distancia":1668},{"nome":"Praia de Botafogo","distancia":230},{"nome":"Teatro Bibi Ferreira","distancia":282},{"nome":"Teatro do Instituto Benjamin Constant","distancia":1316},{"nome":"Teatro Villa Lobos","distancia":1819}]},{"linha":"420","descricao_ponto":"BRS 2 - PAULO DE FRONTIN","sequencia":"12","latitude":"-22.9155","longitude":"-43.2094","pontos_turisticos":[{"nome":"Quinta da Boa Vista/Museu Nacional","distancia":1941},{"nome":"Sambódromo","distancia":1362},{"nome":"Teatro Ziembinski","distancia":1605}]},{"linha":"420","descricao_ponto":"Rua Sao Francisco Xavier próximo ao 367","sequencia":"15","latitude":"-22.916","longitude":"-43.2304","pontos_turisticos":[{"nome":"Estádio do Maracanã","distancia":275},{"nome":"Jardim Zoológico (Riozoo)","distancia":1301},{"nome":"Quinta da Boa Vista/Museu Nacional","distancia":1303},{"nome":"Teatro Noel Rosa","distancia":943},{"nome":"Teatro Odylo Costa Filho","distancia":767},{"nome":"Teatro Ziembinski","distancia":862}]},{"linha":"420","descricao_ponto":"Rua Doutor Lagden próximo ao S/n","sequencia":"31","latitude":"-22.9162","longitude":"-43.1945","pontos_turisticos":[{"nome":"Arcos da Lapa","distancia":1540},{"nome":"Campo de Santana","distancia":1234},{"nome":"Catedral Metropolitana","distancia":1529},{"nome":"Igreja de São Francisco da Penitência","distancia":1872},{"nome":"Igreja e Convento de Santa Teresa","distancia":1455},{"nome":"Museu da Chácara do Céu","distancia":1069},{"nome":"Parque das Ruínas","distancia":1242},{"nome":"Praça Paris","distancia":1915},{"nome":"Real Gabinete Português de Leitura","distancia":1738},{"nome":"Sala Cecília Meireles","distancia":1679},{"nome":"Sambódromo","distancia":578},{"nome":"Santa Teresa","distancia":1788},{"nome":"Teatro Carlos Gomes","distancia":1582},{"nome":"Teatro Dulcina","distancia":1888},{"nome":"Teatro João Caetano","distancia":1660},{"nome":"Teatro Rival Petrobras","distancia":1949}]},{"linha":"420","descricao_ponto":"BRS 2, 6, 7 - VIANA DRUMOND","sequencia":"3","latitude":"-22.9193","longitude":"-43.2552","pontos_turisticos":[]},{"linha":"420","descricao_ponto":"Rua Felipe Camarao próximo ao 128","sequencia":"28","latitude":"-22.9139","longitude":"-43.2357","pontos_turisticos":[{"nome":"Estádio do Maracanã","distancia":476},{"nome":"Jardim Zoológico (Riozoo)","distancia":1270},{"nome":"Quinta da Boa Vista/Museu Nacional","distancia":1453},{"nome":"Teatro Noel Rosa","distancia":403},{"nome":"Teatro Odylo Costa Filho","distancia":379},{"nome":"Teatro Ziembinski","distancia":1439}]},{"linha":"420","descricao_ponto":"Rua Dona Zulmira próximo ao 244","sequencia":"13","latitude":"-22.9144","longitude":"-43.2336","pontos_turisticos":[{"nome":"Estádio do Maracanã","distancia":274},{"nome":"Jardim Zoológico (Riozoo)","distancia":1216},{"nome":"Quinta da Boa Vista/Museu Nacional","distancia":1338},{"nome":"Teatro Noel Rosa","distancia":579},{"nome":"Teatro Odylo Costa Filho","distancia":451},{"nome":"Teatro Ziembinski","distancia":1230}]},{"linha":"420","descricao_ponto":"Rua Muniz Barreto próximo ao 100","sequencia":"34","latitude":"-22.9435","longitude":"-43.1836","pontos_turisticos":[{"nome":"Cristo Redentor (Corcovado)","distancia":1562},{"nome":"Fundação Casa de Rui Barbosa","distancia":742},{"nome":"Mirante Dona Marta","distancia":1442},{"nome":"Museu Carmem Miranda","distancia":1170},{"nome":"Museu do Índio","distancia":1232},{"nome":"Oi Futuro","distancia":1673},{"nome":"Parque Eduardo Guinle","distancia":1350},{"nome":"Praia de Botafogo","distancia":335},{"nome":"Santa Teresa","distancia":1960},{"nome":"Teatro Bibi Ferreira","distancia":336},{"nome":"Teatro do Instituto Benjamin Constant","distancia":1596}]},{"linha":"420","descricao_ponto":"Rua Professor Gabizo próximo ao 328","sequencia":"19","latitude":"-22.9147","longitude":"-43.224","pontos_turisticos":[{"nome":"Estádio do Maracanã","distancia":734},{"nome":"Jardim Zoológico (Riozoo)","distancia":1248},{"nome":"Quinta da Boa Vista/Museu Nacional","distancia":1034},{"nome":"Teatro Mário Lago","distancia":1756},{"nome":"Teatro Noel Rosa","distancia":1463},{"nome":"Teatro Odylo Costa Filho","distancia":1217},{"nome":"Teatro Ziembinski","distancia":695}]},{"linha":"420","descricao_ponto":"Avenida Maracana próximo ao 646","sequencia":"25","latitude":"-22.919","longitude":"-43.2332","pontos_turisticos":[{"nome":"Estádio do Maracanã","distancia":639},{"nome":"Jardim Zoológico (Riozoo)","distancia":1685},{"nome":"Quinta da Boa Vista/Museu Nacional","distancia":1732},{"nome":"Teatro Noel Rosa","distancia":1025},{"nome":"Teatro Odylo Costa Filho","distancia":957},{"nome":"Teatro Ziembinski","distancia":975}]},{"linha":"420","descricao_ponto":"BRS 1, 2, 4 - LARGO DO ESTÁCIO","sequencia":"27","latitude":"-22.9143","longitude":"-43.2056","pontos_turisticos":[{"nome":"Campo de Santana","distancia":1962},{"nome":"Sambódromo","distancia":951}]},{"linha":"420","descricao_ponto":"Praca Del Prete próximo ao 82","sequencia":"32","latitude":"-22.9363","longitude":"-43.1839","pontos_turisticos":[{"nome":"Aterro do Flamengo","distancia":1481},{"nome":"Cristo Redentor (Corcovado)","distancia":1563},{"nome":"Fundação Casa de Rui Barbosa","distancia":1493},{"nome":"Igreja Nossa Senhora da Glória do Outeiro","distancia":1882},{"nome":"Mirante Dona Marta","distancia":1751},{"nome":"Museu Carmem Miranda","distancia":1306},{"nome":"Museu da República","distancia":1389},{"nome":"Museu de Folclore Edison Carneiro","distancia":1374},{"nome":"Museu do Índio","distancia":1905},{"nome":"Oi Futuro","distancia":1040},{"nome":"Parque Eduardo Guinle","distancia":564},{"nome":"Praia de Botafogo","distancia":1029},{"nome":"Praia do Flamengo","distancia":1500},{"nome":"Santa Teresa","distancia":1528},{"nome":"Teatro Bibi Ferreira","distancia":1096},{"nome":"Teatro Glória","distancia":1874}]},{"linha":"420","descricao_ponto":"Rua Felipe Camarao próximo ao 111","sequencia":"26","latitude":"-22.9176","longitude":"-43.2348","pontos_turisticos":[{"nome":"Estádio do Maracanã","distancia":586},{"nome":"Jardim Zoológico (Riozoo)","distancia":1591},{"nome":"Quinta da Boa Vista/Museu Nacional","distancia":1691},{"nome":"Teatro Noel Rosa","distancia":816},{"nome":"Teatro Odylo Costa Filho","distancia":784},{"nome":"Teatro Ziembinski","distancia":1175}]},{"linha":"420","descricao_ponto":"BRS 4, 5, I - JORGE RUDGE","sequencia":"29","latitude":"-22.9139","longitude":"-43.237","pontos_turisticos":[{"nome":"Estádio do Maracanã","distancia":608},{"nome":"Jardim Zoológico (Riozoo)","distancia":1349},{"nome":"Quinta da Boa Vista/Museu Nacional","distancia":1557},{"nome":"Teatro Noel Rosa","distancia":358},{"nome":"Teatro Odylo Costa Filho","distancia":425},{"nome":"Teatro Ziembinski","distancia":1552}]},{"linha":"420","descricao_ponto":"Rua Professor Gabizo próximo ao 143","sequencia":"16","latitude":"-22.9186","longitude":"-43.2197","pontos_turisticos":[{"nome":"Estádio do Maracanã","distancia":1290},{"nome":"Jardim Zoológico (Riozoo)","distancia":1835},{"nome":"Quinta da Boa Vista/Museu Nacional","distancia":1557},{"nome":"Teatro Odylo Costa Filho","distancia":1804},{"nome":"Teatro Ziembinski","distancia":505}]},{"linha":"420","descricao_ponto":"Avenida Maracana próximo ao 457","sequencia":"23","latitude":"-22.9155","longitude":"-43.2294","pontos_turisticos":[{"nome":"Estádio do Maracanã","distancia":271},{"nome":"Jardim Zoológico (Riozoo)","distancia":1236},{"nome":"Quinta da Boa Vista/Museu Nacional","distancia":1210},{"nome":"Teatro Noel Rosa","distancia":995},{"nome":"Teatro Odylo Costa Filho","distancia":794},{"nome":"Teatro Ziembinski","distancia":826}]},{"linha":"420","descricao_ponto":"BRS 2, 6, 7 - VISCONDE DE ABAETÉ","sequencia":"31","latitude":"-22.9153","longitude":"-43.2438","pontos_turisticos":[{"nome":"Estádio do Maracanã","distancia":1318},{"nome":"Jardim Zoológico (Riozoo)","distancia":1956},{"nome":"Teatro Noel Rosa","distancia":812},{"nome":"Teatro Odylo Costa Filho","distancia":1044}]},{"linha":"420","descricao_ponto":"Rua Haddock Lobo próximo ao 347","sequencia":"21","latitude":"-22.9213","longitude":"-43.2198","pontos_turisticos":[{"nome":"Estádio do Maracanã","distancia":1437},{"nome":"Quinta da Boa Vista/Museu Nacional","distancia":1839},{"nome":"Teatro Odylo Costa Filho","distancia":1962},{"nome":"Teatro Ziembinski","distancia":423}]},{"linha":"420","descricao_ponto":"Rua Pinheiro Machado próximo ao 75","sequencia":"33","latitude":"-22.9406","longitude":"-43.1828","pontos_turisticos":[{"nome":"Aterro do Flamengo","distancia":1712},{"nome":"Cristo Redentor (Corcovado)","distancia":1606},{"nome":"Fundação Casa de Rui Barbosa","distancia":1069},{"nome":"Mirante Dona Marta","distancia":1611},{"nome":"Museu Carmem Miranda","distancia":1068},{"nome":"Museu da República","distancia":1763},{"nome":"Museu de Folclore Edison Carneiro","distancia":1745},{"nome":"Museu do Índio","distancia":1539},{"nome":"Oi Futuro","distancia":1349},{"nome":"Parque Eduardo Guinle","distancia":1023},{"nome":"Praia de Botafogo","distancia":541},{"nome":"Praia do Flamengo","distancia":1712},{"nome":"Santa Teresa","distancia":1835},{"nome":"Teatro Bibi Ferreira","distancia":661},{"nome":"Teatro do Instituto Benjamin Constant","distancia":1774}]},{"linha":"420","descricao_ponto":"BRS 1,2 - VISCONDE DE OURO PRETO","sequencia":"2","latitude":"-22.9472","longitude":"-43.1825","pontos_turisticos":[{"nome":"Cristo Redentor (Corcovado)","distancia":1801},{"nome":"Fundação Casa de Rui Barbosa","distancia":516},{"nome":"Mirante Dona Marta","distancia":1536},{"nome":"Museu Carmem Miranda","distancia":1218},{"nome":"Museu do Índio","distancia":1049},{"nome":"Pão de Açúcar","distancia":1852},{"nome":"Parque Eduardo Guinle","distancia":1757},{"nome":"Praia da Urca","distancia":1992},{"nome":"Praia de Botafogo","distancia":287},{"nome":"Teatro Bibi Ferreira","distancia":316},{"nome":"Teatro do Instituto Benjamin Constant","distancia":1259},{"nome":"Teatro Princesa Isabel","distancia":1948},{"nome":"Teatro Villa Lobos","distancia":1734}]},{"linha":"420","descricao_ponto":"BRS 2, 4, 5 - BARÃO DE UBÁ","sequencia":"25","latitude":"-22.9174","longitude":"-43.2111","pontos_turisticos":[{"nome":"Quinta da Boa Vista/Museu Nacional","distancia":1939},{"nome":"Sambódromo","distancia":1603},{"nome":"Teatro Ziembinski","distancia":1371}]},{"linha":"420","descricao_ponto":"Rua Muniz Barreto próximo ao 396","sequencia":"35","latitude":"-22.9453","longitude":"-43.1841","pontos_turisticos":[{"nome":"Cristo Redentor (Corcovado)","distancia":1569},{"nome":"Fundação Casa de Rui Barbosa","distancia":543},{"nome":"Mirante Dona Marta","distancia":1367},{"nome":"Museu Carmem Miranda","distancia":1274},{"nome":"Museu do Índio","distancia":1050},{"nome":"Oi Futuro","distancia":1876},{"nome":"Parque Eduardo Guinle","distancia":1554},{"nome":"Praia de Botafogo","distancia":334},{"nome":"Teatro Bibi Ferreira","distancia":152},{"nome":"Teatro do Instituto Benjamin Constant","distancia":1512},{"nome":"Teatro Villa Lobos","distancia":1996}]},{"linha":"420","descricao_ponto":"Rua Do Catumbi próximo ao 15","sequencia":"8","latitude":"-22.9149","longitude":"-43.1959","pontos_turisticos":[{"nome":"Arcos da Lapa","distancia":1653},{"nome":"Campo de Santana","distancia":1199},{"nome":"Catedral Metropolitana","distancia":1617},{"nome":"Igreja de São Francisco da Penitência","distancia":1922},{"nome":"Igreja e Convento de Santa Teresa","distancia":1599},{"nome":"Museu da Chácara do Céu","distancia":1235},{"nome":"Parque das Ruínas","distancia":1408},{"nome":"Real Gabinete Português de Leitura","distancia":1754},{"nome":"Sala Cecília Meireles","distancia":1810},{"nome":"Sambódromo","distancia":393},{"nome":"Santa Teresa","distancia":1908},{"nome":"Teatro Carlos Gomes","distancia":1615},{"nome":"Teatro Dulcina","distancia":1986},{"nome":"Teatro João Caetano","distancia":1685}]},{"linha":"420","descricao_ponto":"Rua Sao Francisco Xavier próximo ao 425","sequencia":"20","latitude":"-22.9202","longitude":"-43.223","pontos_turisticos":[{"nome":"Estádio do Maracanã","distancia":1105},{"nome":"Jardim Zoológico (Riozoo)","distancia":1856},{"nome":"Quinta da Boa Vista/Museu Nacional","distancia":1652},{"nome":"Teatro Noel Rosa","distancia":1830},{"nome":"Teatro Odylo Costa Filho","distancia":1631},{"nome":"Teatro Ziembinski","distancia":125}]},{"linha":"420","descricao_ponto":"BRS 2 - LARGO DO ESTÁCIO","sequencia":"11","latitude":"-22.9143","longitude":"-43.2062","pontos_turisticos":[{"nome":"Sambódromo","distancia":1009},{"nome":"Teatro Ziembinski","distancia":1959}]},{"linha":"420","descricao_ponto":"Rua Farani próximo ao 8","sequencia":"4","latitude":"-22.9412","longitude":"-43.182","pontos_turisticos":[{"nome":"Aterro do Flamengo","distancia":1712},{"nome":"Cristo Redentor (Corcovado)","distancia":1690},{"nome":"Fundação Casa de Rui Barbosa","distancia":1045},{"nome":"Mirante Dona Marta","distancia":1665},{"nome":"Museu Carmem Miranda","distancia":982},{"nome":"Museu da República","distancia":1797},{"nome":"Museu de Folclore Edison Carneiro","distancia":1779},{"nome":"Museu do Índio","distancia":1534},{"nome":"Oi Futuro","distancia":1372},{"nome":"Parque Eduardo Guinle","distancia":1091},{"nome":"Praia de Botafogo","distancia":451},{"nome":"Praia do Flamengo","distancia":1707},{"nome":"Santa Teresa","distancia":1940},{"nome":"Teatro Bibi Ferreira","distancia":640},{"nome":"Teatro do Instituto Benjamin Constant","distancia":1671}]},{"linha":"420","descricao_ponto":"BRS 4, 5, I - MENDES TAVARES","sequencia":"35","latitude":"-22.9165","longitude":"-43.2537","pontos_turisticos":[{"nome":"Teatro Noel Rosa","distancia":1768}]},{"linha":"420","descricao_ponto":"BRS 2 - AFONSO PENA","sequencia":"15","latitude":"-22.9186","longitude":"-43.2182","pontos_turisticos":[{"nome":"Estádio do Maracanã","distancia":1430},{"nome":"Jardim Zoológico (Riozoo)","distancia":1918},{"nome":"Quinta da Boa Vista/Museu Nacional","distancia":1615},{"nome":"Teatro Odylo Costa Filho","distancia":1939},{"nome":"Teatro Ziembinski","distancia":641}]},{"linha":"420","descricao_ponto":"BRS 2, 6, 7 - VISCONDE DE ABAETÉ","sequencia":"8","latitude":"-22.9173","longitude":"-43.244","pontos_turisticos":[{"nome":"Estádio do Maracanã","distancia":1387},{"nome":"Teatro Noel Rosa","distancia":980},{"nome":"Teatro Odylo Costa Filho","distancia":1188}]},{"linha":"420","descricao_ponto":"Rua Sao Francisco Xavier próximo ao 165","sequencia":"16","latitude":"-22.9163","longitude":"-43.2281","pontos_turisticos":[{"nome":"Estádio do Maracanã","distancia":427},{"nome":"Jardim Zoológico (Riozoo)","distancia":1326},{"nome":"Quinta da Boa Vista/Museu Nacional","distancia":1252},{"nome":"Teatro Noel Rosa","distancia":1155},{"nome":"Teatro Odylo Costa Filho","distancia":953},{"nome":"Teatro Ziembinski","distancia":671}]},{"linha":"420","descricao_ponto":"Rua Sao Francisco Xavier próximo ao 425","sequencia":"19","latitude":"-22.9196","longitude":"-43.2234","pontos_turisticos":[{"nome":"Estádio do Maracanã","distancia":1030},{"nome":"Jardim Zoológico (Riozoo)","distancia":1780},{"nome":"Quinta da Boa Vista/Museu Nacional","distancia":1582},{"nome":"Teatro Noel Rosa","distancia":1759},{"nome":"Teatro Odylo Costa Filho","distancia":1557},{"nome":"Teatro Ziembinski","distancia":159}]},{"linha":"420","descricao_ponto":"Rua Professor Gabizo próximo ao 257","sequencia":"18","latitude":"-22.9159","longitude":"-43.2226","pontos_turisticos":[{"nome":"Estádio do Maracanã","distancia":904},{"nome":"Jardim Zoológico (Riozoo)","distancia":1429},{"nome":"Quinta da Boa Vista/Museu Nacional","distancia":1186},{"nome":"Teatro Mário Lago","distancia":1868},{"nome":"Teatro Noel Rosa","distancia":1642},{"nome":"Teatro Odylo Costa Filho","distancia":1402},{"nome":"Teatro Ziembinski","distancia":577}]},{"linha":"420","descricao_ponto":"Rua Professor Gabizo próximo ao 320","sequencia":"20","latitude":"-22.9139","longitude":"-43.225","pontos_turisticos":[{"nome":"Centro Luiz Gonzaga de Tradições Nordestinas","distancia":1987},{"nome":"Estádio do Maracanã","distancia":622},{"nome":"Jardim Zoológico (Riozoo)","distancia":1127},{"nome":"Quinta da Boa Vista/Museu Nacional","distancia":941},{"nome":"Teatro Mário Lago","distancia":1691},{"nome":"Teatro Noel Rosa","distancia":1339},{"nome":"Teatro Odylo Costa Filho","distancia":1090},{"nome":"Teatro Ziembinski","distancia":791}]},{"linha":"420","descricao_ponto":"BRS 4, 5, I - SOUZA FRANCO","sequencia":"32","latitude":"-22.9158","longitude":"-43.2464","pontos_turisticos":[{"nome":"Estádio do Maracanã","distancia":1589},{"nome":"Teatro Noel Rosa","distancia":1062},{"nome":"Teatro Odylo Costa Filho","distancia":1305}]},{"linha":"420","descricao_ponto":"Rua Mendes Tavares próximo ao 104","sequencia":"1","latitude":"-22.9201","longitude":"-43.2536","pontos_turisticos":[{"nome":"Teatro Noel Rosa","distancia":1940}]},{"linha":"420","descricao_ponto":"Rua Do Catumbi próximo ao 93","sequencia":"7","latitude":"-22.9166","longitude":"-43.1953","pontos_turisticos":[{"nome":"Arcos da Lapa","distancia":1630},{"nome":"Campo de Santana","distancia":1315},{"nome":"Catedral Metropolitana","distancia":1622},{"nome":"Igreja de São Francisco da Penitência","distancia":1965},{"nome":"Igreja e Convento de Santa Teresa","distancia":1539},{"nome":"Museu da Chácara do Céu","distancia":1146},{"nome":"Parque das Ruínas","distancia":1319},{"nome":"Praça Paris","distancia":1995},{"nome":"Real Gabinete Português de Leitura","distancia":1828},{"nome":"Sala Cecília Meireles","distancia":1766},{"nome":"Sambódromo","distancia":592},{"nome":"Santa Teresa","distancia":1729},{"nome":"Teatro Carlos Gomes","distancia":1674},{"nome":"Teatro Dulcina","distancia":1980},{"nome":"Teatro João Caetano","distancia":1751}]},{"linha":"420","descricao_ponto":"Avenida Maracana próximo ao 331","sequencia":"22","latitude":"-22.9135","longitude":"-43.2276","pontos_turisticos":[{"nome":"Estádio do Maracanã","distancia":355},{"nome":"Jardim Zoológico (Riozoo)","distancia":1020},{"nome":"Quinta da Boa Vista/Museu Nacional","distancia":938},{"nome":"Teatro Mário Lago","distancia":1736},{"nome":"Teatro Noel Rosa","distancia":1071},{"nome":"Teatro Odylo Costa Filho","distancia":826},{"nome":"Teatro Ziembinski","distancia":910}]},{"linha":"420","descricao_ponto":"Rua Mata Machado próximo ao 1","sequencia":"21","latitude":"-22.9128","longitude":"-43.2259","pontos_turisticos":[{"nome":"Centro Luiz Gonzaga de Tradições Nordestinas","distancia":1901},{"nome":"Estádio do Maracanã","distancia":537},{"nome":"Jardim Zoológico (Riozoo)","distancia":981},{"nome":"Quinta da Boa Vista/Museu Nacional","distancia":825},{"nome":"Teatro Mário Lago","distancia":1600},{"nome":"Teatro Noel Rosa","distancia":1222},{"nome":"Teatro Odylo Costa Filho","distancia":965},{"nome":"Teatro Ziembinski","distancia":928}]},{"linha":"420","descricao_ponto":"Avenida Maracana próximo ao 577","sequencia":"24","latitude":"-22.9174","longitude":"-43.2309","pontos_turisticos":[{"nome":"Estádio do Maracanã","distancia":422},{"nome":"Jardim Zoológico (Riozoo)","distancia":1462},{"nome":"Quinta da Boa Vista/Museu Nacional","distancia":1466},{"nome":"Teatro Noel Rosa","distancia":1012},{"nome":"Teatro Odylo Costa Filho","distancia":869},{"nome":"Teatro Ziembinski","distancia":817}]},{"linha":"420","descricao_ponto":"BRS 1A, 2A, 4 - PAULO DE FRONTIN","sequencia":"26","latitude":"-22.9164","longitude":"-43.2095","pontos_turisticos":[{"nome":"Quinta da Boa Vista/Museu Nacional","distancia":1992},{"nome":"Sambódromo","distancia":1408},{"nome":"Teatro Ziembinski","distancia":1561}]},{"linha":"420","descricao_ponto":"BRS 2, 6, 7 - HIPÓLITO DA COSTA","sequencia":"30","latitude":"-22.9145","longitude":"-43.2397","pontos_turisticos":[{"nome":"Estádio do Maracanã","distancia":890},{"nome":"Jardim Zoológico (Riozoo)","distancia":1583},{"nome":"Quinta da Boa Vista/Museu Nacional","distancia":1821},{"nome":"Teatro Noel Rosa","distancia":470},{"nome":"Teatro Odylo Costa Filho","distancia":651},{"nome":"Teatro Ziembinski","distancia":1768}]},{"linha":"420","descricao_ponto":"Rua Nossa Senhora de Lourdes próximo ao 82","sequencia":"2","latitude":"-22.9211","longitude":"-43.2551","pontos_turisticos":[]},{"linha":"420","descricao_ponto":"BRS 1, 2, 3, 4 - MARQUÊS DE SAPUCAÍ","sequencia":"30","latitude":"-22.9141","longitude":"-43.1963","pontos_turisticos":[{"nome":"Arcos da Lapa","distancia":1684},{"nome":"Campo de Santana","distancia":1161},{"nome":"Catedral Metropolitana","distancia":1634},{"nome":"Igreja de São Francisco da Penitência","distancia":1920},{"nome":"Igreja e Convento de Santa Teresa","distancia":1647},{"nome":"Museu da Chácara do Céu","distancia":1297},{"nome":"Parque das Ruínas","distancia":1469},{"nome":"Real Gabinete Português de Leitura","distancia":1737},{"nome":"Sala Cecília Meireles","distancia":1851},{"nome":"Sambódromo","distancia":298},{"nome":"Santa Teresa","distancia":1992},{"nome":"Teatro Carlos Gomes","distancia":1605},{"nome":"Teatro João Caetano","distancia":1672}]},{"linha":"420","descricao_ponto":"BRS 1, 2, 4 - VISCONDESSA PIRASSUNUNGA","sequencia":"29","latitude":"-22.9139","longitude":"-43.2006","pontos_turisticos":[{"nome":"Campo de Santana","distancia":1492},{"nome":"Museu da Chácara do Céu","distancia":1729},{"nome":"Parque das Ruínas","distancia":1902},{"nome":"Sambódromo","distancia":471},{"nome":"Teatro Carlos Gomes","distancia":1995}]}]