[{"linha":"426","descricao_ponto":"BRS 3, I - VISCONDE DE OURO PRETO","sequencia":"47","latitude":"-22.9464","longitude":"-43.1826","pontos_turisticos":[{"nome":"Cristo Redentor (Corcovado)","distancia":1756},{"nome":"Fundação Casa de Rui Barbosa","distancia":556},{"nome":"Mirante Dona Marta","distancia":1520},{"nome":"Museu Carmem Miranda","distancia":1183},{"nome":"Museu do Índio","distancia":1089},{"nome":"Oi Futuro","distancia":1931},{"nome":"Pão de Açúcar","distancia":1907},{"nome":"Parque Eduardo Guinle","distancia":1668},{"nome":"Praia de Botafogo","distancia":230},{"nome":"Teatro Bibi Ferreira","distancia":282},{"nome":"Teatro do Instituto Benjamin Constant","distancia":1316},{"nome":"Teatro Villa Lobos","distancia":1819}]},{"linha":"426","descricao_ponto":"Avenida Afranio De Melo Franco próximo ao 419","sequencia":"64","latitude":"-22.9802","longitude":"-43.2182","pontos_turisticos":[{"nome":"Centro Cultural Candido Mendes","distancia":1442},{"nome":"Jardim Botânico","distancia":1159},{"nome":"Jockey Club Brasileiro","distancia":1043},{"nome":"Lagoa Rodrigo de Freitas","distancia":1190},{"nome":"Planetário","distancia":1243},{"nome":"Praia de Ipanema","distancia":1719},{"nome":"Praia do Leblon","distancia":874},{"nome":"Teatro Amador O Tablado","distancia":1689},{"nome":"Teatro Café Pequeno","distancia":403},{"nome":"Teatro Casa da Gávea","distancia":1129},{"nome":"Teatro Casa do Riso","distancia":464},{"nome":"Teatro Clara Nunes","distancia":1132},{"nome":"Teatro das Artes","distancia":1146},{"nome":"Teatro do Jockey","distancia":776},{"nome":"Teatro dos Quatro","distancia":1124},{"nome":"Teatro Ipanema","distancia":1486},{"nome":"Teatro Leblon","distancia":462},{"nome":"Teatro Maria Clara Machado","distancia":1243},{"nome":"Teatro Vanucci","distancia":1146}]},{"linha":"426","descricao_ponto":"BRS 2 - SANTA CLARA","sequencia":"11","latitude":"-22.9722","longitude":"-43.1877","pontos_turisticos":[{"nome":"Casa Laura Alvin","distancia":1997},{"nome":"Casa Laura Alvin","distancia":1997},{"nome":"Espaço Cultura Sergio Porto","distancia":1963},{"nome":"Forte de Copacabana","distancia":1515},{"nome":"Fundação Eva Klabin Rapaport","distancia":1148},{"nome":"Parque Peter Pan","distancia":1301},{"nome":"Praia de Copacabana","distancia":967},{"nome":"Praia do Arpoador","distancia":1927},{"nome":"Sala Baden Powell","distancia":919},{"nome":"Teatro Brigitte Blair","distancia":735},{"nome":"Teatro da Praia","distancia":1396},{"nome":"Teatro Gláucio Gil","distancia":1035},{"nome":"Teatro Princesa Isabel","distancia":1710},{"nome":"Teatro Villa Lobos","distancia":1756}]},{"linha":"426","descricao_ponto":"BRS 2 - RUA DO MATOSO","sequencia":"37","latitude":"-22.9161","longitude":"-43.212","pontos_turisticos":[{"nome":"Estádio do Maracanã","distancia":1973},{"nome":"Quinta da Boa Vista/Museu Nacional","distancia":1774},{"nome":"Sambódromo","distancia":1636},{"nome":"Teatro Ziembinski","distancia":1334}]},{"linha":"426","descricao_ponto":"Rua Conde De Bonfim próximo ao 560","sequencia":"48","latitude":"-22.9293","longitude":"-43.2371","pontos_turisticos":[{"nome":"Estádio do Maracanã","distancia":1851},{"nome":"Teatro Ziembinski","distancia":1639}]},{"linha":"426","descricao_ponto":"Rua Conde De Bonfim próximo ao 570","sequencia":"49","latitude":"-22.9311","longitude":"-43.2387","pontos_turisticos":[{"nome":"Teatro Ziembinski","distancia":1889}]},{"linha":"426","descricao_ponto":"Rua Conde De Bonfim próximo ao 1287","sequencia":"63","latitude":"-22.9463","longitude":"-43.2555","pontos_turisticos":[]},{"linha":"426","descricao_ponto":"Rua Santa Carolina próximo ao 11","sequencia":"2","latitude":"-22.9436","longitude":"-43.2549","pontos_turisticos":[]},{"linha":"426","descricao_ponto":"Rua Conde De Bonfim próximo ao 915","sequencia":"10","latitude":"-22.9379","longitude":"-43.2466","pontos_turisticos":[]},{"linha":"426","descricao_ponto":"Rua Pinheiro Machado próximo ao 75","sequencia":"44","latitude":"-22.9406","longitude":"-43.1828","pontos_turisticos":[{"nome":"Aterro do Flamengo","distancia":1712},{"nome":"Cristo Redentor (Corcovado)","distancia":1606},{"nome":"Fundação Casa de Rui Barbosa","distancia":1069},{"nome":"Mirante Dona Marta","distancia":1611},{"nome":"Museu Carmem Miranda","distancia":1068},{"nome":"Museu da República","distancia":1763},{"nome":"Museu de Folclore Edison Carneiro","distancia":1745},{"nome":"Museu do Índio","distancia":1539},{"nome":"Oi Futuro","distancia":1349},{"nome":"Parque Eduardo Guinle","distancia":1023},{"nome":"Praia de Botafogo","distancia":541},{"nome":"Praia do Flamengo","distancia":1712},{"nome":"Santa Teresa","distancia":1835},{"nome":"Teatro Bibi Ferreira","distancia":661},{"nome":"Teatro do Instituto Benjamin Constant","distancia":1774}]},{"linha":"426","descricao_ponto":"Rua Conde De Bonfim próximo ao 155","sequencia":"23","latitude":"-22.925","longitude":"-43.226","pontos_turisticos":[{"nome":"Estádio do Maracanã","distancia":1369},{"nome":"Teatro Noel Rosa","distancia":1983},{"nome":"Teatro Odylo Costa Filho","distancia":1852},{"nome":"Teatro Ziembinski","distancia":499}]},{"linha":"426","descricao_ponto":"Rua Itapiru próximo ao 720","sequencia":"37","latitude":"-22.9235","longitude":"-43.198","pontos_turisticos":[{"nome":"Cristo Redentor (Corcovado)","distancia":1884},{"nome":"Museu da Chácara do Céu","distancia":1576},{"nome":"Parque das Ruínas","distancia":1723},{"nome":"Parque Eduardo Guinle","distancia":1816},{"nome":"Sambódromo","distancia":1343},{"nome":"Santa Teresa","distancia":939}]},{"linha":"426","descricao_ponto":"Rua Muniz Barreto próximo ao 100","sequencia":"45","latitude":"-22.9435","longitude":"-43.1836","pontos_turisticos":[{"nome":"Cristo Redentor (Corcovado)","distancia":1562},{"nome":"Fundação Casa de Rui Barbosa","distancia":742},{"nome":"Mirante Dona Marta","distancia":1442},{"nome":"Museu Carmem Miranda","distancia":1170},{"nome":"Museu do Índio","distancia":1232},{"nome":"Oi Futuro","distancia":1673},{"nome":"Parque Eduardo Guinle","distancia":1350},{"nome":"Praia de Botafogo","distancia":335},{"nome":"Santa Teresa","distancia":1960},{"nome":"Teatro Bibi Ferreira","distancia":336},{"nome":"Teatro do Instituto Benjamin Constant","distancia":1596}]},{"linha":"426","descricao_ponto":"BRS 2 - AVENIDA LAURO SODRE","sequencia":"16","latitude":"-22.9569","longitude":"-43.1774","pontos_turisticos":[{"nome":"Fundação Casa de Rui Barbosa","distancia":1279},{"nome":"Museu Carmem Miranda","distancia":1799},{"nome":"Museu do Índio","distancia":1525},{"nome":"Pão de Açúcar","distancia":1087},{"nome":"Praia da Urca","distancia":1785},{"nome":"Praia de Botafogo","distancia":1357},{"nome":"Praia de Copacabana","distancia":1311},{"nome":"Praia Leme","distancia":1309},{"nome":"Praia Vermelha","distancia":1319},{"nome":"Sala Baden Powell","distancia":1183},{"nome":"Teatro Bibi Ferreira","distancia":1452},{"nome":"Teatro do Instituto Benjamin Constant","distancia":702},{"nome":"Teatro Gláucio Gil","distancia":1007},{"nome":"Teatro Princesa Isabel","distancia":750},{"nome":"Teatro Villa Lobos","distancia":536}]},{"linha":"426","descricao_ponto":"BRS 2 - JOANA ANGÉLICA","sequencia":"5","latitude":"-22.9842","longitude":"-43.2041","pontos_turisticos":[{"nome":"Casa Laura Alvin","distancia":569},{"nome":"Casa Laura Alvin","distancia":569},{"nome":"Centro Cultural Candido Mendes","distancia":122},{"nome":"Forte de Copacabana","distancia":1674},{"nome":"Fundação Eva Klabin Rapaport","distancia":1100},{"nome":"Lagoa Rodrigo de Freitas","distancia":1632},{"nome":"Parque Peter Pan","distancia":1237},{"nome":"Praia de Ipanema","distancia":345},{"nome":"Praia do Arpoador","distancia":1271},{"nome":"Praia do Leblon","distancia":1855},{"nome":"Teatro Brigitte Blair","distancia":1485},{"nome":"Teatro Café Pequeno","distancia":1416},{"nome":"Teatro Casa do Riso","distancia":1965},{"nome":"Teatro da Praia","distancia":1103},{"nome":"Teatro Ipanema","distancia":142},{"nome":"Teatro Leblon","distancia":1935}]},{"linha":"426","descricao_ponto":"BRS 2 - RAUL POMPÉIA","sequencia":"8","latitude":"-22.9833","longitude":"-43.1924","pontos_turisticos":[{"nome":"Casa Laura Alvin","distancia":795},{"nome":"Casa Laura Alvin","distancia":795},{"nome":"Centro Cultural Candido Mendes","distancia":1307},{"nome":"Forte de Copacabana","distancia":544},{"nome":"Fundação Eva Klabin Rapaport","distancia":1005},{"nome":"Parque Peter Pan","distancia":36},{"nome":"Praia de Ipanema","distancia":1190},{"nome":"Praia do Arpoador","distancia":623},{"nome":"Teatro Brigitte Blair","distancia":609},{"nome":"Teatro da Praia","distancia":103},{"nome":"Teatro Ipanema","distancia":1288}]},{"linha":"426","descricao_ponto":"BRS 2 - BARÃO DE IPANEMA","sequencia":"10","latitude":"-22.975","longitude":"-43.1896","pontos_turisticos":[{"nome":"Casa Laura Alvin","distancia":1631},{"nome":"Casa Laura Alvin","distancia":1631},{"nome":"Centro Cultural Candido Mendes","distancia":1925},{"nome":"Forte de Copacabana","distancia":1217},{"nome":"Fundação Eva Klabin Rapaport","distancia":881},{"nome":"Parque Peter Pan","distancia":945},{"nome":"Praia de Copacabana","distancia":1289},{"nome":"Praia de Ipanema","distancia":1946},{"nome":"Praia do Arpoador","distancia":1578},{"nome":"Sala Baden Powell","distancia":1270},{"nome":"Teatro Brigitte Blair","distancia":368},{"nome":"Teatro da Praia","distancia":1034},{"nome":"Teatro Gláucio Gil","distancia":1397},{"nome":"Teatro Ipanema","distancia":1932}]},{"linha":"426","descricao_ponto":"BRS 2 - DOMÍCIO DA GAMA","sequencia":"38","latitude":"-22.917","longitude":"-43.2143","pontos_turisticos":[{"nome":"Estádio do Maracanã","distancia":1758},{"nome":"Quinta da Boa Vista/Museu Nacional","distancia":1681},{"nome":"Sambódromo","distancia":1891},{"nome":"Teatro Ziembinski","distancia":1078}]},{"linha":"426","descricao_ponto":"BRS 2 - AFONSO PENA","sequencia":"39","latitude":"-22.9186","longitude":"-43.2182","pontos_turisticos":[{"nome":"Estádio do Maracanã","distancia":1430},{"nome":"Jardim Zoológico (Riozoo)","distancia":1918},{"nome":"Quinta da Boa Vista/Museu Nacional","distancia":1615},{"nome":"Teatro Odylo Costa Filho","distancia":1939},{"nome":"Teatro Ziembinski","distancia":641}]},{"linha":"426","descricao_ponto":"Rua Conde De Bonfim próximo ao 496","sequencia":"45","latitude":"-22.9259","longitude":"-43.235","pontos_turisticos":[{"nome":"Estádio do Maracanã","distancia":1425},{"nome":"Teatro Noel Rosa","distancia":1708},{"nome":"Teatro Odylo Costa Filho","distancia":1706},{"nome":"Teatro Ziembinski","distancia":1262}]},{"linha":"426","descricao_ponto":"Terminal da Usina - Ponto A1","sequencia":"1","latitude":"-22.9462","longitude":"-43.257","pontos_turisticos":[]},{"linha":"426","descricao_ponto":"BRS 2 - FARME DE AMOEDO","sequencia":"6","latitude":"-22.9845","longitude":"-43.1999","pontos_turisticos":[{"nome":"Casa Laura Alvin","distancia":252},{"nome":"Casa Laura Alvin","distancia":252},{"nome":"Centro Cultural Candido Mendes","distancia":529},{"nome":"Forte de Copacabana","distancia":1243},{"nome":"Fundação Eva Klabin Rapaport","distancia":966},{"nome":"Lagoa Rodrigo de Freitas","distancia":1901},{"nome":"Parque Peter Pan","distancia":815},{"nome":"Praia de Ipanema","distancia":454},{"nome":"Praia do Arpoador","distancia":877},{"nome":"Teatro Brigitte Blair","distancia":1145},{"nome":"Teatro Café Pequeno","distancia":1847},{"nome":"Teatro da Praia","distancia":678},{"nome":"Teatro Ipanema","distancia":509}]},{"linha":"426","descricao_ponto":"BRS 2 - BULHÕES DE CARVALHO","sequencia":"7","latitude":"-22.9843","longitude":"-43.1946","pontos_turisticos":[{"nome":"Casa Laura Alvin","distancia":544},{"nome":"Casa Laura Alvin","distancia":544},{"nome":"Centro Cultural Candido Mendes","distancia":1072},{"nome":"Forte de Copacabana","distancia":712},{"nome":"Fundação Eva Klabin Rapaport","distancia":995},{"nome":"Parque Peter Pan","distancia":287},{"nome":"Praia de Ipanema","distancia":940},{"nome":"Praia do Arpoador","distancia":543},{"nome":"Teatro Brigitte Blair","distancia":786},{"nome":"Teatro da Praia","distancia":149},{"nome":"Teatro Ipanema","distancia":1049}]},{"linha":"426","descricao_ponto":"Rua Campos Da Paz próximo ao 67","sequencia":"31","latitude":"-22.9235","longitude":"-43.2079","pontos_turisticos":[{"nome":"Sambódromo","distancia":1753},{"nome":"Santa Teresa","distancia":1378},{"nome":"Teatro Ziembinski","distancia":1665}]},{"linha":"426","descricao_ponto":"Rua Conde De Bonfim próximo ao 929","sequencia":"56","latitude":"-22.9383","longitude":"-43.247","pontos_turisticos":[]},{"linha":"426","descricao_ponto":"Rua Conde De Bonfim próximo ao 1139","sequencia":"61","latitude":"-22.9421","longitude":"-43.2531","pontos_turisticos":[]},{"linha":"426","descricao_ponto":"BRS 2 - REPÚBLICA DO PERU","sequencia":"54","latitude":"-22.9662","longitude":"-43.182","pontos_turisticos":[{"nome":"Espaço Cultura Sergio Porto","distancia":1999},{"nome":"Fundação Casa de Rui Barbosa","distancia":1930},{"nome":"Fundação Eva Klabin Rapaport","distancia":1978},{"nome":"Museu do Índio","distancia":1844},{"nome":"Pão de Açúcar","distancia":1947},{"nome":"Praia de Copacabana","distancia":398},{"nome":"Praia Leme","distancia":1612},{"nome":"Sala Baden Powell","distancia":175},{"nome":"Teatro Brigitte Blair","distancia":1614},{"nome":"Teatro do Instituto Benjamin Constant","distancia":1787},{"nome":"Teatro Gláucio Gil","distancia":152},{"nome":"Teatro Princesa Isabel","distancia":863},{"nome":"Teatro Villa Lobos","distancia":877}]},{"linha":"426","descricao_ponto":"BRS 2 - DJALMA ULRICH","sequencia":"9","latitude":"-22.9794","longitude":"-43.191","pontos_turisticos":[{"nome":"Casa Laura Alvin","distancia":1169},{"nome":"Casa Laura Alvin","distancia":1169},{"nome":"Centro Cultural Candido Mendes","distancia":1562},{"nome":"Forte de Copacabana","distancia":784},{"nome":"Fundação Eva Klabin Rapaport","distancia":825},{"nome":"Parque Peter Pan","distancia":435},{"nome":"Praia de Copacabana","distancia":1711},{"nome":"Praia de Ipanema","distancia":1523},{"nome":"Praia do Arpoador","distancia":1071},{"nome":"Sala Baden Powell","distancia":1730},{"nome":"Teatro Brigitte Blair","distancia":167},{"nome":"Teatro da Praia","distancia":528},{"nome":"Teatro Gláucio Gil","distancia":1875},{"nome":"Teatro Ipanema","distancia":1557}]},{"linha":"426","descricao_ponto":"Rua Itapiru próximo ao 315","sequencia":"24","latitude":"-22.9202","longitude":"-43.1966","pontos_turisticos":[{"nome":"Arcos da Lapa","distancia":1894},{"nome":"Campo de Santana","distancia":1727},{"nome":"Catedral Metropolitana","distancia":1927},{"nome":"Igreja e Convento de Santa Teresa","distancia":1743},{"nome":"Museu da Chácara do Céu","distancia":1316},{"nome":"Parque das Ruínas","distancia":1477},{"nome":"Parque Eduardo Guinle","distancia":1908},{"nome":"Sala Cecília Meireles","distancia":1990},{"nome":"Sambódromo","distancia":971},{"nome":"Santa Teresa","distancia":1314}]},{"linha":"426","descricao_ponto":"Rua Muniz Barreto próximo ao 396","sequencia":"46","latitude":"-22.9453","longitude":"-43.1841","pontos_turisticos":[{"nome":"Cristo Redentor (Corcovado)","distancia":1569},{"nome":"Fundação Casa de Rui Barbosa","distancia":543},{"nome":"Mirante Dona Marta","distancia":1367},{"nome":"Museu Carmem Miranda","distancia":1274},{"nome":"Museu do Índio","distancia":1050},{"nome":"Oi Futuro","distancia":1876},{"nome":"Parque Eduardo Guinle","distancia":1554},{"nome":"Praia de Botafogo","distancia":334},{"nome":"Teatro Bibi Ferreira","distancia":152},{"nome":"Teatro do Instituto Benjamin Constant","distancia":1512},{"nome":"Teatro Villa Lobos","distancia":1996}]},{"linha":"426","descricao_ponto":"Rua Eleone De Almeida próximo ao 89","sequencia":"21","latitude":"-22.9174","longitude":"-43.1941","pontos_turisticos":[{"nome":"Arcos da Lapa","distancia":1538},{"nome":"Campo de Santana","distancia":1332},{"nome":"Catedral Metropolitana","distancia":1549},{"nome":"Igreja de São Francisco da Penitência","distancia":1916},{"nome":"Igreja e Convento de Santa Teresa","distancia":1426},{"nome":"Igreja Nossa Senhora da Glória do Outeiro","distancia":1970},{"nome":"Museu da Chácara do Céu","distancia":1021},{"nome":"Parque das Ruínas","distancia":1192},{"nome":"Parque Eduardo Guinle","distancia":1959},{"nome":"Praça Paris","distancia":1871},{"nome":"Real Gabinete Português de Leitura","distancia":1804},{"nome":"Sala Cecília Meireles","distancia":1660},{"nome":"Sambódromo","distancia":717},{"nome":"Santa Teresa","distancia":1667},{"nome":"Teatro Carlos Gomes","distancia":1639},{"nome":"Teatro Dulcina","distancia":1898},{"nome":"Teatro João Caetano","distancia":1721},{"nome":"Teatro Rival Petrobras","distancia":1953}]},{"linha":"426","descricao_ponto":"Rua Campos Da Paz próximo ao 209","sequencia":"29","latitude":"-22.9239","longitude":"-43.2045","pontos_turisticos":[{"nome":"Cristo Redentor (Corcovado)","distancia":1939},{"nome":"Sambódromo","distancia":1589},{"nome":"Santa Teresa","distancia":1112}]},{"linha":"426","descricao_ponto":"Rua Campos Da Paz próximo ao 117","sequencia":"30","latitude":"-22.9237","longitude":"-43.2064","pontos_turisticos":[{"nome":"Sambódromo","distancia":1676},{"nome":"Santa Teresa","distancia":1253},{"nome":"Teatro Ziembinski","distancia":1820}]},{"linha":"426","descricao_ponto":"Rua Conde De Bonfim próximo ao 1235","sequencia":"3","latitude":"-22.9434","longitude":"-43.254","pontos_turisticos":[]},{"linha":"426","descricao_ponto":"Rua Conde De Bonfim próximo ao 370","sequencia":"20","latitude":"-22.9245","longitude":"-43.2331","pontos_turisticos":[{"nome":"Estádio do Maracanã","distancia":1229},{"nome":"Teatro Noel Rosa","distancia":1599},{"nome":"Teatro Odylo Costa Filho","distancia":1563},{"nome":"Teatro Ziembinski","distancia":1020}]},{"linha":"426","descricao_ponto":"Rua Estrela próximo ao 73","sequencia":"31","latitude":"-22.9249","longitude":"-43.2083","pontos_turisticos":[{"nome":"Cristo Redentor (Corcovado)","distancia":1999},{"nome":"Sambódromo","distancia":1900},{"nome":"Santa Teresa","distancia":1309},{"nome":"Teatro Ziembinski","distancia":1659}]},{"linha":"426","descricao_ponto":"Avenida Afranio De Melo Franco próximo ao 419","sequencia":"1","latitude":"-22.9802","longitude":"-43.2182","pontos_turisticos":[{"nome":"Centro Cultural Candido Mendes","distancia":1442},{"nome":"Jardim Botânico","distancia":1159},{"nome":"Jockey Club Brasileiro","distancia":1043},{"nome":"Lagoa Rodrigo de Freitas","distancia":1190},{"nome":"Planetário","distancia":1243},{"nome":"Praia de Ipanema","distancia":1719},{"nome":"Praia do Leblon","distancia":874},{"nome":"Teatro Amador O Tablado","distancia":1689},{"nome":"Teatro Café Pequeno","distancia":403},{"nome":"Teatro Casa da Gávea","distancia":1129},{"nome":"Teatro Casa do Riso","distancia":464},{"nome":"Teatro Clara Nunes","distancia":1132},{"nome":"Teatro das Artes","distancia":1146},{"nome":"Teatro do Jockey","distancia":776},{"nome":"Teatro dos Quatro","distancia":1124},{"nome":"Teatro Ipanema","distancia":1486},{"nome":"Teatro Leblon","distancia":462},{"nome":"Teatro Maria Clara Machado","distancia":1243},{"nome":"Teatro Vanucci","distancia":1146}]},{"linha":"426","descricao_ponto":"Rua Itapiru próximo ao 592","sequencia":"25","latitude":"-22.9223","longitude":"-43.1973","pontos_turisticos":[{"nome":"Campo de Santana","distancia":1966},{"nome":"Igreja e Convento de Santa Teresa","distancia":1891},{"nome":"Museu da Chácara do Céu","distancia":1457},{"nome":"Parque das Ruínas","distancia":1608},{"nome":"Parque Eduardo Guinle","distancia":1824},{"nome":"Sambódromo","distancia":1205},{"nome":"Santa Teresa","distancia":1075}]},{"linha":"426","descricao_ponto":"Rua Conde De Bonfim próximo ao 193","sequencia":"22","latitude":"-22.9242","longitude":"-43.2279","pontos_turisticos":[{"nome":"Estádio do Maracanã","distancia":1222},{"nome":"Teatro Noel Rosa","distancia":1798},{"nome":"Teatro Odylo Costa Filho","distancia":1682},{"nome":"Teatro Ziembinski","distancia":545}]},{"linha":"426","descricao_ponto":"Rua Conde De Bonfim próximo ao 579","sequencia":"16","latitude":"-22.9306","longitude":"-43.2379","pontos_turisticos":[{"nome":"Teatro Ziembinski","distancia":1790}]},{"linha":"426","descricao_ponto":"Rua Itapiru próximo ao 1356","sequencia":"34","latitude":"-22.925","longitude":"-43.203","pontos_turisticos":[{"nome":"Cristo Redentor (Corcovado)","distancia":1778},{"nome":"Sambódromo","distancia":1631},{"nome":"Santa Teresa","distancia":923}]},{"linha":"426","descricao_ponto":"Rua Da Passagem próximo ao 98","sequencia":"49","latitude":"-22.9526","longitude":"-43.182","pontos_turisticos":[{"nome":"Espaço Cultura Sergio Porto","distancia":1907},{"nome":"Fundação Casa de Rui Barbosa","distancia":613},{"nome":"Mirante Dona Marta","distancia":1747},{"nome":"Museu Carmem Miranda","distancia":1587},{"nome":"Museu do Índio","distancia":956},{"nome":"Pão de Açúcar","distancia":1584},{"nome":"Praia de Botafogo","distancia":841},{"nome":"Praia de Copacabana","distancia":1802},{"nome":"Praia Leme","distancia":1969},{"nome":"Praia Vermelha","distancia":1795},{"nome":"Sala Baden Powell","distancia":1621},{"nome":"Teatro Bibi Ferreira","distancia":802},{"nome":"Teatro do Instituto Benjamin Constant","distancia":1028},{"nome":"Teatro Gláucio Gil","distancia":1428},{"nome":"Teatro Princesa Isabel","distancia":1400},{"nome":"Teatro Villa Lobos","distancia":1188}]},{"linha":"426","descricao_ponto":"Rua Aristides Lobo próximo ao 35","sequencia":"34","latitude":"-22.9179","longitude":"-43.2093","pontos_turisticos":[{"nome":"Sambódromo","distancia":1463},{"nome":"Santa Teresa","distancia":1940},{"nome":"Teatro Ziembinski","distancia":1535}]},{"linha":"426","descricao_ponto":"Rua Conde De Bonfim próximo ao 796","sequencia":"53","latitude":"-22.9349","longitude":"-43.2434","pontos_turisticos":[]},{"linha":"426","descricao_ponto":"Rua Itapiru próximo ao 245","sequencia":"23","latitude":"-22.9191","longitude":"-43.1957","pontos_turisticos":[{"nome":"Arcos da Lapa","distancia":1760},{"nome":"Campo de Santana","distancia":1575},{"nome":"Catedral Metropolitana","distancia":1785},{"nome":"Igreja e Convento de Santa Teresa","distancia":1622},{"nome":"Museu da Chácara do Céu","distancia":1200},{"nome":"Parque das Ruínas","distancia":1367},{"nome":"Parque Eduardo Guinle","distancia":1924},{"nome":"Sala Cecília Meireles","distancia":1865},{"nome":"Sambódromo","distancia":856},{"nome":"Santa Teresa","distancia":1448},{"nome":"Teatro Carlos Gomes","distancia":1889},{"nome":"Teatro João Caetano","distancia":1971}]},{"linha":"426","descricao_ponto":"Rua Itapiru próximo ao 1150","sequencia":"27","latitude":"-22.9252","longitude":"-43.2012","pontos_turisticos":[{"nome":"Cristo Redentor (Corcovado)","distancia":1717},{"nome":"Museu da Chácara do Céu","distancia":1954},{"nome":"Sambódromo","distancia":1591},{"nome":"Santa Teresa","distancia":816}]},{"linha":"426","descricao_ponto":"Rua Itapiru próximo ao 592","sequencia":"38","latitude":"-22.9222","longitude":"-43.1973","pontos_turisticos":[{"nome":"Campo de Santana","distancia":1956},{"nome":"Igreja e Convento de Santa Teresa","distancia":1886},{"nome":"Museu da Chácara do Céu","distancia":1452},{"nome":"Parque das Ruínas","distancia":1605},{"nome":"Parque Eduardo Guinle","distancia":1830},{"nome":"Sambódromo","distancia":1194},{"nome":"Santa Teresa","distancia":1086}]},{"linha":"426","descricao_ponto":"BRS 2 - GARCIA D ÁVILA","sequencia":"4","latitude":"-22.9839","longitude":"-43.2103","pontos_turisticos":[{"nome":"Casa Laura Alvin","distancia":1173},{"nome":"Casa Laura Alvin","distancia":1173},{"nome":"Centro Cultural Candido Mendes","distancia":547},{"nome":"Fundação Eva Klabin Rapaport","distancia":1525},{"nome":"Jardim Botânico","distancia":1965},{"nome":"Jockey Club Brasileiro","distancia":1933},{"nome":"Lagoa Rodrigo de Freitas","distancia":1407},{"nome":"Parque Peter Pan","distancia":1868},{"nome":"Praia de Ipanema","distancia":811},{"nome":"Praia do Arpoador","distancia":1877},{"nome":"Praia do Leblon","distancia":1247},{"nome":"Teatro Café Pequeno","distancia":781},{"nome":"Teatro Casa do Riso","distancia":1347},{"nome":"Teatro da Praia","distancia":1736},{"nome":"Teatro do Jockey","distancia":1683},{"nome":"Teatro Ipanema","distancia":585},{"nome":"Teatro Leblon","distancia":1309}]},{"linha":"426","descricao_ponto":"Avenida Venceslau Braz próximo ao 3554","sequencia":"17","latitude":"-22.9528","longitude":"-43.1762","pontos_turisticos":[{"nome":"Fundação Casa de Rui Barbosa","distancia":1158},{"nome":"Museu Carmem Miranda","distancia":1327},{"nome":"Museu do Índio","distancia":1550},{"nome":"Pão de Açúcar","distancia":1004},{"nome":"Praia da Urca","distancia":1457},{"nome":"Praia de Botafogo","distancia":978},{"nome":"Praia de Copacabana","distancia":1781},{"nome":"Praia Leme","distancia":1517},{"nome":"Praia Vermelha","distancia":1207},{"nome":"Sala Baden Powell","distancia":1655},{"nome":"Teatro Bibi Ferreira","distancia":1197},{"nome":"Teatro do Instituto Benjamin Constant","distancia":434},{"nome":"Teatro Gláucio Gil","distancia":1478},{"nome":"Teatro Princesa Isabel","distancia":1152},{"nome":"Teatro Villa Lobos","distancia":951}]},{"linha":"426","descricao_ponto":"Rua Conde De Bonfim próximo ao 1103","sequencia":"59","latitude":"-22.9407","longitude":"-43.2505","pontos_turisticos":[]},{"linha":"426","descricao_ponto":"Rua Conde De Bonfim próximo ao 377","sequencia":"19","latitude":"-22.9252","longitude":"-43.2341","pontos_turisticos":[{"nome":"Estádio do Maracanã","distancia":1326},{"nome":"Teatro Noel Rosa","distancia":1649},{"nome":"Teatro Odylo Costa Filho","distancia":1631},{"nome":"Teatro Ziembinski","distancia":1145}]},{"linha":"426","descricao_ponto":"Rua Conde De Bonfim próximo ao 25","sequencia":"25","latitude":"-22.9228","longitude":"-43.2223","pontos_turisticos":[{"nome":"Estádio do Maracanã","distancia":1361},{"nome":"Quinta da Boa Vista/Museu Nacional","distancia":1948},{"nome":"Teatro Odylo Costa Filho","distancia":1883},{"nome":"Teatro Ziembinski","distancia":264}]},{"linha":"426","descricao_ponto":"Rua Do Bispo próximo ao 212","sequencia":"29","latitude":"-22.9226","longitude":"-43.214","pontos_turisticos":[{"nome":"Santa Teresa","distancia":1935},{"nome":"Teatro Ziembinski","distancia":1032}]},{"linha":"426","descricao_ponto":"BRS 2, 7 - PARETO","sequencia":"43","latitude":"-22.9233","longitude":"-43.2317","pontos_turisticos":[{"nome":"Estádio do Maracanã","distancia":1080},{"nome":"Teatro Noel Rosa","distancia":1523},{"nome":"Teatro Odylo Costa Filho","distancia":1457},{"nome":"Teatro Ziembinski","distancia":839}]},{"linha":"426","descricao_ponto":"BRS 2 - RAIMUNDO CORREIA","sequencia":"56","latitude":"-22.9717","longitude":"-43.1897","pontos_turisticos":[{"nome":"Casa Laura Alvin","distancia":1931},{"nome":"Casa Laura Alvin","distancia":1931},{"nome":"Espaço Cultura Sergio Porto","distancia":1797},{"nome":"Forte de Copacabana","distancia":1582},{"nome":"Fundação Eva Klabin Rapaport","distancia":986},{"nome":"Parque Peter Pan","distancia":1300},{"nome":"Praia de Copacabana","distancia":1138},{"nome":"Praia do Arpoador","distancia":1937},{"nome":"Sala Baden Powell","distancia":1060},{"nome":"Teatro Brigitte Blair","distancia":711},{"nome":"Teatro da Praia","distancia":1378},{"nome":"Teatro Gláucio Gil","distancia":1149},{"nome":"Teatro Princesa Isabel","distancia":1848},{"nome":"Teatro Villa Lobos","distancia":1875}]},{"linha":"426","descricao_ponto":"BRS 2 - BOLÍVAR","sequencia":"57","latitude":"-22.9754","longitude":"-43.1922","pontos_turisticos":[{"nome":"Casa Laura Alvin","distancia":1447},{"nome":"Casa Laura Alvin","distancia":1447},{"nome":"Centro Cultural Candido Mendes","distancia":1685},{"nome":"Forte de Copacabana","distancia":1242},{"nome":"Fundação Eva Klabin Rapaport","distancia":611},{"nome":"Parque Peter Pan","distancia":866},{"nome":"Praia de Copacabana","distancia":1539},{"nome":"Praia de Ipanema","distancia":1731},{"nome":"Praia do Arpoador","distancia":1501},{"nome":"Sala Baden Powell","distancia":1501},{"nome":"Teatro Brigitte Blair","distancia":295},{"nome":"Teatro da Praia","distancia":923},{"nome":"Teatro Gláucio Gil","distancia":1612},{"nome":"Teatro Ipanema","distancia":1696}]},{"linha":"426","descricao_ponto":"Avenida Borges De Medeiros próximo ao 779","sequencia":"2","latitude":"-22.98","longitude":"-43.216","pontos_turisticos":[{"nome":"Casa Laura Alvin","distancia":1869},{"nome":"Casa Laura Alvin","distancia":1869},{"nome":"Centro Cultural Candido Mendes","distancia":1244},{"nome":"Fundação Eva Klabin Rapaport","distancia":1882},{"nome":"Jardim Botânico","distancia":1258},{"nome":"Jockey Club Brasileiro","distancia":1206},{"nome":"Lagoa Rodrigo de Freitas","distancia":1060},{"nome":"Planetário","distancia":1464},{"nome":"Praia de Ipanema","distancia":1533},{"nome":"Praia do Leblon","distancia":1010},{"nome":"Teatro Amador O Tablado","distancia":1659},{"nome":"Teatro Café Pequeno","distancia":468},{"nome":"Teatro Casa da Gávea","distancia":1304},{"nome":"Teatro Casa do Riso","distancia":688},{"nome":"Teatro Clara Nunes","distancia":1328},{"nome":"Teatro das Artes","distancia":1344},{"nome":"Teatro do Jockey","distancia":974},{"nome":"Teatro dos Quatro","distancia":1321},{"nome":"Teatro Ipanema","distancia":1291},{"nome":"Teatro Leblon","distancia":688},{"nome":"Teatro Maria Clara Machado","distancia":1464},{"nome":"Teatro Vanucci","distancia":1344}]},{"linha":"426","descricao_ponto":"BRS 1B, 2B, 5, 6 - SAMPAIO FERRAZ","sequencia":"35","latitude":"-22.9154","longitude":"-43.2079","pontos_turisticos":[{"nome":"Sambódromo","distancia":1214},{"nome":"Teatro Ziembinski","distancia":1753}]},{"linha":"426","descricao_ponto":"Rua Conde De Bonfim próximo ao 685","sequencia":"51","latitude":"-22.9323","longitude":"-43.2409","pontos_turisticos":[]},{"linha":"426","descricao_ponto":"Rua Conde De Bonfim próximo ao 1052","sequencia":"58","latitude":"-22.9403","longitude":"-43.2497","pontos_turisticos":[]},{"linha":"426","descricao_ponto":"JARDIM DE ALAH/IPANEMA","sequencia":"3","latitude":"-22.9825","longitude":"-43.214","pontos_turisticos":[{"nome":"Casa Laura Alvin","distancia":1581},{"nome":"Casa Laura Alvin","distancia":1581},{"nome":"Centro Cultural Candido Mendes","distancia":952},{"nome":"Fundação Eva Klabin Rapaport","distancia":1779},{"nome":"Jardim Botânico","distancia":1603},{"nome":"Jockey Club Brasileiro","distancia":1536},{"nome":"Lagoa Rodrigo de Freitas","distancia":1265},{"nome":"Planetário","distancia":1712},{"nome":"Praia de Ipanema","distancia":1220},{"nome":"Praia do Leblon","distancia":969},{"nome":"Teatro Amador O Tablado","distancia":1954},{"nome":"Teatro Café Pequeno","distancia":428},{"nome":"Teatro Casa da Gávea","distancia":1627},{"nome":"Teatro Casa do Riso","distancia":939},{"nome":"Teatro Clara Nunes","distancia":1631},{"nome":"Teatro das Artes","distancia":1645},{"nome":"Teatro do Jockey","distancia":1276},{"nome":"Teatro dos Quatro","distancia":1623},{"nome":"Teatro Ipanema","distancia":993},{"nome":"Teatro Leblon","distancia":905},{"nome":"Teatro Maria Clara Machado","distancia":1712},{"nome":"Teatro Vanucci","distancia":1645}]},{"linha":"426","descricao_ponto":"Rua Conde De Bonfim próximo ao 862","sequencia":"55","latitude":"-22.9365","longitude":"-43.2451","pontos_turisticos":[]},{"linha":"426","descricao_ponto":"Rua Conde De Bonfim próximo ao 1103","sequencia":"60","latitude":"-22.9411","longitude":"-43.2516","pontos_turisticos":[]},{"linha":"426","descricao_ponto":"Rua Conde De Bonfim próximo ao 597","sequencia":"15","latitude":"-22.9311","longitude":"-43.2384","pontos_turisticos":[{"nome":"Teatro Ziembinski","distancia":1864}]},{"linha":"426","descricao_ponto":"Rua Estrela próximo ao 6","sequencia":"32","latitude":"-22.9252","longitude":"-43.206","pontos_turisticos":[{"nome":"Cristo Redentor (Corcovado)","distancia":1861},{"nome":"Sambódromo","distancia":1792},{"nome":"Santa Teresa","distancia":1106},{"nome":"Teatro Ziembinski","distancia":1895}]},{"linha":"426","descricao_ponto":"BRS 2 - BELFORT ROXO","sequencia":"14","latitude":"-22.9649","longitude":"-43.1763","pontos_turisticos":[{"nome":"Pão de Açúcar","distancia":1415},{"nome":"Praia de Copacabana","distancia":501},{"nome":"Praia Leme","distancia":1011},{"nome":"Praia Vermelha","distancia":1615},{"nome":"Sala Baden Powell","distancia":506},{"nome":"Teatro do Instituto Benjamin Constant","distancia":1390},{"nome":"Teatro Gláucio Gil","distancia":465},{"nome":"Teatro Princesa Isabel","distancia":293},{"nome":"Teatro Villa Lobos","distancia":413}]},{"linha":"426","descricao_ponto":"Rua Conde De Bonfim próximo ao 977","sequencia":"8","latitude":"-22.9393","longitude":"-43.2482","pontos_turisticos":[]},{"linha":"426","descricao_ponto":"BRS 2 - VISCONDE DE OURO PRETO","sequencia":"18","latitude":"-22.9471","longitude":"-43.1823","pontos_turisticos":[{"nome":"Cristo Redentor (Corcovado)","distancia":1815},{"nome":"Fundação Casa de Rui Barbosa","distancia":539},{"nome":"Mirante Dona Marta","distancia":1556},{"nome":"Museu Carmem Miranda","distancia":1195},{"nome":"Museu do Índio","distancia":1072},{"nome":"Oi Futuro","distancia":1995},{"nome":"Pão de Açúcar","distancia":1840},{"nome":"Parque Eduardo Guinle","distancia":1746},{"nome":"Praia da Urca","distancia":1972},{"nome":"Praia de Botafogo","distancia":266},{"nome":"Teatro Bibi Ferreira","distancia":331},{"nome":"Teatro do Instituto Benjamin Constant","distancia":1248},{"nome":"Teatro Princesa Isabel","distancia":1949},{"nome":"Teatro Villa Lobos","distancia":1736}]},{"linha":"426","descricao_ponto":"Rua Pinheiro Machado próximo ao 12","sequencia":"19","latitude":"-22.9413","longitude":"-43.1824","pontos_turisticos":[{"nome":"Aterro do Flamengo","distancia":1746},{"nome":"Cristo Redentor (Corcovado)","distancia":1650},{"nome":"Fundação Casa de Rui Barbosa","distancia":1016},{"nome":"Mirante Dona Marta","distancia":1623},{"nome":"Museu Carmem Miranda","distancia":1023},{"nome":"Museu da República","distancia":1821},{"nome":"Museu de Folclore Edison Carneiro","distancia":1803},{"nome":"Museu do Índio","distancia":1500},{"nome":"Oi Futuro","distancia":1399},{"nome":"Parque Eduardo Guinle","distancia":1101},{"nome":"Praia de Botafogo","distancia":453},{"nome":"Praia do Flamengo","distancia":1742},{"nome":"Santa Teresa","distancia":1911},{"nome":"Teatro Bibi Ferreira","distancia":609},{"nome":"Teatro do Instituto Benjamin Constant","distancia":1687}]},{"linha":"426","descricao_ponto":"Rua Do Bispo próximo ao 269","sequencia":"28","latitude":"-22.9203","longitude":"-43.2152","pontos_turisticos":[{"nome":"Estádio do Maracanã","distancia":1788},{"nome":"Quinta da Boa Vista/Museu Nacional","distancia":1927},{"nome":"Teatro Ziembinski","distancia":896}]},{"linha":"426","descricao_ponto":"Rua Doutor Agra próximo ao 1","sequencia":"40","latitude":"-22.9197","longitude":"-43.1945","pontos_turisticos":[{"nome":"Arcos da Lapa","distancia":1677},{"nome":"Campo de Santana","distancia":1581},{"nome":"Catedral Metropolitana","distancia":1718},{"nome":"Igreja e Convento de Santa Teresa","distancia":1522},{"nome":"Igreja Nossa Senhora da Glória do Outeiro","distancia":1971},{"nome":"Museu da Chácara do Céu","distancia":1093},{"nome":"Museu da República","distancia":1972},{"nome":"Museu de Folclore Edison Carneiro","distancia":1983},{"nome":"Parque das Ruínas","distancia":1256},{"nome":"Parque Eduardo Guinle","distancia":1791},{"nome":"Praça Paris","distancia":1932},{"nome":"Sala Cecília Meireles","distancia":1769},{"nome":"Sambódromo","distancia":946},{"nome":"Santa Teresa","distancia":1409},{"nome":"Teatro Carlos Gomes","distancia":1852},{"nome":"Teatro João Caetano","distancia":1938}]},{"linha":"426","descricao_ponto":"Rua Conde De Bonfim próximo ao 481","sequencia":"47","latitude":"-22.9282","longitude":"-43.2365","pontos_turisticos":[{"nome":"Estádio do Maracanã","distancia":1716},{"nome":"Teatro Noel Rosa","distancia":1946},{"nome":"Teatro Odylo Costa Filho","distancia":1968},{"nome":"Teatro Ziembinski","distancia":1520}]},{"linha":"426","descricao_ponto":"Rua Conde De Bonfim próximo ao 644","sequencia":"50","latitude":"-22.9314","longitude":"-43.2391","pontos_turisticos":[{"nome":"Teatro Ziembinski","distancia":1941}]},{"linha":"426","descricao_ponto":"Rua Conde De Bonfim próximo ao 1139","sequencia":"5","latitude":"-22.9414","longitude":"-43.2523","pontos_turisticos":[]},{"linha":"426","descricao_ponto":"Rua Conde De Bonfim próximo ao 189","sequencia":"21","latitude":"-22.9233","longitude":"-43.2301","pontos_turisticos":[{"nome":"Estádio do Maracanã","distancia":1083},{"nome":"Teatro Noel Rosa","distancia":1596},{"nome":"Teatro Odylo Costa Filho","distancia":1503},{"nome":"Teatro Ziembinski","distancia":685}]},{"linha":"426","descricao_ponto":"BRS 2 - FIGUEIREDO MAGALHÃES","sequencia":"55","latitude":"-22.9688","longitude":"-43.186","pontos_turisticos":[{"nome":"Espaço Cultura Sergio Porto","distancia":1812},{"nome":"Forte de Copacabana","distancia":1902},{"nome":"Fundação Eva Klabin Rapaport","distancia":1477},{"nome":"Museu do Índio","distancia":1945},{"nome":"Parque Peter Pan","distancia":1716},{"nome":"Praia de Copacabana","distancia":706},{"nome":"Sala Baden Powell","distancia":582},{"nome":"Teatro Brigitte Blair","distancia":1150},{"nome":"Teatro da Praia","distancia":1813},{"nome":"Teatro Gláucio Gil","distancia":653},{"nome":"Teatro Princesa Isabel","distancia":1359},{"nome":"Teatro Villa Lobos","distancia":1378}]},{"linha":"426","descricao_ponto":"Rua Conde De Bonfim próximo ao 1139","sequencia":"62","latitude":"-22.9439","longitude":"-43.2541","pontos_turisticos":[]},{"linha":"426","descricao_ponto":"BRS 2 - CONSELHEIRO ZENHA","sequencia":"42","latitude":"-22.9216","longitude":"-43.2282","pontos_turisticos":[{"nome":"Estádio do Maracanã","distancia":936},{"nome":"Jardim Zoológico (Riozoo)","distancia":1914},{"nome":"Quinta da Boa Vista/Museu Nacional","distancia":1829},{"nome":"Teatro Noel Rosa","distancia":1546},{"nome":"Teatro Odylo Costa Filho","distancia":1412},{"nome":"Teatro Ziembinski","distancia":445}]},{"linha":"426","descricao_ponto":"Rua Conde De Bonfim próximo ao 822","sequencia":"12","latitude":"-22.9355","longitude":"-43.244","pontos_turisticos":[]},{"linha":"426","descricao_ponto":"Rua Conde De Bonfim próximo ao 1103","sequencia":"6","latitude":"-22.9407","longitude":"-43.2505","pontos_turisticos":[]},{"linha":"426","descricao_ponto":"Rua Conde De Bonfim próximo ao 665","sequencia":"14","latitude":"-22.9323","longitude":"-43.2407","pontos_turisticos":[]},{"linha":"426","descricao_ponto":"BRS 2 - DEMÉTRIO RIBEIRO","sequencia":"15","latitude":"-22.9616","longitude":"-43.1751","pontos_turisticos":[{"nome":"Fundação Casa de Rui Barbosa","distancia":1814},{"nome":"Museu do Índio","distancia":1973},{"nome":"Pão de Açúcar","distancia":1075},{"nome":"Praia da Urca","distancia":1971},{"nome":"Praia de Botafogo","distancia":1925},{"nome":"Praia de Copacabana","distancia":879},{"nome":"Praia Leme","distancia":889},{"nome":"Praia Vermelha","distancia":1291},{"nome":"Sala Baden Powell","distancia":834},{"nome":"Teatro do Instituto Benjamin Constant","distancia":1003},{"nome":"Teatro Gláucio Gil","distancia":721},{"nome":"Teatro Princesa Isabel","distancia":177},{"nome":"Teatro Villa Lobos","distancia":37}]},{"linha":"426","descricao_ponto":"Viaduto Engenheiro Noronha próximo ao 172","sequencia":"20","latitude":"-22.9334","longitude":"-43.1845","pontos_turisticos":[{"nome":"Aterro do Flamengo","distancia":1389},{"nome":"Cristo Redentor (Corcovado)","distancia":1632},{"nome":"Fundação Casa de Rui Barbosa","distancia":1801},{"nome":"Igreja Nossa Senhora da Glória do Outeiro","distancia":1638},{"nome":"Mirante Dona Marta","distancia":1921},{"nome":"Museu Carmem Miranda","distancia":1524},{"nome":"Museu da Chácara do Céu","distancia":1786},{"nome":"Museu da República","distancia":1175},{"nome":"Museu de Folclore Edison Carneiro","distancia":1164},{"nome":"Oi Futuro","distancia":913},{"nome":"Parque das Ruínas","distancia":1774},{"nome":"Parque Eduardo Guinle","distancia":303},{"nome":"Praia de Botafogo","distancia":1355},{"nome":"Praia do Flamengo","distancia":1422},{"nome":"Santa Teresa","distancia":1398},{"nome":"Teatro Bibi Ferreira","distancia":1411},{"nome":"Teatro Glória","distancia":1675}]},{"linha":"426","descricao_ponto":"BRS 2, 5, 6, I - PROFESSOR GABIZO","sequencia":"40","latitude":"-22.9195","longitude":"-43.2202","pontos_turisticos":[{"nome":"Estádio do Maracanã","distancia":1292},{"nome":"Jardim Zoológico (Riozoo)","distancia":1898},{"nome":"Quinta da Boa Vista/Museu Nacional","distancia":1635},{"nome":"Teatro Odylo Costa Filho","distancia":1813},{"nome":"Teatro Ziembinski","distancia":413}]},{"linha":"426","descricao_ponto":"Rua Da Passagem próximo ao 122","sequencia":"50","latitude":"-22.9536","longitude":"-43.1815","pontos_turisticos":[{"nome":"Espaço Cultura Sergio Porto","distancia":1922},{"nome":"Fundação Casa de Rui Barbosa","distancia":722},{"nome":"Mirante Dona Marta","distancia":1842},{"nome":"Museu Carmem Miranda","distancia":1646},{"nome":"Museu do Índio","distancia":1020},{"nome":"Pão de Açúcar","distancia":1514},{"nome":"Praia da Urca","distancia":1996},{"nome":"Praia de Botafogo","distancia":946},{"nome":"Praia de Copacabana","distancia":1684},{"nome":"Praia Leme","distancia":1862},{"nome":"Praia Vermelha","distancia":1731},{"nome":"Sala Baden Powell","distancia":1506},{"nome":"Teatro Bibi Ferreira","distancia":925},{"nome":"Teatro do Instituto Benjamin Constant","distancia":978},{"nome":"Teatro Gláucio Gil","distancia":1313},{"nome":"Teatro Princesa Isabel","distancia":1280},{"nome":"Teatro Villa Lobos","distancia":1068}]},{"linha":"426","descricao_ponto":"Rua Conde De Bonfim próximo ao 927","sequencia":"9","latitude":"-22.9384","longitude":"-43.2471","pontos_turisticos":[]},{"linha":"426","descricao_ponto":"Rua Itapiru próximo ao 1553","sequencia":"33","latitude":"-22.9249","longitude":"-43.2049","pontos_turisticos":[{"nome":"Cristo Redentor (Corcovado)","distancia":1848},{"nome":"Sambódromo","distancia":1706},{"nome":"Santa Teresa","distancia":1051},{"nome":"Teatro Ziembinski","distancia":1997}]},{"linha":"426","descricao_ponto":"BRS 2 - GARCIA D ÁVILA","sequencia":"62","latitude":"-22.9851","longitude":"-43.2087","pontos_turisticos":[{"nome":"Casa Laura Alvin","distancia":984},{"nome":"Casa Laura Alvin","distancia":984},{"nome":"Centro Cultural Candido Mendes","distancia":374},{"nome":"Fundação Eva Klabin Rapaport","distancia":1483},{"nome":"Lagoa Rodrigo de Freitas","distancia":1564},{"nome":"Parque Peter Pan","distancia":1716},{"nome":"Praia de Ipanema","distancia":607},{"nome":"Praia do Arpoador","distancia":1683},{"nome":"Praia do Leblon","distancia":1374},{"nome":"Teatro Brigitte Blair","distancia":1953},{"nome":"Teatro Café Pequeno","distancia":955},{"nome":"Teatro Casa do Riso","distancia":1548},{"nome":"Teatro da Praia","distancia":1581},{"nome":"Teatro do Jockey","distancia":1890},{"nome":"Teatro Ipanema","distancia":401},{"nome":"Teatro Leblon","distancia":1504}]},{"linha":"426","descricao_ponto":"Rua Conde De Bonfim próximo ao 481","sequencia":"17","latitude":"-22.9283","longitude":"-43.2364","pontos_turisticos":[{"nome":"Estádio do Maracanã","distancia":1723},{"nome":"Teatro Noel Rosa","distancia":1958},{"nome":"Teatro Odylo Costa Filho","distancia":1978},{"nome":"Teatro Ziembinski","distancia":1518}]},{"linha":"426","descricao_ponto":"Rua Haddock Lobo próximo ao 347","sequencia":"26","latitude":"-22.9213","longitude":"-43.2198","pontos_turisticos":[{"nome":"Estádio do Maracanã","distancia":1437},{"nome":"Quinta da Boa Vista/Museu Nacional","distancia":1839},{"nome":"Teatro Odylo Costa Filho","distancia":1962},{"nome":"Teatro Ziembinski","distancia":423}]},{"linha":"426","descricao_ponto":"Rua Do Bispo próximo ao 72","sequencia":"30","latitude":"-22.9247","longitude":"-43.2117","pontos_turisticos":[{"nome":"Santa Teresa","distancia":1613},{"nome":"Teatro Ziembinski","distancia":1319}]},{"linha":"426","descricao_ponto":"BRS 2 - RAUL POMPÉIA","sequencia":"59","latitude":"-22.9852","longitude":"-43.192","pontos_turisticos":[{"nome":"Casa Laura Alvin","distancia":760},{"nome":"Casa Laura Alvin","distancia":760},{"nome":"Centro Cultural Candido Mendes","distancia":1337},{"nome":"Forte de Copacabana","distancia":431},{"nome":"Fundação Eva Klabin Rapaport","distancia":1204},{"nome":"Parque Peter Pan","distancia":224},{"nome":"Praia de Ipanema","distancia":1171},{"nome":"Praia do Arpoador","distancia":418},{"nome":"Teatro Brigitte Blair","distancia":813},{"nome":"Teatro da Praia","distancia":222},{"nome":"Teatro Ipanema","distancia":1309}]},{"linha":"426","descricao_ponto":"BRS 2 - REPÚBLICA DO PERU","sequencia":"13","latitude":"-22.9671","longitude":"-43.181","pontos_turisticos":[{"nome":"Museu do Índio","distancia":1982},{"nome":"Pão de Açúcar","distancia":1931},{"nome":"Praia de Copacabana","distancia":255},{"nome":"Praia Leme","distancia":1537},{"nome":"Sala Baden Powell","distancia":39},{"nome":"Teatro Brigitte Blair","distancia":1599},{"nome":"Teatro do Instituto Benjamin Constant","distancia":1816},{"nome":"Teatro Gláucio Gil","distancia":191},{"nome":"Teatro Princesa Isabel","distancia":822},{"nome":"Teatro Villa Lobos","distancia":870}]},{"linha":"426","descricao_ponto":"Rua Aristides Lobo próximo ao 922","sequencia":"33","latitude":"-22.9199","longitude":"-43.2086","pontos_turisticos":[{"nome":"Sambódromo","distancia":1526},{"nome":"Santa Teresa","distancia":1720},{"nome":"Teatro Ziembinski","distancia":1573}]},{"linha":"426","descricao_ponto":"Rua Itapiru próximo ao 975","sequencia":"36","latitude":"-22.925","longitude":"-43.1997","pontos_turisticos":[{"nome":"Cristo Redentor (Corcovado)","distancia":1721},{"nome":"Museu da Chácara do Céu","distancia":1807},{"nome":"Parque das Ruínas","distancia":1950},{"nome":"Parque Eduardo Guinle","distancia":1901},{"nome":"Sambódromo","distancia":1533},{"nome":"Santa Teresa","distancia":790}]},{"linha":"426","descricao_ponto":"Rua Doutor Lagden próximo ao S/n","sequencia":"42","latitude":"-22.9162","longitude":"-43.1945","pontos_turisticos":[{"nome":"Arcos da Lapa","distancia":1540},{"nome":"Campo de Santana","distancia":1234},{"nome":"Catedral Metropolitana","distancia":1529},{"nome":"Igreja de São Francisco da Penitência","distancia":1872},{"nome":"Igreja e Convento de Santa Teresa","distancia":1455},{"nome":"Museu da Chácara do Céu","distancia":1069},{"nome":"Parque das Ruínas","distancia":1242},{"nome":"Praça Paris","distancia":1915},{"nome":"Real Gabinete Português de Leitura","distancia":1738},{"nome":"Sala Cecília Meireles","distancia":1679},{"nome":"Sambódromo","distancia":578},{"nome":"Santa Teresa","distancia":1788},{"nome":"Teatro Carlos Gomes","distancia":1582},{"nome":"Teatro Dulcina","distancia":1888},{"nome":"Teatro João Caetano","distancia":1660},{"nome":"Teatro Rival Petrobras","distancia":1949}]},{"linha":"426","descricao_ponto":"Rua Conde De Bonfim próximo ao 758","sequencia":"52","latitude":"-22.9339","longitude":"-43.2424","pontos_turisticos":[]},{"linha":"426","descricao_ponto":"Rua Haddock Lobo próximo ao 269","sequencia":"27","latitude":"-22.9207","longitude":"-43.2176","pontos_turisticos":[{"nome":"Estádio do Maracanã","distancia":1589},{"nome":"Quinta da Boa Vista/Museu Nacional","distancia":1853},{"nome":"Teatro Ziembinski","distancia":648}]},{"linha":"426","descricao_ponto":"BRS 1, 2, 3, I - DUVIVIER","sequencia":"53","latitude":"-22.9638","longitude":"-43.1784","pontos_turisticos":[{"nome":"Fundação Casa de Rui Barbosa","distancia":1819},{"nome":"Museu do Índio","distancia":1862},{"nome":"Pão de Açúcar","distancia":1492},{"nome":"Praia de Copacabana","distancia":537},{"nome":"Praia Leme","distancia":1210},{"nome":"Praia Vermelha","distancia":1708},{"nome":"Sala Baden Powell","distancia":434},{"nome":"Teatro do Instituto Benjamin Constant","distancia":1365},{"nome":"Teatro Gláucio Gil","distancia":303},{"nome":"Teatro Princesa Isabel","distancia":428},{"nome":"Teatro Villa Lobos","distancia":423}]},{"linha":"426","descricao_ponto":"Rua Itapiru próximo ao 824","sequencia":"26","latitude":"-22.9242","longitude":"-43.1984","pontos_turisticos":[{"nome":"Cristo Redentor (Corcovado)","distancia":1805},{"nome":"Museu da Chácara do Céu","distancia":1648},{"nome":"Parque das Ruínas","distancia":1792},{"nome":"Parque Eduardo Guinle","distancia":1816},{"nome":"Sambódromo","distancia":1425},{"nome":"Santa Teresa","distancia":862}]},{"linha":"426","descricao_ponto":"Rua Aristides Lobo próximo ao 113","sequencia":"32","latitude":"-22.9218","longitude":"-43.2089","pontos_turisticos":[{"nome":"Sambódromo","distancia":1687},{"nome":"Santa Teresa","distancia":1583},{"nome":"Teatro Ziembinski","distancia":1541}]},{"linha":"426","descricao_ponto":"Rua Conde De Bonfim próximo ao 977","sequencia":"57","latitude":"-22.9393","longitude":"-43.2482","pontos_turisticos":[]},{"linha":"426","descricao_ponto":"BRS 2 - SOUSA LIMA","sequencia":"58","latitude":"-22.9817","longitude":"-43.1924","pontos_turisticos":[{"nome":"Casa Laura Alvin","distancia":893},{"nome":"Casa Laura Alvin","distancia":893},{"nome":"Centro Cultural Candido Mendes","distancia":1342},{"nome":"Forte de Copacabana","distancia":654},{"nome":"Fundação Eva Klabin Rapaport","distancia":867},{"nome":"Parque Peter Pan","distancia":169},{"nome":"Praia de Copacabana","distancia":1994},{"nome":"Praia de Ipanema","distancia":1266},{"nome":"Praia do Arpoador","distancia":800},{"nome":"Teatro Brigitte Blair","distancia":435},{"nome":"Teatro da Praia","distancia":236},{"nome":"Teatro Ipanema","distancia":1330}]},{"linha":"426","descricao_ponto":"Rua Conde De Bonfim próximo ao 447","sequencia":"18","latitude":"-22.927","longitude":"-43.2356","pontos_turisticos":[{"nome":"Estádio do Maracanã","distancia":1560},{"nome":"Teatro Noel Rosa","distancia":1821},{"nome":"Teatro Odylo Costa Filho","distancia":1830},{"nome":"Teatro Ziembinski","distancia":1373}]},{"linha":"426","descricao_ponto":"BRS 2 - FARME DE AMOEDO","sequencia":"61","latitude":"-22.9854","longitude":"-43.2019","pontos_turisticos":[{"nome":"Casa Laura Alvin","distancia":307},{"nome":"Casa Laura Alvin","distancia":307},{"nome":"Centro Cultural Candido Mendes","distancia":329},{"nome":"Forte de Copacabana","distancia":1439},{"nome":"Fundação Eva Klabin Rapaport","distancia":1117},{"nome":"Lagoa Rodrigo de Freitas","distancia":1861},{"nome":"Parque Peter Pan","distancia":1036},{"nome":"Praia de Ipanema","distancia":242},{"nome":"Praia do Arpoador","distancia":1011},{"nome":"Teatro Brigitte Blair","distancia":1368},{"nome":"Teatro Café Pequeno","distancia":1650},{"nome":"Teatro da Praia","distancia":898},{"nome":"Teatro Ipanema","distancia":296}]},{"linha":"426","descricao_ponto":"Rua Conde De Bonfim próximo ao 862","sequencia":"11","latitude":"-22.9364","longitude":"-43.2451","pontos_turisticos":[]},{"linha":"426","descricao_ponto":"Rua Conde De Bonfim próximo ao 25","sequencia":"24","latitude":"-22.9245","longitude":"-43.2242","pontos_turisticos":[{"nome":"Estádio do Maracanã","distancia":1401},{"nome":"Teatro Odylo Costa Filho","distancia":1905},{"nome":"Teatro Ziembinski","distancia":396}]},{"linha":"426","descricao_ponto":"BRS 1,2 - VISCONDE DE OURO PRETO","sequencia":"48","latitude":"-22.9472","longitude":"-43.1825","pontos_turisticos":[{"nome":"Cristo Redentor (Corcovado)","distancia":1801},{"nome":"Fundação Casa de Rui Barbosa","distancia":516},{"nome":"Mirante Dona Marta","distancia":1536},{"nome":"Museu Carmem Miranda","distancia":1218},{"nome":"Museu do Índio","distancia":1049},{"nome":"Pão de Açúcar","distancia":1852},{"nome":"Parque Eduardo Guinle","distancia":1757},{"nome":"Praia da Urca","distancia":1992},{"nome":"Praia de Botafogo","distancia":287},{"nome":"Teatro Bibi Ferreira","distancia":316},{"nome":"Teatro do Instituto Benjamin Constant","distancia":1259},{"nome":"Teatro Princesa Isabel","distancia":1948},{"nome":"Teatro Villa Lobos","distancia":1734}]},{"linha":"426","descricao_ponto":"BRS 2 - HILÁRIO DE GOUVEIA","sequencia":"12","latitude":"-22.9687","longitude":"-43.184","pontos_turisticos":[{"nome":"Espaço Cultura Sergio Porto","distancia":1967},{"nome":"Forte de Copacabana","distancia":1944},{"nome":"Fundação Eva Klabin Rapaport","distancia":1658},{"nome":"Parque Peter Pan","distancia":1810},{"nome":"Praia de Copacabana","distancia":501},{"nome":"Praia Leme","distancia":1884},{"nome":"Sala Baden Powell","distancia":388},{"nome":"Teatro Brigitte Blair","distancia":1268},{"nome":"Teatro da Praia","distancia":1916},{"nome":"Teatro Gláucio Gil","distancia":492},{"nome":"Teatro Princesa Isabel","distancia":1177},{"nome":"Teatro Villa Lobos","distancia":1213}]},{"linha":"426","descricao_ponto":"Rua Itapiru próximo ao 1356","sequencia":"28","latitude":"-22.925","longitude":"-43.203","pontos_turisticos":[{"nome":"Cristo Redentor (Corcovado)","distancia":1778},{"nome":"Sambódromo","distancia":1631},{"nome":"Santa Teresa","distancia":923}]},{"linha":"426","descricao_ponto":"Rua Itapiru próximo ao 1150","sequencia":"35","latitude":"-22.9252","longitude":"-43.2013","pontos_turisticos":[{"nome":"Cristo Redentor (Corcovado)","distancia":1719},{"nome":"Museu da Chácara do Céu","distancia":1963},{"nome":"Sambódromo","distancia":1594},{"nome":"Santa Teresa","distancia":820}]},{"linha":"426","descricao_ponto":"BRS 2 - ALZIRA BRANDÃO","sequencia":"41","latitude":"-22.9208","longitude":"-43.2242","pontos_turisticos":[{"nome":"Estádio do Maracanã","distancia":1065},{"nome":"Jardim Zoológico (Riozoo)","distancia":1885},{"nome":"Quinta da Boa Vista/Museu Nacional","distancia":1709},{"nome":"Teatro Noel Rosa","distancia":1773},{"nome":"Teatro Odylo Costa Filho","distancia":1588},{"nome":"Teatro Ziembinski","distancia":33}]},{"linha":"426","descricao_ponto":"Rua Conde De Bonfim próximo ao 469","sequencia":"46","latitude":"-22.9274","longitude":"-43.236","pontos_turisticos":[{"nome":"Estádio do Maracanã","distancia":1615},{"nome":"Teatro Noel Rosa","distancia":1861},{"nome":"Teatro Odylo Costa Filho","distancia":1876},{"nome":"Teatro Ziembinski","distancia":1430}]},{"linha":"426","descricao_ponto":"Rua Conde De Bonfim próximo ao 1139","sequencia":"4","latitude":"-22.9423","longitude":"-43.2532","pontos_turisticos":[]},{"linha":"426","descricao_ponto":"Rua Da Passagem próximo ao 146","sequencia":"51","latitude":"-22.9549","longitude":"-43.1808","pontos_turisticos":[{"nome":"Espaço Cultura Sergio Porto","distancia":1958},{"nome":"Fundação Casa de Rui Barbosa","distancia":872},{"nome":"Mirante Dona Marta","distancia":1975},{"nome":"Museu Carmem Miranda","distancia":1730},{"nome":"Museu do Índio","distancia":1123},{"nome":"Pão de Açúcar","distancia":1428},{"nome":"Praia da Urca","distancia":1982},{"nome":"Praia de Botafogo","distancia":1088},{"nome":"Praia de Copacabana","distancia":1532},{"nome":"Praia Leme","distancia":1722},{"nome":"Praia Vermelha","distancia":1651},{"nome":"Sala Baden Powell","distancia":1359},{"nome":"Teatro Bibi Ferreira","distancia":1086},{"nome":"Teatro do Instituto Benjamin Constant","distancia":927},{"nome":"Teatro Gláucio Gil","distancia":1167},{"nome":"Teatro Princesa Isabel","distancia":1120},{"nome":"Teatro Villa Lobos","distancia":909}]},{"linha":"426","descricao_ponto":"BRS 2 - HENRIQUE DUMONT","sequencia":"63","latitude":"-22.9849","longitude":"-43.213","pontos_turisticos":[{"nome":"Casa Laura Alvin","distancia":1422},{"nome":"Casa Laura Alvin","distancia":1422},{"nome":"Centro Cultural Candido Mendes","distancia":813},{"nome":"Fundação Eva Klabin Rapaport","distancia":1817},{"nome":"Jardim Botânico","distancia":1880},{"nome":"Jockey Club Brasileiro","distancia":1789},{"nome":"Lagoa Rodrigo de Freitas","distancia":1516},{"nome":"Planetário","distancia":1890},{"nome":"Praia de Ipanema","distancia":1032},{"nome":"Praia do Leblon","distancia":950},{"nome":"Teatro Café Pequeno","distancia":519},{"nome":"Teatro Casa da Gávea","distancia":1871},{"nome":"Teatro Casa do Riso","distancia":1141},{"nome":"Teatro Clara Nunes","distancia":1856},{"nome":"Teatro das Artes","distancia":1868},{"nome":"Teatro do Jockey","distancia":1505},{"nome":"Teatro dos Quatro","distancia":1848},{"nome":"Teatro Ipanema","distancia":842},{"nome":"Teatro Leblon","distancia":1086},{"nome":"Teatro Maria Clara Machado","distancia":1890},{"nome":"Teatro Vanucci","distancia":1869}]},{"linha":"426","descricao_ponto":"Rua General Goes Monteiro próximo ao 146","sequencia":"52","latitude":"-22.9556","longitude":"-43.1785","pontos_turisticos":[{"nome":"Fundação Casa de Rui Barbosa","distancia":1100},{"nome":"Museu Carmem Miranda","distancia":1699},{"nome":"Museu do Índio","distancia":1371},{"nome":"Pão de Açúcar","distancia":1190},{"nome":"Praia da Urca","distancia":1805},{"nome":"Praia de Botafogo","distancia":1190},{"nome":"Praia de Copacabana","distancia":1446},{"nome":"Praia Leme","distancia":1483},{"nome":"Praia Vermelha","distancia":1417},{"nome":"Sala Baden Powell","distancia":1299},{"nome":"Teatro Bibi Ferreira","distancia":1270},{"nome":"Teatro do Instituto Benjamin Constant","distancia":726},{"nome":"Teatro Gláucio Gil","distancia":1114},{"nome":"Teatro Princesa Isabel","distancia":929},{"nome":"Teatro Villa Lobos","distancia":715}]},{"linha":"426","descricao_ponto":"Rua Conde De Bonfim próximo ao 753","sequencia":"13","latitude":"-22.9336","longitude":"-43.2421","pontos_turisticos":[]},{"linha":"426","descricao_ponto":"Rua Doutor Agra próximo ao 90","sequencia":"39","latitude":"-22.9204","longitude":"-43.196","pontos_turisticos":[{"nome":"Arcos da Lapa","distancia":1849},{"nome":"Campo de Santana","distancia":1717},{"nome":"Catedral Metropolitana","distancia":1888},{"nome":"Igreja e Convento de Santa Teresa","distancia":1692},{"nome":"Museu da Chácara do Céu","distancia":1262},{"nome":"Parque das Ruínas","distancia":1422},{"nome":"Parque Eduardo Guinle","distancia":1847},{"nome":"Sala Cecília Meireles","distancia":1940},{"nome":"Sambódromo","distancia":997},{"nome":"Santa Teresa","distancia":1301}]},{"linha":"426","descricao_ponto":"BRS 2 - PAULO DE FRONTIN","sequencia":"36","latitude":"-22.9155","longitude":"-43.2094","pontos_turisticos":[{"nome":"Quinta da Boa Vista/Museu Nacional","distancia":1941},{"nome":"Sambódromo","distancia":1362},{"nome":"Teatro Ziembinski","distancia":1605}]},{"linha":"426","descricao_ponto":"Rua Conde De Bonfim próximo ao 412","sequencia":"44","latitude":"-22.9252","longitude":"-43.2343","pontos_turisticos":[{"nome":"Estádio do Maracanã","distancia":1331},{"nome":"Teatro Noel Rosa","distancia":1644},{"nome":"Teatro Odylo Costa Filho","distancia":1630},{"nome":"Teatro Ziembinski","distancia":1164}]},{"linha":"426","descricao_ponto":"Rua Conde De Bonfim próximo ao 1033","sequencia":"7","latitude":"-22.9396","longitude":"-43.2487","pontos_turisticos":[]},{"linha":"426","descricao_ponto":"Rua Doutor Lagden próximo ao S/n","sequencia":"22","latitude":"-22.9162","longitude":"-43.1945","pontos_turisticos":[{"nome":"Arcos da Lapa","distancia":1540},{"nome":"Campo de Santana","distancia":1234},{"nome":"Catedral Metropolitana","distancia":1529},{"nome":"Igreja de São Francisco da Penitência","distancia":1872},{"nome":"Igreja e Convento de Santa Teresa","distancia":1455},{"nome":"Museu da Chácara do Céu","distancia":1069},{"nome":"Parque das Ruínas","distancia":1242},{"nome":"Praça Paris","distancia":1915},{"nome":"Real Gabinete Português de Leitura","distancia":1738},{"nome":"Sala Cecília Meireles","distancia":1679},{"nome":"Sambódromo","distancia":578},{"nome":"Santa Teresa","distancia":1788},{"nome":"Teatro Carlos Gomes","distancia":1582},{"nome":"Teatro Dulcina","distancia":1888},{"nome":"Teatro João Caetano","distancia":1660},{"nome":"Teatro Rival Petrobras","distancia":1949}]},{"linha":"426","descricao_ponto":"Rua Eleone De Almeida próximo ao 89","sequencia":"41","latitude":"-22.9174","longitude":"-43.1941","pontos_turisticos":[{"nome":"Arcos da Lapa","distancia":1538},{"nome":"Campo de Santana","distancia":1332},{"nome":"Catedral Metropolitana","distancia":1549},{"nome":"Igreja de São Francisco da Penitência","distancia":1916},{"nome":"Igreja e Convento de Santa Teresa","distancia":1426},{"nome":"Igreja Nossa Senhora da Glória do Outeiro","distancia":1970},{"nome":"Museu da Chácara do Céu","distancia":1021},{"nome":"Parque das Ruínas","distancia":1192},{"nome":"Parque Eduardo Guinle","distancia":1959},{"nome":"Praça Paris","distancia":1871},{"nome":"Real Gabinete Português de Leitura","distancia":1804},{"nome":"Sala Cecília Meireles","distancia":1660},{"nome":"Sambódromo","distancia":717},{"nome":"Santa Teresa","distancia":1667},{"nome":"Teatro Carlos Gomes","distancia":1639},{"nome":"Teatro Dulcina","distancia":1898},{"nome":"Teatro João Caetano","distancia":1721},{"nome":"Teatro Rival Petrobras","distancia":1953}]},{"linha":"426","descricao_ponto":"Praca Del Prete próximo ao 82","sequencia":"43","latitude":"-22.9363","longitude":"-43.1839","pontos_turisticos":[{"nome":"Aterro do Flamengo","distancia":1481},{"nome":"Cristo Redentor (Corcovado)","distancia":1563},{"nome":"Fundação Casa de Rui Barbosa","distancia":1493},{"nome":"Igreja Nossa Senhora da Glória do Outeiro","distancia":1882},{"nome":"Mirante Dona Marta","distancia":1751},{"nome":"Museu Carmem Miranda","distancia":1306},{"nome":"Museu da República","distancia":1389},{"nome":"Museu de Folclore Edison Carneiro","distancia":1374},{"nome":"Museu do Índio","distancia":1905},{"nome":"Oi Futuro","distancia":1040},{"nome":"Parque Eduardo Guinle","distancia":564},{"nome":"Praia de Botafogo","distancia":1029},{"nome":"Praia do Flamengo","distancia":1500},{"nome":"Santa Teresa","distancia":1528},{"nome":"Teatro Bibi Ferreira","distancia":1096},{"nome":"Teatro Glória","distancia":1874}]}]