[{"linha":"442","descricao_ponto":"BRS 2 - REPÚBLICA DO PERU","sequencia":"37","latitude":"-22.9662","longitude":"-43.182","pontos_turisticos":[{"nome":"Praia de Copacabana","distancia":398},{"nome":"Sala Baden Powell","distancia":175},{"nome":"Teatro Gláucio Gil","distancia":152}]},{"linha":"442","descricao_ponto":"Avenida Das Nacoes Unidas próximo ao 501","sequencia":"34","latitude":"-22.9495","longitude":"-43.1806","pontos_turisticos":[{"nome":"Praia de Botafogo","distancia":488}]},{"linha":"442","descricao_ponto":"BRS 1, 2, 3 - FRANCISCO OTAVIANO","sequencia":"42","latitude":"-22.9865","longitude":"-43.1909","pontos_turisticos":[{"nome":"Forte de Copacabana","distancia":322},{"nome":"Parque Peter Pan","distancia":387},{"nome":"Praia do Arpoador","distancia":328},{"nome":"Teatro da Praia","distancia":405}]},{"linha":"442","descricao_ponto":"Avenida Brasil próximo ao 1455","sequencia":"11","latitude":"-22.8871","longitude":"-43.2246","pontos_turisticos":[]},{"linha":"442","descricao_ponto":"BRS 2 - SOUSA LIMA","sequencia":"41","latitude":"-22.9817","longitude":"-43.1924","pontos_turisticos":[{"nome":"Parque Peter Pan","distancia":169},{"nome":"Teatro Brigitte Blair","distancia":435},{"nome":"Teatro da Praia","distancia":236}]},{"linha":"442","descricao_ponto":"Avenida Venezuela próximo ao 189","sequencia":"22","latitude":"-22.8952","longitude":"-43.188","pontos_turisticos":[]},{"linha":"442","descricao_ponto":"Avenida Das Nacoes Unidas próximo ao 68","sequencia":"31","latitude":"-22.9428","longitude":"-43.1769","pontos_turisticos":[{"nome":"Museu Carmem Miranda","distancia":486},{"nome":"Praia de Botafogo","distancia":479}]},{"linha":"442","descricao_ponto":"BRS 1, 2, 3, I - DUVIVIER","sequencia":"36","latitude":"-22.9638","longitude":"-43.1784","pontos_turisticos":[{"nome":"Sala Baden Powell","distancia":434},{"nome":"Teatro Gláucio Gil","distancia":303},{"nome":"Teatro Princesa Isabel","distancia":428},{"nome":"Teatro Villa Lobos","distancia":423}]},{"linha":"442","descricao_ponto":"Avenida Bento Ribeiro Dantas próximo ao 201","sequencia":"1","latitude":"-22.8646","longitude":"-43.2394","pontos_turisticos":[]},{"linha":"442","descricao_ponto":"Avenida General Justo próximo ao 33 ","sequencia":"30","latitude":"-22.9096","longitude":"-43.1684","pontos_turisticos":[{"nome":"Academia Brasileira de Letras","distancia":489},{"nome":"Museu Histórico Nacional","distancia":462}]},{"linha":"442","descricao_ponto":"Avenida Brasil próximo ao","sequencia":"9","latitude":"-22.8857","longitude":"-43.2286","pontos_turisticos":[]},{"linha":"442","descricao_ponto":"Avenida Bento Ribeiro Dantas próximo ao 217","sequencia":"3","latitude":"-22.8679","longitude":"-43.2413","pontos_turisticos":[]},{"linha":"442","descricao_ponto":"Avenida Brasil próximo ao 1940","sequencia":"10","latitude":"-22.8853","longitude":"-43.2265","pontos_turisticos":[]},{"linha":"442","descricao_ponto":"Avenida Bento Ribeiro Dantas próximo ao 263","sequencia":"2","latitude":"-22.8644","longitude":"-43.2394","pontos_turisticos":[]},{"linha":"442","descricao_ponto":"Avenida Brasil próximo ao","sequencia":"5","latitude":"-22.8716","longitude":"-43.2461","pontos_turisticos":[]},{"linha":"442","descricao_ponto":"Avenida Brasil próximo ao 2231","sequencia":"8","latitude":"-22.8872","longitude":"-43.2308","pontos_turisticos":[]},{"linha":"442","descricao_ponto":"AV. BRASIL (PISTA CENTRAL), PRÓXIMO A RUA SANTOS LIMA","sequencia":"14","latitude":"-22.8948","longitude":"-43.2153","pontos_turisticos":[{"nome":"Centro Luiz Gonzaga de Tradições Nordestinas","distancia":470}]},{"linha":"442","descricao_ponto":"BRS 2 - FIGUEIREDO MAGALHÃES","sequencia":"38","latitude":"-22.9688","longitude":"-43.186","pontos_turisticos":[]},{"linha":"442","descricao_ponto":"Avenida Brasil próximo ao 4500","sequencia":"4","latitude":"-22.8704","longitude":"-43.2469","pontos_turisticos":[]},{"linha":"442","descricao_ponto":"Avenida Das Nacoes Unidas próximo ao 402","sequencia":"33","latitude":"-22.9457","longitude":"-43.1818","pontos_turisticos":[{"nome":"Praia de Botafogo","distancia":118},{"nome":"Teatro Bibi Ferreira","distancia":364}]},{"linha":"442","descricao_ponto":"Avenida Lauro Sodre próximo ao 150","sequencia":"35","latitude":"-22.9549","longitude":"-43.1783","pontos_turisticos":[]},{"linha":"442","descricao_ponto":"BRS 2 - RAIMUNDO CORREIA","sequencia":"39","latitude":"-22.9717","longitude":"-43.1897","pontos_turisticos":[]},{"linha":"442","descricao_ponto":"Rua Santo Cristo próximo ao Terminal Padre Henrique Otte","sequencia":"15","latitude":"-22.9003","longitude":"-43.2069","pontos_turisticos":[]},{"linha":"442","descricao_ponto":"Avenida Das Nacoes Unidas próximo ao 530","sequencia":"32","latitude":"-22.9433","longitude":"-43.1805","pontos_turisticos":[{"nome":"Praia de Botafogo","distancia":205}]},{"linha":"442","descricao_ponto":"Avenida Brasil próximo ao 3141","sequencia":"6","latitude":"-22.875","longitude":"-43.2435","pontos_turisticos":[]},{"linha":"442","descricao_ponto":"Avenida Venezuela próximo ao 153","sequencia":"23","latitude":"-22.8958","longitude":"-43.1863","pontos_turisticos":[{"nome":"Museu de Arte do Rio","distancia":469}]},{"linha":"442","descricao_ponto":"Avenida Brasil próximo ao 414","sequencia":"7","latitude":"-22.8859","longitude":"-43.2349","pontos_turisticos":[]},{"linha":"442","descricao_ponto":"Avenida Brasil próximo ao 1211","sequencia":"12","latitude":"-22.8893","longitude":"-43.2204","pontos_turisticos":[]},{"linha":"442","descricao_ponto":"Rua Santo Cristo próximo ao 193","sequencia":"16","latitude":"-22.9","longitude":"-43.2023","pontos_turisticos":[]}]