[{"linha":"481","descricao_ponto":"Rua Leopoldina Rego próximo ao 589","sequencia":"9","latitude":"-22.85","longitude":"-43.2638","pontos_turisticos":[{"nome":"Igreja Nossa Senhora da Penha","distancia":1524},{"nome":"Praia de Ramos","distancia":1861}]},{"linha":"481","descricao_ponto":"Rua Cardoso De Morais próximo ao 3349","sequencia":"12","latitude":"-22.8568","longitude":"-43.2581","pontos_turisticos":[]},{"linha":"481","descricao_ponto":"AV. BRASIL (PISTA CENTRAL), PRÓXIMO A RUA SANTOS LIMA","sequencia":"29","latitude":"-22.8948","longitude":"-43.2153","pontos_turisticos":[{"nome":"Centro Luiz Gonzaga de Tradições Nordestinas","distancia":470},{"nome":"Cidade do Samba","distancia":1874},{"nome":"Jardim Zoológico (Riozoo)","distancia":1748},{"nome":"Quinta da Boa Vista/Museu Nacional","distancia":1537},{"nome":"Teatro Mário Lago","distancia":749}]},{"linha":"481","descricao_ponto":"Rua Carmo Neto próximo ao 174","sequencia":"34","latitude":"-22.9095","longitude":"-43.2002","pontos_turisticos":[{"nome":"Campo de Santana","distancia":1256},{"nome":"Cidade do Samba","distancia":1717},{"nome":"Memorial dos Pretos Novos","distancia":1667},{"nome":"Museu da Chácara do Céu","distancia":1862},{"nome":"Real Gabinete Português de Leitura","distancia":1900},{"nome":"Sambódromo","distancia":408},{"nome":"Teatro Carlos Gomes","distancia":1829},{"nome":"Teatro João Caetano","distancia":1867}]},{"linha":"481","descricao_ponto":"Avenida Teixeira De Castro próximo ao 24","sequencia":"28","latitude":"-22.862","longitude":"-43.2539","pontos_turisticos":[]},{"linha":"481","descricao_ponto":"Rua Dona Isabel próximo ao 389","sequencia":"15","latitude":"-22.8625","longitude":"-43.2568","pontos_turisticos":[]},{"linha":"481","descricao_ponto":"Avenida Brasil próximo ao 1455","sequencia":"27","latitude":"-22.8871","longitude":"-43.2246","pontos_turisticos":[{"nome":"Centro Luiz Gonzaga de Tradições Nordestinas","distancia":1207},{"nome":"Jardim Zoológico (Riozoo)","distancia":1971},{"nome":"Teatro Mário Lago","distancia":1397}]},{"linha":"481","descricao_ponto":"Rua Heitor Carrilho próximo ao 65","sequencia":"36","latitude":"-22.9137","longitude":"-43.1995","pontos_turisticos":[{"nome":"Campo de Santana","distancia":1386},{"nome":"Catedral Metropolitana","distancia":1948},{"nome":"Igreja e Convento de Santa Teresa","distancia":1978},{"nome":"Museu da Chácara do Céu","distancia":1625},{"nome":"Parque das Ruínas","distancia":1797},{"nome":"Real Gabinete Português de Leitura","distancia":1997},{"nome":"Sambódromo","distancia":369},{"nome":"Teatro Carlos Gomes","distancia":1882},{"nome":"Teatro João Caetano","distancia":1941}]},{"linha":"481","descricao_ponto":"Rua Carlina próximo ao 3229","sequencia":"39","latitude":"-22.8419","longitude":"-43.2642","pontos_turisticos":[{"nome":"Igreja Nossa Senhora da Penha","distancia":1452},{"nome":"Praia de Ramos","distancia":1459}]},{"linha":"481","descricao_ponto":"Avenida Paris próximo ao 324","sequencia":"17","latitude":"-22.8668","longitude":"-43.2542","pontos_turisticos":[]},{"linha":"481","descricao_ponto":"Avenida Brasil próximo ao 2231","sequencia":"24","latitude":"-22.8872","longitude":"-43.2308","pontos_turisticos":[{"nome":"Centro Luiz Gonzaga de Tradições Nordestinas","distancia":1587},{"nome":"Jardim Zoológico (Riozoo)","distancia":1923},{"nome":"Teatro Mário Lago","distancia":1677}]},{"linha":"481","descricao_ponto":"Avenida Brasil próximo ao 49","sequencia":"14","latitude":"-22.8886","longitude":"-43.2201","pontos_turisticos":[{"nome":"Centro Luiz Gonzaga de Tradições Nordestinas","distancia":916},{"nome":"Jardim Zoológico (Riozoo)","distancia":1970},{"nome":"Quinta da Boa Vista/Museu Nacional","distancia":1936},{"nome":"Teatro Mário Lago","distancia":1179}]},{"linha":"481","descricao_ponto":"Rua Barreiros próximo ao 990","sequencia":"35","latitude":"-22.8488","longitude":"-43.2582","pontos_turisticos":[{"nome":"Praia de Ramos","distancia":1378}]},{"linha":"481","descricao_ponto":"Avenida Paris próximo ao 635","sequencia":"19","latitude":"-22.8652","longitude":"-43.249","pontos_turisticos":[]},{"linha":"481","descricao_ponto":"Rua Quito próximo ao 12","sequencia":"43","latitude":"-22.8406","longitude":"-43.2711","pontos_turisticos":[{"nome":"Igreja Nossa Senhora da Penha","distancia":876}]},{"linha":"481","descricao_ponto":"Rua Noemia Nunes próximo ao 626","sequencia":"37","latitude":"-22.8445","longitude":"-43.2619","pontos_turisticos":[{"nome":"Igreja Nossa Senhora da Penha","distancia":1636},{"nome":"Praia de Ramos","distancia":1344}]},{"linha":"481","descricao_ponto":"Rua Benedito Hipolito próximo ao 514 ","sequencia":"8","latitude":"-22.9079","longitude":"-43.1958","pontos_turisticos":[{"nome":"Arcos da Lapa","distancia":1719},{"nome":"Campo de Santana","distancia":777},{"nome":"Catedral Metropolitana","distancia":1579},{"nome":"Cidade do Samba","distancia":1513},{"nome":"Confeitaria Colombo","distancia":1766},{"nome":"Igreja de São Francisco da Penitência","distancia":1698},{"nome":"Igreja e Convento de Santa Teresa","distancia":1806},{"nome":"Memorial dos Pretos Novos","distancia":1347},{"nome":"Museu de Arte do Rio","distancia":1943},{"nome":"Museu da Chácara do Céu","distancia":1591},{"nome":"Museu do Clube Naval","distancia":1965},{"nome":"Parque das Ruínas","distancia":1738},{"nome":"Real Gabinete Português de Leitura","distancia":1422},{"nome":"Sala Cecília Meireles","distancia":1937},{"nome":"Sambódromo","distancia":411},{"nome":"Teatro Carlos Gomes","distancia":1362},{"nome":"Teatro Dulcina","distancia":1945},{"nome":"Teatro Glauce Rocha","distancia":1955},{"nome":"Teatro João Caetano","distancia":1394},{"nome":"Teatro Municipal","distancia":1995}]},{"linha":"481","descricao_ponto":"Rua Quito próximo ao 276","sequencia":"44","latitude":"-22.8389","longitude":"-43.274","pontos_turisticos":[{"nome":"Igreja Nossa Senhora da Penha","distancia":828}]},{"linha":"481","descricao_ponto":"Rua Quito próximo ao 226","sequencia":"45","latitude":"-22.8377","longitude":"-43.2764","pontos_turisticos":[{"nome":"Igreja Nossa Senhora da Penha","distancia":875}]},{"linha":"481","descricao_ponto":"Rua Francisca Hayden próximo ao 66","sequencia":"14","latitude":"-22.8611","longitude":"-43.256","pontos_turisticos":[]},{"linha":"481","descricao_ponto":"Avenida Paris próximo ao 325","sequencia":"18","latitude":"-22.8661","longitude":"-43.252","pontos_turisticos":[]},{"linha":"481","descricao_ponto":"Rua Dona Isabel próximo ao 483","sequencia":"16","latitude":"-22.8656","longitude":"-43.2558","pontos_turisticos":[]},{"linha":"481","descricao_ponto":"Avenida Brasil próximo ao 1940","sequencia":"26","latitude":"-22.8853","longitude":"-43.2265","pontos_turisticos":[{"nome":"Centro Luiz Gonzaga de Tradições Nordestinas","distancia":1475},{"nome":"Teatro Mário Lago","distancia":1648}]},{"linha":"481","descricao_ponto":"Rua Quito proximo ao 393","sequencia":"46","latitude":"-22.8363","longitude":"-43.2791","pontos_turisticos":[{"nome":"Igreja Nossa Senhora da Penha","distancia":1027}]},{"linha":"481","descricao_ponto":"Rua Doutor Lagden próximo ao S/n","sequencia":"5","latitude":"-22.9162","longitude":"-43.1945","pontos_turisticos":[{"nome":"Arcos da Lapa","distancia":1540},{"nome":"Campo de Santana","distancia":1234},{"nome":"Catedral Metropolitana","distancia":1529},{"nome":"Igreja de São Francisco da Penitência","distancia":1872},{"nome":"Igreja e Convento de Santa Teresa","distancia":1455},{"nome":"Museu da Chácara do Céu","distancia":1069},{"nome":"Parque das Ruínas","distancia":1242},{"nome":"Praça Paris","distancia":1915},{"nome":"Real Gabinete Português de Leitura","distancia":1738},{"nome":"Sala Cecília Meireles","distancia":1679},{"nome":"Sambódromo","distancia":578},{"nome":"Santa Teresa","distancia":1788},{"nome":"Teatro Carlos Gomes","distancia":1582},{"nome":"Teatro Dulcina","distancia":1888},{"nome":"Teatro João Caetano","distancia":1660},{"nome":"Teatro Rival Petrobras","distancia":1949}]},{"linha":"481","descricao_ponto":"Avenida Francisco Bicalho próximo ao 234","sequencia":"31","latitude":"-22.9034","longitude":"-43.2104","pontos_turisticos":[{"nome":"Centro Luiz Gonzaga de Tradições Nordestinas","distancia":1173},{"nome":"Cidade do Samba","distancia":1702},{"nome":"Jardim Zoológico (Riozoo)","distancia":1890},{"nome":"Memorial dos Pretos Novos","distancia":1964},{"nome":"Quinta da Boa Vista/Museu Nacional","distancia":1501},{"nome":"Sambódromo","distancia":1654},{"nome":"Teatro Mário Lago","distancia":1170}]},{"linha":"481","descricao_ponto":"Rua Pinheiro Machado próximo ao 75","sequencia":"39","latitude":"-22.9406","longitude":"-43.1828","pontos_turisticos":[{"nome":"Aterro do Flamengo","distancia":1712},{"nome":"Cristo Redentor (Corcovado)","distancia":1606},{"nome":"Fundação Casa de Rui Barbosa","distancia":1069},{"nome":"Mirante Dona Marta","distancia":1611},{"nome":"Museu Carmem Miranda","distancia":1068},{"nome":"Museu da República","distancia":1763},{"nome":"Museu de Folclore Edison Carneiro","distancia":1745},{"nome":"Museu do Índio","distancia":1539},{"nome":"Oi Futuro","distancia":1349},{"nome":"Parque Eduardo Guinle","distancia":1023},{"nome":"Praia de Botafogo","distancia":541},{"nome":"Praia do Flamengo","distancia":1712},{"nome":"Santa Teresa","distancia":1835},{"nome":"Teatro Bibi Ferreira","distancia":661},{"nome":"Teatro do Instituto Benjamin Constant","distancia":1774}]},{"linha":"481","descricao_ponto":"Avenida Brasil próximo ao 3141","sequencia":"22","latitude":"-22.875","longitude":"-43.2435","pontos_turisticos":[]},{"linha":"481","descricao_ponto":"Avenida Brasil próximo ao 4036","sequencia":"20","latitude":"-22.8813","longitude":"-43.2384","pontos_turisticos":[]},{"linha":"481","descricao_ponto":"Avenida Nova York próximo ao 54","sequencia":"25","latitude":"-22.8654","longitude":"-43.2537","pontos_turisticos":[]},{"linha":"481","descricao_ponto":"Rua Farani próximo ao 8","sequencia":"2","latitude":"-22.9412","longitude":"-43.182","pontos_turisticos":[{"nome":"Aterro do Flamengo","distancia":1712},{"nome":"Cristo Redentor (Corcovado)","distancia":1690},{"nome":"Fundação Casa de Rui Barbosa","distancia":1045},{"nome":"Mirante Dona Marta","distancia":1665},{"nome":"Museu Carmem Miranda","distancia":982},{"nome":"Museu da República","distancia":1797},{"nome":"Museu de Folclore Edison Carneiro","distancia":1779},{"nome":"Museu do Índio","distancia":1534},{"nome":"Oi Futuro","distancia":1372},{"nome":"Parque Eduardo Guinle","distancia":1091},{"nome":"Praia de Botafogo","distancia":451},{"nome":"Praia do Flamengo","distancia":1707},{"nome":"Santa Teresa","distancia":1940},{"nome":"Teatro Bibi Ferreira","distancia":640},{"nome":"Teatro do Instituto Benjamin Constant","distancia":1671}]},{"linha":"481","descricao_ponto":"Avenida Brasil próximo ao 2482","sequencia":"17","latitude":"-22.8854","longitude":"-43.2289","pontos_turisticos":[{"nome":"Centro Luiz Gonzaga de Tradições Nordestinas","distancia":1603},{"nome":"Teatro Mário Lago","distancia":1739}]},{"linha":"481","descricao_ponto":"Rua Barreiros próximo ao 451","sequencia":"33","latitude":"-22.8523","longitude":"-43.2546","pontos_turisticos":[{"nome":"Praia de Ramos","distancia":1571}]},{"linha":"481","descricao_ponto":"Avenida Brasil próximo ao","sequencia":"21","latitude":"-22.8716","longitude":"-43.2461","pontos_turisticos":[]},{"linha":"481","descricao_ponto":"Avenida Brasil próximo ao 2000","sequencia":"15","latitude":"-22.887","longitude":"-43.224","pontos_turisticos":[{"nome":"Centro Luiz Gonzaga de Tradições Nordestinas","distancia":1191},{"nome":"Jardim Zoológico (Riozoo)","distancia":1996},{"nome":"Teatro Mário Lago","distancia":1392}]},{"linha":"481","descricao_ponto":"Rua Do Catumbi próximo ao 15","sequencia":"7","latitude":"-22.9149","longitude":"-43.1959","pontos_turisticos":[{"nome":"Arcos da Lapa","distancia":1653},{"nome":"Campo de Santana","distancia":1199},{"nome":"Catedral Metropolitana","distancia":1617},{"nome":"Igreja de São Francisco da Penitência","distancia":1922},{"nome":"Igreja e Convento de Santa Teresa","distancia":1599},{"nome":"Museu da Chácara do Céu","distancia":1235},{"nome":"Parque das Ruínas","distancia":1408},{"nome":"Real Gabinete Português de Leitura","distancia":1754},{"nome":"Sala Cecília Meireles","distancia":1810},{"nome":"Sambódromo","distancia":393},{"nome":"Santa Teresa","distancia":1908},{"nome":"Teatro Carlos Gomes","distancia":1615},{"nome":"Teatro Dulcina","distancia":1986},{"nome":"Teatro João Caetano","distancia":1685}]},{"linha":"481","descricao_ponto":"Rua Leopoldina Rego próximo ao 380","sequencia":"7","latitude":"-22.8446","longitude":"-43.2681","pontos_turisticos":[{"nome":"Igreja Nossa Senhora da Penha","distancia":1002},{"nome":"Praia de Ramos","distancia":1930}]},{"linha":"481","descricao_ponto":"Avenida Francisco Bicalho próximo ao 344","sequencia":"32","latitude":"-22.9081","longitude":"-43.2099","pontos_turisticos":[{"nome":"Centro Luiz Gonzaga de Tradições Nordestinas","distancia":1585},{"nome":"Jardim Zoológico (Riozoo)","distancia":1981},{"nome":"Quinta da Boa Vista/Museu Nacional","distancia":1563},{"nome":"Sambódromo","distancia":1389},{"nome":"Teatro Mário Lago","distancia":1498}]},{"linha":"481","descricao_ponto":"Rua Doutor Lagden próximo ao S/n","sequencia":"37","latitude":"-22.9162","longitude":"-43.1945","pontos_turisticos":[{"nome":"Arcos da Lapa","distancia":1540},{"nome":"Campo de Santana","distancia":1234},{"nome":"Catedral Metropolitana","distancia":1529},{"nome":"Igreja de São Francisco da Penitência","distancia":1872},{"nome":"Igreja e Convento de Santa Teresa","distancia":1455},{"nome":"Museu da Chácara do Céu","distancia":1069},{"nome":"Parque das Ruínas","distancia":1242},{"nome":"Praça Paris","distancia":1915},{"nome":"Real Gabinete Português de Leitura","distancia":1738},{"nome":"Sala Cecília Meireles","distancia":1679},{"nome":"Sambódromo","distancia":578},{"nome":"Santa Teresa","distancia":1788},{"nome":"Teatro Carlos Gomes","distancia":1582},{"nome":"Teatro Dulcina","distancia":1888},{"nome":"Teatro João Caetano","distancia":1660},{"nome":"Teatro Rival Petrobras","distancia":1949}]},{"linha":"481","descricao_ponto":"Viaduto Engenheiro Noronha próximo ao 172","sequencia":"3","latitude":"-22.9334","longitude":"-43.1845","pontos_turisticos":[{"nome":"Aterro do Flamengo","distancia":1389},{"nome":"Cristo Redentor (Corcovado)","distancia":1632},{"nome":"Fundação Casa de Rui Barbosa","distancia":1801},{"nome":"Igreja Nossa Senhora da Glória do Outeiro","distancia":1638},{"nome":"Mirante Dona Marta","distancia":1921},{"nome":"Museu Carmem Miranda","distancia":1524},{"nome":"Museu da Chácara do Céu","distancia":1786},{"nome":"Museu da República","distancia":1175},{"nome":"Museu de Folclore Edison Carneiro","distancia":1164},{"nome":"Oi Futuro","distancia":913},{"nome":"Parque das Ruínas","distancia":1774},{"nome":"Parque Eduardo Guinle","distancia":303},{"nome":"Praia de Botafogo","distancia":1355},{"nome":"Praia do Flamengo","distancia":1422},{"nome":"Santa Teresa","distancia":1398},{"nome":"Teatro Bibi Ferreira","distancia":1411},{"nome":"Teatro Glória","distancia":1675}]},{"linha":"481","descricao_ponto":"Rua Guaianazes próximo ao 113","sequencia":"1","latitude":"-22.8365","longitude":"-43.2819","pontos_turisticos":[{"nome":"Igreja Nossa Senhora da Penha","distancia":1080}]},{"linha":"481","descricao_ponto":"Avenida Brasil próximo ao","sequencia":"25","latitude":"-22.8857","longitude":"-43.2286","pontos_turisticos":[{"nome":"Centro Luiz Gonzaga de Tradições Nordestinas","distancia":1557},{"nome":"Teatro Mário Lago","distancia":1696}]},{"linha":"481","descricao_ponto":"BRS 3, I - VISCONDE DE OURO PRETO","sequencia":"42","latitude":"-22.9464","longitude":"-43.1826","pontos_turisticos":[{"nome":"Cristo Redentor (Corcovado)","distancia":1756},{"nome":"Fundação Casa de Rui Barbosa","distancia":556},{"nome":"Mirante Dona Marta","distancia":1520},{"nome":"Museu Carmem Miranda","distancia":1183},{"nome":"Museu do Índio","distancia":1089},{"nome":"Oi Futuro","distancia":1931},{"nome":"Pão de Açúcar","distancia":1907},{"nome":"Parque Eduardo Guinle","distancia":1668},{"nome":"Praia de Botafogo","distancia":230},{"nome":"Teatro Bibi Ferreira","distancia":282},{"nome":"Teatro do Instituto Benjamin Constant","distancia":1316},{"nome":"Teatro Villa Lobos","distancia":1819}]},{"linha":"481","descricao_ponto":"Avenida Brasil próximo ao 1580","sequencia":"22","latitude":"-22.8751","longitude":"-43.2428","pontos_turisticos":[]},{"linha":"481","descricao_ponto":"Rua Nicaragua próximo ao 177","sequencia":"3","latitude":"-22.8402","longitude":"-43.2777","pontos_turisticos":[{"nome":"Igreja Nossa Senhora da Penha","distancia":585}]},{"linha":"481","descricao_ponto":"Avenida Teixeira De Castro próximo ao 308","sequencia":"31","latitude":"-22.8564","longitude":"-43.2523","pontos_turisticos":[{"nome":"Praia de Ramos","distancia":1976}]},{"linha":"481","descricao_ponto":"Rua Leopoldina Rego próximo ao 737","sequencia":"5","latitude":"-22.8423","longitude":"-43.2712","pontos_turisticos":[{"nome":"Igreja Nossa Senhora da Penha","distancia":765}]},{"linha":"481","descricao_ponto":"Avenida Teixeira De Castro próximo ao 245","sequencia":"30","latitude":"-22.8577","longitude":"-43.2525","pontos_turisticos":[]},{"linha":"481","descricao_ponto":"Rua Carlina próximo ao 30","sequencia":"38","latitude":"-22.843","longitude":"-43.2632","pontos_turisticos":[{"nome":"Igreja Nossa Senhora da Penha","distancia":1524},{"nome":"Praia de Ramos","distancia":1397}]},{"linha":"481","descricao_ponto":"Rua Leopoldina Rego próximo ao 430","sequencia":"42","latitude":"-22.8421","longitude":"-43.2693","pontos_turisticos":[{"nome":"Igreja Nossa Senhora da Penha","distancia":951},{"nome":"Praia de Ramos","distancia":1974}]},{"linha":"481","descricao_ponto":"Rua Muniz Barreto próximo ao 100","sequencia":"40","latitude":"-22.9435","longitude":"-43.1836","pontos_turisticos":[{"nome":"Cristo Redentor (Corcovado)","distancia":1562},{"nome":"Fundação Casa de Rui Barbosa","distancia":742},{"nome":"Mirante Dona Marta","distancia":1442},{"nome":"Museu Carmem Miranda","distancia":1170},{"nome":"Museu do Índio","distancia":1232},{"nome":"Oi Futuro","distancia":1673},{"nome":"Parque Eduardo Guinle","distancia":1350},{"nome":"Praia de Botafogo","distancia":335},{"nome":"Santa Teresa","distancia":1960},{"nome":"Teatro Bibi Ferreira","distancia":336},{"nome":"Teatro do Instituto Benjamin Constant","distancia":1596}]},{"linha":"481","descricao_ponto":"Avenida Francisco Bicalho, próximo a Unidos da Tijuca","sequencia":"12","latitude":"-22.9038","longitude":"-43.2096","pontos_turisticos":[{"nome":"Centro Luiz Gonzaga de Tradições Nordestinas","distancia":1265},{"nome":"Cidade do Samba","distancia":1664},{"nome":"Jardim Zoológico (Riozoo)","distancia":1970},{"nome":"Memorial dos Pretos Novos","distancia":1909},{"nome":"Quinta da Boa Vista/Museu Nacional","distancia":1576},{"nome":"Sambódromo","distancia":1561},{"nome":"Teatro Mário Lago","distancia":1263}]},{"linha":"481","descricao_ponto":"Estrada Do Engenho Da Pedra próximo ao 258","sequencia":"8","latitude":"-22.8475","longitude":"-43.2658","pontos_turisticos":[{"nome":"Igreja Nossa Senhora da Penha","distancia":1254},{"nome":"Praia de Ramos","distancia":1857}]},{"linha":"481","descricao_ponto":"Rua Carmo Neto próximo ao 224","sequencia":"35","latitude":"-22.9114","longitude":"-43.1995","pontos_turisticos":[{"nome":"Campo de Santana","distancia":1259},{"nome":"Catedral Metropolitana","distancia":1924},{"nome":"Cidade do Samba","distancia":1914},{"nome":"Memorial dos Pretos Novos","distancia":1831},{"nome":"Museu da Chácara do Céu","distancia":1707},{"nome":"Parque das Ruínas","distancia":1875},{"nome":"Real Gabinete Português de Leitura","distancia":1894},{"nome":"Sambódromo","distancia":273},{"nome":"Teatro Carlos Gomes","distancia":1800},{"nome":"Teatro João Caetano","distancia":1849}]},{"linha":"481","descricao_ponto":"BRS 1, 2, 3 - CIDADE NOVA","sequencia":"10","latitude":"-22.9098","longitude":"-43.2064","pontos_turisticos":[{"nome":"Campo de Santana","distancia":1883},{"nome":"Centro Luiz Gonzaga de Tradições Nordestinas","distancia":1961},{"nome":"Cidade do Samba","distancia":1970},{"nome":"Quinta da Boa Vista/Museu Nacional","distancia":1954},{"nome":"Sambódromo","distancia":997},{"nome":"Teatro Mário Lago","distancia":1894}]},{"linha":"481","descricao_ponto":"Avenida Brasil próximo ao","sequencia":"19","latitude":"-22.8839","longitude":"-43.2361","pontos_turisticos":[]},{"linha":"481","descricao_ponto":"Rua Dona Isabel próximo ao 72","sequencia":"24","latitude":"-22.8693","longitude":"-43.2544","pontos_turisticos":[]},{"linha":"481","descricao_ponto":"Rua Muniz Barreto próximo ao 396","sequencia":"41","latitude":"-22.9453","longitude":"-43.1841","pontos_turisticos":[{"nome":"Cristo Redentor (Corcovado)","distancia":1569},{"nome":"Fundação Casa de Rui Barbosa","distancia":543},{"nome":"Mirante Dona Marta","distancia":1367},{"nome":"Museu Carmem Miranda","distancia":1274},{"nome":"Museu do Índio","distancia":1050},{"nome":"Oi Futuro","distancia":1876},{"nome":"Parque Eduardo Guinle","distancia":1554},{"nome":"Praia de Botafogo","distancia":334},{"nome":"Teatro Bibi Ferreira","distancia":152},{"nome":"Teatro do Instituto Benjamin Constant","distancia":1512},{"nome":"Teatro Villa Lobos","distancia":1996}]},{"linha":"481","descricao_ponto":"BRS 1,2 - VISCONDE DE OURO PRETO","sequencia":"43","latitude":"-22.9472","longitude":"-43.1825","pontos_turisticos":[{"nome":"Cristo Redentor (Corcovado)","distancia":1801},{"nome":"Fundação Casa de Rui Barbosa","distancia":516},{"nome":"Mirante Dona Marta","distancia":1536},{"nome":"Museu Carmem Miranda","distancia":1218},{"nome":"Museu do Índio","distancia":1049},{"nome":"Pão de Açúcar","distancia":1852},{"nome":"Parque Eduardo Guinle","distancia":1757},{"nome":"Praia da Urca","distancia":1992},{"nome":"Praia de Botafogo","distancia":287},{"nome":"Teatro Bibi Ferreira","distancia":316},{"nome":"Teatro do Instituto Benjamin Constant","distancia":1259},{"nome":"Teatro Princesa Isabel","distancia":1948},{"nome":"Teatro Villa Lobos","distancia":1734}]},{"linha":"481","descricao_ponto":"Rua Eleone De Almeida próximo ao 89","sequencia":"4","latitude":"-22.9174","longitude":"-43.1941","pontos_turisticos":[{"nome":"Arcos da Lapa","distancia":1538},{"nome":"Campo de Santana","distancia":1332},{"nome":"Catedral Metropolitana","distancia":1549},{"nome":"Igreja de São Francisco da Penitência","distancia":1916},{"nome":"Igreja e Convento de Santa Teresa","distancia":1426},{"nome":"Igreja Nossa Senhora da Glória do Outeiro","distancia":1970},{"nome":"Museu da Chácara do Céu","distancia":1021},{"nome":"Parque das Ruínas","distancia":1192},{"nome":"Parque Eduardo Guinle","distancia":1959},{"nome":"Praça Paris","distancia":1871},{"nome":"Real Gabinete Português de Leitura","distancia":1804},{"nome":"Sala Cecília Meireles","distancia":1660},{"nome":"Sambódromo","distancia":717},{"nome":"Santa Teresa","distancia":1667},{"nome":"Teatro Carlos Gomes","distancia":1639},{"nome":"Teatro Dulcina","distancia":1898},{"nome":"Teatro João Caetano","distancia":1721},{"nome":"Teatro Rival Petrobras","distancia":1953}]},{"linha":"481","descricao_ponto":"Avenida Francisco Bicalho próximo ao 10 (Pista Central)","sequencia":"11","latitude":"-22.9072","longitude":"-43.2094","pontos_turisticos":[{"nome":"Centro Luiz Gonzaga de Tradições Nordestinas","distancia":1540},{"nome":"Cidade do Samba","distancia":1912},{"nome":"Quinta da Boa Vista/Museu Nacional","distancia":1598},{"nome":"Sambódromo","distancia":1371},{"nome":"Teatro Mário Lago","distancia":1474}]},{"linha":"481","descricao_ponto":"Avenida Professor Plinio Bastos próximo ao 460","sequencia":"41","latitude":"-22.8407","longitude":"-43.2673","pontos_turisticos":[{"nome":"Igreja Nossa Senhora da Penha","distancia":1202},{"nome":"Praia de Ramos","distancia":1747}]},{"linha":"481","descricao_ponto":"Rua Leopoldina Rego próximo ao 542","sequencia":"6","latitude":"-22.8423","longitude":"-43.2693","pontos_turisticos":[{"nome":"Igreja Nossa Senhora da Penha","distancia":943},{"nome":"Praia de Ramos","distancia":1979}]},{"linha":"481","descricao_ponto":"Avenida Francisco Bicalho próximo ao 337","sequencia":"30","latitude":"-22.9003","longitude":"-43.2106","pontos_turisticos":[{"nome":"Centro Luiz Gonzaga de Tradições Nordestinas","distancia":976},{"nome":"Cidade do Samba","distancia":1541},{"nome":"Jardim Zoológico (Riozoo)","distancia":1921},{"nome":"Memorial dos Pretos Novos","distancia":1867},{"nome":"Quinta da Boa Vista/Museu Nacional","distancia":1571},{"nome":"Sambódromo","distancia":1879},{"nome":"Teatro Mário Lago","distancia":1058}]},{"linha":"481","descricao_ponto":"Rua Apiai próximo ao 61","sequencia":"47","latitude":"-22.8347","longitude":"-43.2811","pontos_turisticos":[{"nome":"Igreja Nossa Senhora da Penha","distancia":1242}]},{"linha":"481","descricao_ponto":"Rua Leopoldina Rego próximo ao 896","sequencia":"4","latitude":"-22.8411","longitude":"-43.2743","pontos_turisticos":[{"nome":"Igreja Nossa Senhora da Penha","distancia":605}]},{"linha":"481","descricao_ponto":"Rua Cardoso De Morais próximo ao 193","sequencia":"13","latitude":"-22.8593","longitude":"-43.2563","pontos_turisticos":[]},{"linha":"481","descricao_ponto":"Avenida Brasil próximo ao 4500","sequencia":"20","latitude":"-22.8704","longitude":"-43.2469","pontos_turisticos":[]},{"linha":"481","descricao_ponto":"10722","sequencia":"23","latitude":"-22.8718","longitude":"-43.2492","pontos_turisticos":[]},{"linha":"481","descricao_ponto":"BRS 1,2,3,I - VISCONDE DE OURO PRETO","sequencia":"1","latitude":"-22.9472","longitude":"-43.1822","pontos_turisticos":[{"nome":"Cristo Redentor (Corcovado)","distancia":1829},{"nome":"Fundação Casa de Rui Barbosa","distancia":543},{"nome":"Mirante Dona Marta","distancia":1567},{"nome":"Museu Carmem Miranda","distancia":1193},{"nome":"Museu do Índio","distancia":1075},{"nome":"Pão de Açúcar","distancia":1825},{"nome":"Parque Eduardo Guinle","distancia":1757},{"nome":"Praia da Urca","distancia":1961},{"nome":"Praia de Botafogo","distancia":270},{"nome":"Praia Vermelha","distancia":1997},{"nome":"Teatro Bibi Ferreira","distancia":344},{"nome":"Teatro do Instituto Benjamin Constant","distancia":1233},{"nome":"Teatro Princesa Isabel","distancia":1935},{"nome":"Teatro Villa Lobos","distancia":1721}]},{"linha":"481","descricao_ponto":"Avenida Brasil próximo ao 3666","sequencia":"18","latitude":"-22.886","longitude":"-43.2341","pontos_turisticos":[{"nome":"Centro Luiz Gonzaga de Tradições Nordestinas","distancia":1931},{"nome":"Teatro Mário Lago","distancia":1997}]},{"linha":"481","descricao_ponto":"Rua Barreiros próximo ao 1366","sequencia":"36","latitude":"-22.8462","longitude":"-43.2606","pontos_turisticos":[{"nome":"Igreja Nossa Senhora da Penha","distancia":1768},{"nome":"Praia de Ramos","distancia":1337}]},{"linha":"481","descricao_ponto":"Avenida Brasil próximo ao 414","sequencia":"23","latitude":"-22.8859","longitude":"-43.2349","pontos_turisticos":[]},{"linha":"481","descricao_ponto":"Rua Barreiros próximo ao 657","sequencia":"34","latitude":"-22.8511","longitude":"-43.2559","pontos_turisticos":[{"nome":"Praia de Ramos","distancia":1488}]},{"linha":"481","descricao_ponto":"Rua Nabor Do Rego próximo ao 11","sequencia":"10","latitude":"-22.8546","longitude":"-43.26","pontos_turisticos":[]},{"linha":"481","descricao_ponto":"Avenida Rio De Janeiro próximo ao","sequencia":"13","latitude":"-22.8909","longitude":"-43.2152","pontos_turisticos":[{"nome":"Centro Luiz Gonzaga de Tradições Nordestinas","distancia":782},{"nome":"Cidade do Samba","distancia":1902},{"nome":"Quinta da Boa Vista/Museu Nacional","distancia":1897},{"nome":"Teatro Mário Lago","distancia":1088}]},{"linha":"481","descricao_ponto":"Rua Cardoso De Morais próximo ao 535","sequencia":"11","latitude":"-22.8556","longitude":"-43.259","pontos_turisticos":[]},{"linha":"481","descricao_ponto":"Avenida Brasil próximo ao 1211","sequencia":"28","latitude":"-22.8893","longitude":"-43.2204","pontos_turisticos":[{"nome":"Centro Luiz Gonzaga de Tradições Nordestinas","distancia":842},{"nome":"Jardim Zoológico (Riozoo)","distancia":1887},{"nome":"Quinta da Boa Vista/Museu Nacional","distancia":1853},{"nome":"Teatro Mário Lago","distancia":1099}]},{"linha":"481","descricao_ponto":"BRS 1, 2, 3, 4, 5, I - CIDADE NOVA","sequencia":"33","latitude":"-22.9101","longitude":"-43.206","pontos_turisticos":[{"nome":"Campo de Santana","distancia":1849},{"nome":"Cidade do Samba","distancia":1980},{"nome":"Sambódromo","distancia":951},{"nome":"Teatro Mário Lago","distancia":1947}]},{"linha":"481","descricao_ponto":"Rua Bonsucesso próximo ao 233","sequencia":"27","latitude":"-22.8628","longitude":"-43.2535","pontos_turisticos":[]},{"linha":"481","descricao_ponto":"Rua Nicaragua proximo ao 505","sequencia":"2","latitude":"-22.8389","longitude":"-43.28","pontos_turisticos":[{"nome":"Igreja Nossa Senhora da Penha","distancia":762}]},{"linha":"481","descricao_ponto":"Praca Del Prete próximo ao 82","sequencia":"38","latitude":"-22.9363","longitude":"-43.1839","pontos_turisticos":[{"nome":"Aterro do Flamengo","distancia":1481},{"nome":"Cristo Redentor (Corcovado)","distancia":1563},{"nome":"Fundação Casa de Rui Barbosa","distancia":1493},{"nome":"Igreja Nossa Senhora da Glória do Outeiro","distancia":1882},{"nome":"Mirante Dona Marta","distancia":1751},{"nome":"Museu Carmem Miranda","distancia":1306},{"nome":"Museu da República","distancia":1389},{"nome":"Museu de Folclore Edison Carneiro","distancia":1374},{"nome":"Museu do Índio","distancia":1905},{"nome":"Oi Futuro","distancia":1040},{"nome":"Parque Eduardo Guinle","distancia":564},{"nome":"Praia de Botafogo","distancia":1029},{"nome":"Praia do Flamengo","distancia":1500},{"nome":"Santa Teresa","distancia":1528},{"nome":"Teatro Bibi Ferreira","distancia":1096},{"nome":"Teatro Glória","distancia":1874}]},{"linha":"481","descricao_ponto":"Avenida Brasil próximo ao 2482","sequencia":"16","latitude":"-22.8847","longitude":"-43.2265","pontos_turisticos":[{"nome":"Centro Luiz Gonzaga de Tradições Nordestinas","distancia":1533},{"nome":"Teatro Mário Lago","distancia":1710}]},{"linha":"481","descricao_ponto":"Rua Julio Ribeiro próximo ao 127","sequencia":"26","latitude":"-22.8632","longitude":"-43.2529","pontos_turisticos":[]},{"linha":"481","descricao_ponto":"BRS 1, 2, 3 - PRAÇA ONZE","sequencia":"9","latitude":"-22.9079","longitude":"-43.2008","pontos_turisticos":[{"nome":"Campo de Santana","distancia":1284},{"nome":"Cidade do Samba","distancia":1557},{"nome":"Memorial dos Pretos Novos","distancia":1541},{"nome":"Real Gabinete Português de Leitura","distancia":1927},{"nome":"Sambódromo","distancia":568},{"nome":"Teatro Carlos Gomes","distancia":1874},{"nome":"Teatro João Caetano","distancia":1903}]},{"linha":"481","descricao_ponto":"Avenida Brasil próximo ao 4036","sequencia":"21","latitude":"-22.8777","longitude":"-43.2409","pontos_turisticos":[]},{"linha":"481","descricao_ponto":"Rua Barreiros próximo ao 250","sequencia":"32","latitude":"-22.8531","longitude":"-43.2531","pontos_turisticos":[{"nome":"Praia de Ramos","distancia":1623}]},{"linha":"481","descricao_ponto":"Rua Do Catumbi próximo ao 93","sequencia":"6","latitude":"-22.9166","longitude":"-43.1953","pontos_turisticos":[{"nome":"Arcos da Lapa","distancia":1630},{"nome":"Campo de Santana","distancia":1315},{"nome":"Catedral Metropolitana","distancia":1622},{"nome":"Igreja de São Francisco da Penitência","distancia":1965},{"nome":"Igreja e Convento de Santa Teresa","distancia":1539},{"nome":"Museu da Chácara do Céu","distancia":1146},{"nome":"Parque das Ruínas","distancia":1319},{"nome":"Praça Paris","distancia":1995},{"nome":"Real Gabinete Português de Leitura","distancia":1828},{"nome":"Sala Cecília Meireles","distancia":1766},{"nome":"Sambódromo","distancia":592},{"nome":"Santa Teresa","distancia":1729},{"nome":"Teatro Carlos Gomes","distancia":1674},{"nome":"Teatro Dulcina","distancia":1980},{"nome":"Teatro João Caetano","distancia":1751}]},{"linha":"481","descricao_ponto":"Avenida Teixeira De Castro próximo ao 122","sequencia":"29","latitude":"-22.8602","longitude":"-43.2538","pontos_turisticos":[]},{"linha":"481","descricao_ponto":"Rua Carlina próximo ao 245","sequencia":"40","latitude":"-22.8397","longitude":"-43.266","pontos_turisticos":[{"nome":"Igreja Nossa Senhora da Penha","distancia":1371},{"nome":"Praia de Ramos","distancia":1604}]}]