[{"linha":"501","descricao_ponto":"Avenida Ministro Ivan Lins próximo ao 480","sequencia":"19","latitude":"-23.0111","longitude":"-43.3013","pontos_turisticos":[{"nome":"Praia da Joatinga","distancia":1156},{"nome":"Praia do Pepê","distancia":630}]},{"linha":"501","descricao_ponto":"Avenida Das Americas próximo ao 500","sequencia":"9","latitude":"-23.0047","longitude":"-43.3198","pontos_turisticos":[{"nome":"Centro Cultural Anglo Americano (Suassuna)","distancia":1549},{"nome":"Praia do Pepê","distancia":1909}]},{"linha":"501","descricao_ponto":"Auto Estrada Lagoa Barra próximo ao 450","sequencia":"4","latitude":"-22.999","longitude":"-43.2705","pontos_turisticos":[{"nome":"Pedra da Gávea","distancia":1376},{"nome":"Praia de São Conrado","distancia":223},{"nome":"Praia do Pepino","distancia":225}]},{"linha":"501","descricao_ponto":"Avenida Armando Lombardi próximo ao 800","sequencia":"6","latitude":"-23.0069","longitude":"-43.3074","pontos_turisticos":[{"nome":"Praia da Joatinga","distancia":1920},{"nome":"Praia do Pepê","distancia":975}]},{"linha":"501","descricao_ponto":"Avenida Das Americas próximo ao 3255","sequencia":"8","latitude":"-23.0004","longitude":"-43.3465","pontos_turisticos":[{"nome":"Centro Cultural Anglo Americano (Suassuna)","distancia":1242},{"nome":"Cidade das Artes","distancia":1961},{"nome":"Teatro dos Grandes Atores","distancia":352}]},{"linha":"501","descricao_ponto":"Avenida Das Americas próximo ao 1245","sequencia":"14","latitude":"-23.0021","longitude":"-43.3278","pontos_turisticos":[{"nome":"Centro Cultural Anglo Americano (Suassuna)","distancia":685}]},{"linha":"501","descricao_ponto":"Auto Estrada Lagoa Barra próximo ao 1873","sequencia":"20","latitude":"-22.9991","longitude":"-43.2691","pontos_turisticos":[{"nome":"Pedra da Gávea","distancia":1520},{"nome":"Praia de São Conrado","distancia":141},{"nome":"Praia do Pepino","distancia":295}]},{"linha":"501","descricao_ponto":"Avenida Das Americas próximo ao 1276","sequencia":"11","latitude":"-23.0015","longitude":"-43.3275","pontos_turisticos":[{"nome":"Centro Cultural Anglo Americano (Suassuna)","distancia":707}]},{"linha":"501","descricao_ponto":"Avenida Das Americas próximo ao 4485","sequencia":"2","latitude":"-23.0002","longitude":"-43.3597","pontos_turisticos":[{"nome":"Bosque da Barra","distancia":1241},{"nome":"Cidade das Artes","distancia":625},{"nome":"Praia da Barra da Tijuca","distancia":1391},{"nome":"Teatro CEC Antonio Fagundes","distancia":1313},{"nome":"Teatro dos Grandes Atores","distancia":999}]},{"linha":"501","descricao_ponto":"Avenida Das Americas próximo ao 720","sequencia":"27","latitude":"-22.9914","longitude":"-43.3662","pontos_turisticos":[{"nome":"Bosque da Barra","distancia":1101},{"nome":"Cidade das Artes","distancia":805},{"nome":"Teatro CEC Antonio Fagundes","distancia":153},{"nome":"Teatro dos Grandes Atores","distancia":1944}]},{"linha":"501","descricao_ponto":"Avenida Ayrton Senna próximo ao 380","sequencia":"24","latitude":"-22.9916","longitude":"-43.3655","pontos_turisticos":[{"nome":"Bosque da Barra","distancia":1121},{"nome":"Cidade das Artes","distancia":780},{"nome":"Teatro CEC Antonio Fagundes","distancia":189},{"nome":"Teatro dos Grandes Atores","distancia":1871}]},{"linha":"501","descricao_ponto":"Terminal Alvorada - Plataforma 3","sequencia":"1","latitude":"-23.0012","longitude":"-43.3657","pontos_turisticos":[{"nome":"Bosque da Barra","distancia":644},{"nome":"Cidade das Artes","distancia":288},{"nome":"Praia da Barra da Tijuca","distancia":1115},{"nome":"Teatro CEC Antonio Fagundes","distancia":1244},{"nome":"Teatro dos Grandes Atores","distancia":1615}]},{"linha":"501","descricao_ponto":"Avenida Das Americas próximo ao 2250","sequencia":"9","latitude":"-23.0005","longitude":"-43.3428","pontos_turisticos":[{"nome":"Centro Cultural Anglo Americano (Suassuna)","distancia":863},{"nome":"Teatro dos Grandes Atores","distancia":731}]},{"linha":"501","descricao_ponto":"Avenida Armando Lombardi próximo ao 385","sequencia":"17","latitude":"-23.0065","longitude":"-43.3156","pontos_turisticos":[{"nome":"Praia do Pepê","distancia":1452}]},{"linha":"501","descricao_ponto":"Estrada Da Gavea próximo ao 221","sequencia":"24","latitude":"-22.9936","longitude":"-43.2543","pontos_turisticos":[{"nome":"Praia de São Conrado","distancia":1671},{"nome":"Praia do Pepino","distancia":1911}]},{"linha":"501","descricao_ponto":"Nome do ponto nao identificado","sequencia":"3","latitude":"-22.9981","longitude":"-43.2667","pontos_turisticos":[{"nome":"Pedra da Gávea","distancia":1758},{"nome":"Praia de São Conrado","distancia":335},{"nome":"Praia do Pepino","distancia":557}]},{"linha":"501","descricao_ponto":"Avenida Das Americas próximo ao 3307","sequencia":"6","latitude":"-23.0004","longitude":"-43.3502","pontos_turisticos":[{"nome":"Centro Cultural Anglo Americano (Suassuna)","distancia":1620},{"nome":"Cidade das Artes","distancia":1584},{"nome":"Teatro dos Grandes Atores","distancia":27}]},{"linha":"501","descricao_ponto":"Avenida Armando Lombardi próximo ao 870","sequencia":"8","latitude":"-23.0064","longitude":"-43.3121","pontos_turisticos":[{"nome":"Praia do Pepê","distancia":1225}]},{"linha":"501","descricao_ponto":"Avenida Ministro Ivan Lins próximo ao S/n","sequencia":"18","latitude":"-23.0084","longitude":"-43.3036","pontos_turisticos":[{"nome":"Praia da Joatinga","distancia":1499},{"nome":"Praia do Pepê","distancia":801}]},{"linha":"501","descricao_ponto":"Avenida Bartolomeu Mitre próximo ao 110","sequencia":"1","latitude":"-22.9788","longitude":"-43.2246","pontos_turisticos":[{"nome":"Jardim Botânico","distancia":890},{"nome":"Jockey Club Brasileiro","distancia":561},{"nome":"Lagoa Rodrigo de Freitas","distancia":1559},{"nome":"Planetário","distancia":578},{"nome":"Praia do Leblon","distancia":982},{"nome":"Teatro Amador O Tablado","distancia":1732},{"nome":"Teatro Café Pequeno","distancia":882},{"nome":"Teatro Casa da Gávea","distancia":581},{"nome":"Teatro Casa do Riso","distancia":227},{"nome":"Teatro Clara Nunes","distancia":501},{"nome":"Teatro das Artes","distancia":509},{"nome":"Teatro do Jockey","distancia":203},{"nome":"Teatro dos Quatro","distancia":493},{"nome":"Teatro Leblon","distancia":303},{"nome":"Teatro Maria Clara Machado","distancia":578},{"nome":"Teatro Vanucci","distancia":511}]},{"linha":"501","descricao_ponto":"Avenida Ministro Ivan Lins próximo ao 179","sequencia":"5","latitude":"-23.0074","longitude":"-43.3042","pontos_turisticos":[{"nome":"Praia da Joatinga","distancia":1608},{"nome":"Praia do Pepê","distancia":901}]},{"linha":"501","descricao_ponto":"Avenida Das Americas próximo ao 3434","sequencia":"17","latitude":"-22.9998","longitude":"-43.3463","pontos_turisticos":[{"nome":"Centro Cultural Anglo Americano (Suassuna)","distancia":1227},{"nome":"Cidade das Artes","distancia":1975},{"nome":"Teatro dos Grandes Atores","distancia":380}]},{"linha":"501","descricao_ponto":"Avenida Das Americas próximo ao 297","sequencia":"16","latitude":"-23.0055","longitude":"-43.3186","pontos_turisticos":[{"nome":"Centro Cultural Anglo Americano (Suassuna)","distancia":1692},{"nome":"Praia do Pepê","distancia":1757}]},{"linha":"501","descricao_ponto":"Avenida Das Americas próximo ao 4666","sequencia":"20","latitude":"-22.9997","longitude":"-43.3539","pontos_turisticos":[{"nome":"Bosque da Barra","distancia":1834},{"nome":"Cidade das Artes","distancia":1199},{"nome":"Praia da Barra da Tijuca","distancia":1791},{"nome":"Teatro CEC Antonio Fagundes","distancia":1656},{"nome":"Teatro dos Grandes Atores","distancia":413}]},{"linha":"501","descricao_ponto":"Avenida Das Americas próximo ao 2151","sequencia":"12","latitude":"-23.001","longitude":"-43.3319","pontos_turisticos":[{"nome":"Centro Cultural Anglo Americano (Suassuna)","distancia":254},{"nome":"Teatro dos Grandes Atores","distancia":1848}]},{"linha":"501","descricao_ponto":"Estrada Da Gavea próximo ao 655","sequencia":"23","latitude":"-22.9951","longitude":"-43.2576","pontos_turisticos":[{"nome":"Praia de São Conrado","distancia":1294},{"nome":"Praia do Pepino","distancia":1534}]},{"linha":"501","descricao_ponto":"Avenida Das Americas próximo ao 1114","sequencia":"10","latitude":"-23.0027","longitude":"-43.3246","pontos_turisticos":[{"nome":"Centro Cultural Anglo Americano (Suassuna)","distancia":1020}]},{"linha":"501","descricao_ponto":"Avenida Das Americas próximo ao 3328","sequencia":"18","latitude":"-22.9998","longitude":"-43.3503","pontos_turisticos":[{"nome":"Centro Cultural Anglo Americano (Suassuna)","distancia":1634},{"nome":"Cidade das Artes","distancia":1567},{"nome":"Teatro CEC Antonio Fagundes","distancia":1958},{"nome":"Teatro dos Grandes Atores","distancia":80}]},{"linha":"501","descricao_ponto":"Avenida Das Americas próximo ao 1501","sequencia":"13","latitude":"-23.0014","longitude":"-43.3294","pontos_turisticos":[{"nome":"Centro Cultural Anglo Americano (Suassuna)","distancia":512}]},{"linha":"501","descricao_ponto":"Avenida Armando Lombardi próximo ao 350","sequencia":"7","latitude":"-23.0065","longitude":"-43.3098","pontos_turisticos":[{"nome":"Praia do Pepê","distancia":1098}]},{"linha":"501","descricao_ponto":"Avenida Ayrton Senna próximo ao 250","sequencia":"28","latitude":"-22.9945","longitude":"-43.3662","pontos_turisticos":[{"nome":"Bosque da Barra","distancia":826},{"nome":"Cidade das Artes","distancia":462},{"nome":"Praia da Barra da Tijuca","distancia":1859},{"nome":"Teatro CEC Antonio Fagundes","distancia":498},{"nome":"Teatro dos Grandes Atores","distancia":1790}]},{"linha":"501","descricao_ponto":"Avenida Das Americas próximo ao 1981","sequencia":"11","latitude":"-23.0008","longitude":"-43.3357","pontos_turisticos":[{"nome":"Centro Cultural Anglo Americano (Suassuna)","distancia":136},{"nome":"Teatro dos Grandes Atores","distancia":1458}]},{"linha":"501","descricao_ponto":"Rua Shubert Magalhaes próximo ao 777","sequencia":"15","latitude":"-23.004","longitude":"-43.3231","pontos_turisticos":[{"nome":"Centro Cultural Anglo Americano (Suassuna)","distancia":1203}]},{"linha":"501","descricao_ponto":"Estrada Da Gavea próximo ao 573","sequencia":"22","latitude":"-22.9961","longitude":"-43.2595","pontos_turisticos":[{"nome":"Praia de São Conrado","distancia":1070},{"nome":"Praia do Pepino","distancia":1311}]},{"linha":"501","descricao_ponto":"Avenida Das Americas próximo ao 1976","sequencia":"14","latitude":"-23","longitude":"-43.3386","pontos_turisticos":[{"nome":"Centro Cultural Anglo Americano (Suassuna)","distancia":445},{"nome":"Teatro dos Grandes Atores","distancia":1162}]},{"linha":"501","descricao_ponto":"Avenida Das Americas próximo ao 3120","sequencia":"16","latitude":"-22.9998","longitude":"-43.344","pontos_turisticos":[{"nome":"Centro Cultural Anglo Americano (Suassuna)","distancia":993},{"nome":"Teatro dos Grandes Atores","distancia":612}]},{"linha":"501","descricao_ponto":"Avenida Das Americas próximo ao 3979","sequencia":"7","latitude":"-23.0004","longitude":"-43.3475","pontos_turisticos":[{"nome":"Centro Cultural Anglo Americano (Suassuna)","distancia":1344},{"nome":"Cidade das Artes","distancia":1859},{"nome":"Teatro dos Grandes Atores","distancia":250}]},{"linha":"501","descricao_ponto":"Avenida Ayrton Senna próximo ao 3435","sequencia":"25","latitude":"-22.9877","longitude":"-43.3654","pontos_turisticos":[{"nome":"Bosque da Barra","distancia":1501},{"nome":"Cidade das Artes","distancia":1213},{"nome":"Teatro CEC Antonio Fagundes","distancia":271}]},{"linha":"501","descricao_ponto":"Avenida Das Americas próximo ao 2300","sequencia":"15","latitude":"-22.9999","longitude":"-43.3408","pontos_turisticos":[{"nome":"Centro Cultural Anglo Americano (Suassuna)","distancia":668},{"nome":"Teatro dos Grandes Atores","distancia":938}]},{"linha":"501","descricao_ponto":"Avenida Das Americas próximo ao 1917","sequencia":"10","latitude":"-23.0006","longitude":"-43.3397","pontos_turisticos":[{"nome":"Centro Cultural Anglo Americano (Suassuna)","distancia":546},{"nome":"Teatro dos Grandes Atores","distancia":1049}]},{"linha":"501","descricao_ponto":"Avenida Das Americas próximo ao 1500","sequencia":"12","latitude":"-23.0006","longitude":"-43.3303","pontos_turisticos":[{"nome":"Centro Cultural Anglo Americano (Suassuna)","distancia":420}]},{"linha":"501","descricao_ponto":"Avenida Das Americas próximo ao 4043","sequencia":"3","latitude":"-23.0002","longitude":"-43.3578","pontos_turisticos":[{"nome":"Bosque da Barra","distancia":1435},{"nome":"Cidade das Artes","distancia":813},{"nome":"Praia da Barra da Tijuca","distancia":1493},{"nome":"Teatro CEC Antonio Fagundes","distancia":1421},{"nome":"Teatro dos Grandes Atores","distancia":805}]},{"linha":"501","descricao_ponto":"Avenida Das Americas próximo ao 3362","sequencia":"26","latitude":"-22.9876","longitude":"-43.3661","pontos_turisticos":[{"nome":"Bosque da Barra","distancia":1481},{"nome":"Cidade das Artes","distancia":1226},{"nome":"Teatro CEC Antonio Fagundes","distancia":270}]},{"linha":"501","descricao_ponto":"Avenida Das Americas próximo ao 3973","sequencia":"4","latitude":"-23.0003","longitude":"-43.3549","pontos_turisticos":[{"nome":"Bosque da Barra","distancia":1732},{"nome":"Cidade das Artes","distancia":1107},{"nome":"Praia da Barra da Tijuca","distancia":1672},{"nome":"Teatro CEC Antonio Fagundes","distancia":1626},{"nome":"Teatro dos Grandes Atores","distancia":508}]},{"linha":"501","descricao_ponto":"Avenida Padre Leonel Franca próximo ao 110","sequencia":"2","latitude":"-22.9785","longitude":"-43.2274","pontos_turisticos":[{"nome":"Jardim Botânico","distancia":946},{"nome":"Jockey Club Brasileiro","distancia":544},{"nome":"Lagoa Rodrigo de Freitas","distancia":1793},{"nome":"Parque da Cidade","distancia":1862},{"nome":"Planetário","distancia":294},{"nome":"Praia do Leblon","distancia":1126},{"nome":"Teatro Amador O Tablado","distancia":1858},{"nome":"Teatro Café Pequeno","distancia":1136},{"nome":"Teatro Casa da Gávea","distancia":496},{"nome":"Teatro Casa do Riso","distancia":503},{"nome":"Teatro Clara Nunes","distancia":327},{"nome":"Teatro das Artes","distancia":321},{"nome":"Teatro do Jockey","distancia":303},{"nome":"Teatro dos Quatro","distancia":320},{"nome":"Teatro Leblon","distancia":552},{"nome":"Teatro Maria Clara Machado","distancia":294},{"nome":"Teatro Vanucci","distancia":326}]},{"linha":"501","descricao_ponto":"Avenida Das Americas próximo ao 4002","sequencia":"22","latitude":"-22.9994","longitude":"-43.3623","pontos_turisticos":[{"nome":"Bosque da Barra","distancia":975},{"nome":"Cidade das Artes","distancia":345},{"nome":"Praia da Barra da Tijuca","distancia":1371},{"nome":"Teatro CEC Antonio Fagundes","distancia":1116},{"nome":"Teatro dos Grandes Atores","distancia":1270}]},{"linha":"501","descricao_ponto":"Avenida Das Americas próximo ao 4790","sequencia":"21","latitude":"-22.9995","longitude":"-43.3574","pontos_turisticos":[{"nome":"Bosque da Barra","distancia":1476},{"nome":"Cidade das Artes","distancia":841},{"nome":"Praia da Barra da Tijuca","distancia":1580},{"nome":"Teatro CEC Antonio Fagundes","distancia":1386},{"nome":"Teatro dos Grandes Atores","distancia":770}]},{"linha":"501","descricao_ponto":"Terminal Alvorada - Plataforma 3","sequencia":"29","latitude":"-23.0013","longitude":"-43.3657","pontos_turisticos":[{"nome":"Bosque da Barra","distancia":647},{"nome":"Cidade das Artes","distancia":299},{"nome":"Praia da Barra da Tijuca","distancia":1104},{"nome":"Teatro CEC Antonio Fagundes","distancia":1255},{"nome":"Teatro dos Grandes Atores","distancia":1616}]},{"linha":"501","descricao_ponto":"Avenida Padre Leonel Franca próximo ao 110","sequencia":"25","latitude":"-22.9786","longitude":"-43.2271","pontos_turisticos":[{"nome":"Jardim Botânico","distancia":943},{"nome":"Jockey Club Brasileiro","distancia":546},{"nome":"Lagoa Rodrigo de Freitas","distancia":1770},{"nome":"Parque da Cidade","distancia":1893},{"nome":"Planetário","distancia":323},{"nome":"Praia do Leblon","distancia":1101},{"nome":"Teatro Amador O Tablado","distancia":1849},{"nome":"Teatro Café Pequeno","distancia":1104},{"nome":"Teatro Casa da Gávea","distancia":505},{"nome":"Teatro Casa do Riso","distancia":471},{"nome":"Teatro Clara Nunes","distancia":346},{"nome":"Teatro das Artes","distancia":341},{"nome":"Teatro do Jockey","distancia":285},{"nome":"Teatro dos Quatro","distancia":338},{"nome":"Teatro Leblon","distancia":520},{"nome":"Teatro Maria Clara Machado","distancia":324},{"nome":"Teatro Vanucci","distancia":346}]},{"linha":"501","descricao_ponto":"Avenida Das Americas próximo ao 1880","sequencia":"13","latitude":"-23.0003","longitude":"-43.3339","pontos_turisticos":[{"nome":"Centro Cultural Anglo Americano (Suassuna)","distancia":89},{"nome":"Teatro dos Grandes Atores","distancia":1642}]},{"linha":"501","descricao_ponto":"Auto Estrada Lagoa Barra próximo ao 236","sequencia":"21","latitude":"-22.9981","longitude":"-43.2658","pontos_turisticos":[{"nome":"Pedra da Gávea","distancia":1850},{"nome":"Praia de São Conrado","distancia":402},{"nome":"Praia do Pepino","distancia":635}]},{"linha":"501","descricao_ponto":"Avenida Das Americas próximo ao 3665","sequencia":"5","latitude":"-23.0003","longitude":"-43.3525","pontos_turisticos":[{"nome":"Bosque da Barra","distancia":1978},{"nome":"Centro Cultural Anglo Americano (Suassuna)","distancia":1856},{"nome":"Cidade das Artes","distancia":1349},{"nome":"Praia da Barra da Tijuca","distancia":1849},{"nome":"Teatro CEC Antonio Fagundes","distancia":1809},{"nome":"Teatro dos Grandes Atores","distancia":262}]},{"linha":"501","descricao_ponto":"Avenida Das Americas próximo ao 4200","sequencia":"19","latitude":"-22.9997","longitude":"-43.3517","pontos_turisticos":[{"nome":"Centro Cultural Anglo Americano (Suassuna)","distancia":1778},{"nome":"Cidade das Artes","distancia":1423},{"nome":"Praia da Barra da Tijuca","distancia":1955},{"nome":"Teatro CEC Antonio Fagundes","distancia":1834},{"nome":"Teatro dos Grandes Atores","distancia":198}]},{"linha":"501","descricao_ponto":"Avenida Ayrton Senna próximo ao 200","sequencia":"23","latitude":"-22.9937","longitude":"-43.3655","pontos_turisticos":[{"nome":"Bosque da Barra","distancia":940},{"nome":"Cidade das Artes","distancia":546},{"nome":"Praia da Barra da Tijuca","distancia":1949},{"nome":"Teatro CEC Antonio Fagundes","distancia":415},{"nome":"Teatro dos Grandes Atores","distancia":1760}]}]