[{"linha":"511","descricao_ponto":"Rua Candido Gaffree próximo ao 48","sequencia":"30","latitude":"-22.9469","longitude":"-43.1623","pontos_turisticos":[{"nome":"Praia da Urca","distancia":125}]},{"linha":"511","descricao_ponto":"Praca Felix Laranjeiras próximo ao 25","sequencia":"8","latitude":"-22.9531","longitude":"-43.1682","pontos_turisticos":[{"nome":"Pão de Açúcar","distancia":308},{"nome":"Praia Vermelha","distancia":423},{"nome":"Teatro do Instituto Benjamin Constant","distancia":386}]},{"linha":"511","descricao_ponto":"Rua Visconde De Silva próximo ao 66","sequencia":"17","latitude":"-22.9575","longitude":"-43.1941","pontos_turisticos":[]},{"linha":"511","descricao_ponto":"Avenida Rodrigo Otavio próximo ao 1702","sequencia":"1","latitude":"-22.9738","longitude":"-43.226","pontos_turisticos":[{"nome":"Jardim Botânico","distancia":427},{"nome":"Jockey Club Brasileiro","distancia":30},{"nome":"Teatro Casa da Gávea","distancia":104},{"nome":"Teatro Clara Nunes","distancia":293},{"nome":"Teatro das Artes","distancia":317},{"nome":"Teatro do Jockey","distancia":372},{"nome":"Teatro dos Quatro","distancia":294},{"nome":"Teatro Vanucci","distancia":312}]},{"linha":"511","descricao_ponto":"BRS 2 - GARCIA D ÁVILA","sequencia":"41","latitude":"-22.9839","longitude":"-43.2103","pontos_turisticos":[]},{"linha":"511","descricao_ponto":"BRS 2 - BARTOLOMEU MITRE","sequencia":"7","latitude":"-22.987","longitude":"-43.222","pontos_turisticos":[{"nome":"Praia do Leblon","distancia":32}]},{"linha":"511","descricao_ponto":"Avenida Portugal próximo ao 61","sequencia":"6","latitude":"-22.9503","longitude":"-43.1678","pontos_turisticos":[]},{"linha":"511","descricao_ponto":"Avenida Portugal próximo ao 936","sequencia":"5","latitude":"-22.9485","longitude":"-43.1659","pontos_turisticos":[{"nome":"Praia da Urca","distancia":302}]},{"linha":"511","descricao_ponto":"Rua Jardim Botanico próximo ao 518","sequencia":"27","latitude":"-22.9618","longitude":"-43.2151","pontos_turisticos":[{"nome":"Parque Lage","distancia":211},{"nome":"Teatro Amador O Tablado","distancia":395}]},{"linha":"511","descricao_ponto":"BRS 2 - BARÃO DE IPANEMA","sequencia":"16","latitude":"-22.975","longitude":"-43.1896","pontos_turisticos":[{"nome":"Teatro Brigitte Blair","distancia":368}]},{"linha":"511","descricao_ponto":"Avenida Visconde De Albuquerque proximo ao 1165","sequencia":"2","latitude":"-22.9795","longitude":"-43.2266","pontos_turisticos":[{"nome":"Planetário","distancia":381},{"nome":"Teatro Casa do Riso","distancia":400},{"nome":"Teatro Clara Nunes","distancia":457},{"nome":"Teatro das Artes","distancia":453},{"nome":"Teatro do Jockey","distancia":326},{"nome":"Teatro dos Quatro","distancia":449},{"nome":"Teatro Leblon","distancia":431},{"nome":"Teatro Maria Clara Machado","distancia":381},{"nome":"Teatro Vanucci","distancia":458}]},{"linha":"511","descricao_ponto":"BRS 2 - REPÚBLICA DO PERU","sequencia":"19","latitude":"-22.9671","longitude":"-43.181","pontos_turisticos":[{"nome":"Praia de Copacabana","distancia":255},{"nome":"Sala Baden Powell","distancia":39},{"nome":"Teatro Gláucio Gil","distancia":191}]},{"linha":"511","descricao_ponto":"BRS 1, I - LARGO DOS LEÕES","sequencia":"20","latitude":"-22.9529","longitude":"-43.1966","pontos_turisticos":[]},{"linha":"511","descricao_ponto":"Rua Candido Gaffree próximo ao 116","sequencia":"31","latitude":"-22.9456","longitude":"-43.1614","pontos_turisticos":[{"nome":"Praia da Urca","distancia":296}]},{"linha":"511","descricao_ponto":"Avenida Joao Luiz Alves próximo ao 192","sequencia":"2","latitude":"-22.9451","longitude":"-43.1632","pontos_turisticos":[{"nome":"Praia da Urca","distancia":298}]},{"linha":"511","descricao_ponto":"Avenida Joao Luiz Alves próximo ao 76","sequencia":"3","latitude":"-22.9474","longitude":"-43.1629","pontos_turisticos":[{"nome":"Praia da Urca","distancia":45}]},{"linha":"511","descricao_ponto":"Rua Marechal Cantuaria próximo ao 102","sequencia":"27","latitude":"-22.9506","longitude":"-43.1678","pontos_turisticos":[]},{"linha":"511","descricao_ponto":"Rua Ramom Franco próximo ao 10","sequencia":"26","latitude":"-22.9533","longitude":"-43.1673","pontos_turisticos":[{"nome":"Pão de Açúcar","distancia":258},{"nome":"Praia Vermelha","distancia":334},{"nome":"Teatro do Instituto Benjamin Constant","distancia":479}]},{"linha":"511","descricao_ponto":"BRS 2 - ALMIRANTE GUILHEM","sequencia":"39","latitude":"-22.9865","longitude":"-43.2183","pontos_turisticos":[{"nome":"Praia do Leblon","distancia":380},{"nome":"Teatro Café Pequeno","distancia":301}]},{"linha":"511","descricao_ponto":"Avenida Visconde De Albuquerque próximo ao 581","sequencia":"3","latitude":"-22.9811","longitude":"-43.2267","pontos_turisticos":[{"nome":"Planetário","distancia":442},{"nome":"Teatro Casa do Riso","distancia":430},{"nome":"Teatro do Jockey","distancia":491},{"nome":"Teatro Leblon","distancia":415},{"nome":"Teatro Maria Clara Machado","distancia":442}]},{"linha":"511","descricao_ponto":"Avenida Joao Luiz Alves próximo ao 297","sequencia":"1","latitude":"-22.9433","longitude":"-43.1612","pontos_turisticos":[]},{"linha":"511","descricao_ponto":"Rua Jardim Botanico próximo ao 391","sequencia":"26","latitude":"-22.9611","longitude":"-43.2123","pontos_turisticos":[{"nome":"Parque Lage","distancia":86}]},{"linha":"511","descricao_ponto":"Avenida Visconde De Albuquerque próximo ao 581","sequencia":"34","latitude":"-22.9811","longitude":"-43.2267","pontos_turisticos":[{"nome":"Planetário","distancia":442},{"nome":"Teatro Casa do Riso","distancia":430},{"nome":"Teatro do Jockey","distancia":491},{"nome":"Teatro Leblon","distancia":415},{"nome":"Teatro Maria Clara Machado","distancia":442}]},{"linha":"511","descricao_ponto":"BRS 2 - FARME DE AMOEDO","sequencia":"12","latitude":"-22.9845","longitude":"-43.1999","pontos_turisticos":[{"nome":"Casa Laura Alvin","distancia":252},{"nome":"Casa Laura Alvin","distancia":252},{"nome":"Praia de Ipanema","distancia":454}]},{"linha":"511","descricao_ponto":"Avenida Pasteur próximo ao 241","sequencia":"11","latitude":"-22.9523","longitude":"-43.1733","pontos_turisticos":[{"nome":"Teatro do Instituto Benjamin Constant","distancia":160}]},{"linha":"511","descricao_ponto":"Rua Jardim Botanico próximo ao 943","sequencia":"31","latitude":"-22.9701","longitude":"-43.2225","pontos_turisticos":[{"nome":"Jardim Botânico","distancia":118}]},{"linha":"511","descricao_ponto":"Rua Jardim Botanico próximo ao 200","sequencia":"31","latitude":"-22.9701","longitude":"-43.2225","pontos_turisticos":[{"nome":"Jardim Botânico","distancia":118}]},{"linha":"511","descricao_ponto":"BRS 2 - ALMIRANTE GUILHEM","sequencia":"8","latitude":"-22.9865","longitude":"-43.2183","pontos_turisticos":[{"nome":"Praia do Leblon","distancia":380},{"nome":"Teatro Café Pequeno","distancia":301}]},{"linha":"511","descricao_ponto":"Henrique Dumont 2","sequencia":"40","latitude":"-22.9842","longitude":"-43.2135","pontos_turisticos":[{"nome":"Teatro Café Pequeno","distancia":455}]},{"linha":"511","descricao_ponto":"Avenida Visconde De Albuquerque próximo ao 961","sequencia":"4","latitude":"-22.9833","longitude":"-43.2282","pontos_turisticos":[]},{"linha":"511","descricao_ponto":"Avenida Pasteur próximo ao 431","sequencia":"9","latitude":"-22.9539","longitude":"-43.1689","pontos_turisticos":[{"nome":"Pão de Açúcar","distancia":280},{"nome":"Praia Vermelha","distancia":452},{"nome":"Teatro do Instituto Benjamin Constant","distancia":328}]},{"linha":"511","descricao_ponto":"Avenida Visconde De Albuquerque proximo ao 1165","sequencia":"33","latitude":"-22.9795","longitude":"-43.2266","pontos_turisticos":[{"nome":"Planetário","distancia":381},{"nome":"Teatro Casa do Riso","distancia":400},{"nome":"Teatro Clara Nunes","distancia":457},{"nome":"Teatro das Artes","distancia":453},{"nome":"Teatro do Jockey","distancia":326},{"nome":"Teatro dos Quatro","distancia":449},{"nome":"Teatro Leblon","distancia":431},{"nome":"Teatro Maria Clara Machado","distancia":381},{"nome":"Teatro Vanucci","distancia":458}]},{"linha":"511","descricao_ponto":"Rua Jardim Botanico próximo ao 266","sequencia":"25","latitude":"-22.9608","longitude":"-43.2093","pontos_turisticos":[{"nome":"Parque Lage","distancia":394}]},{"linha":"511","descricao_ponto":"Rua Humaita próximo ao 231","sequencia":"23","latitude":"-22.9602","longitude":"-43.2043","pontos_turisticos":[]},{"linha":"511","descricao_ponto":"Avenida Pasteur próximo ao 458","sequencia":"10","latitude":"-22.9531","longitude":"-43.1717","pontos_turisticos":[{"nome":"Teatro do Instituto Benjamin Constant","distancia":28}]},{"linha":"511","descricao_ponto":"Avenida Pasteur próximo ao 241","sequencia":"10","latitude":"-22.9531","longitude":"-43.1717","pontos_turisticos":[{"nome":"Teatro do Instituto Benjamin Constant","distancia":28}]},{"linha":"511","descricao_ponto":"Henrique Dumont 2","sequencia":"9","latitude":"-22.9842","longitude":"-43.2135","pontos_turisticos":[{"nome":"Teatro Café Pequeno","distancia":455}]},{"linha":"511","descricao_ponto":"BRS 2 - AVENIDA LAURO SODRE","sequencia":"22","latitude":"-22.9569","longitude":"-43.1774","pontos_turisticos":[]},{"linha":"511","descricao_ponto":"Rua Mena Barreto próximo ao 161","sequencia":"16","latitude":"-22.9564","longitude":"-43.1912","pontos_turisticos":[{"nome":"Museu do Índio","distancia":488}]},{"linha":"511","descricao_ponto":"BRS 1, I - VISCONDE DE SILVA","sequencia":"22","latitude":"-22.959","longitude":"-43.2006","pontos_turisticos":[{"nome":"Espaço Cultura Sergio Porto","distancia":130}]},{"linha":"511","descricao_ponto":"BRS 2 - HILÁRIO DE GOUVEIA","sequencia":"18","latitude":"-22.9687","longitude":"-43.184","pontos_turisticos":[{"nome":"Sala Baden Powell","distancia":388},{"nome":"Teatro Gláucio Gil","distancia":492}]},{"linha":"511","descricao_ponto":"Avenida Visconde De Albuquerque próximo ao 1335","sequencia":"36","latitude":"-22.9843","longitude":"-43.2291","pontos_turisticos":[]},{"linha":"511","descricao_ponto":"Avenida Visconde De Albuquerque próximo ao 1","sequencia":"6","latitude":"-22.9882","longitude":"-43.2283","pontos_turisticos":[]},{"linha":"511","descricao_ponto":"Rua Osorio De Almeida próximo ao 61","sequencia":"7","latitude":"-22.9519","longitude":"-43.1685","pontos_turisticos":[{"nome":"Pão de Açúcar","distancia":443},{"nome":"Teatro do Instituto Benjamin Constant","distancia":377}]},{"linha":"511","descricao_ponto":"Rua Jardim Botanico próximo ao 266","sequencia":"24","latitude":"-22.9605","longitude":"-43.2067","pontos_turisticos":[]},{"linha":"511","descricao_ponto":"BRS 2 - DEMÉTRIO RIBEIRO","sequencia":"21","latitude":"-22.9616","longitude":"-43.1751","pontos_turisticos":[{"nome":"Teatro Princesa Isabel","distancia":177},{"nome":"Teatro Villa Lobos","distancia":37}]},{"linha":"511","descricao_ponto":"Rua Jardim Botanico próximo ao 584 (PONTO DESATIVADO EM 10/04/2014)","sequencia":"28","latitude":"-22.9632","longitude":"-43.2166","pontos_turisticos":[{"nome":"Parque Lage","distancia":416},{"nome":"Teatro Amador O Tablado","distancia":210}]},{"linha":"511","descricao_ponto":"BRS 2 - BARTOLOMEU MITRE","sequencia":"38","latitude":"-22.987","longitude":"-43.222","pontos_turisticos":[{"nome":"Praia do Leblon","distancia":32}]},{"linha":"511","descricao_ponto":"Avenida Rodrigo Otavio próximo ao 1702","sequencia":"32","latitude":"-22.9738","longitude":"-43.226","pontos_turisticos":[{"nome":"Jardim Botânico","distancia":427},{"nome":"Jockey Club Brasileiro","distancia":30},{"nome":"Teatro Casa da Gávea","distancia":104},{"nome":"Teatro Clara Nunes","distancia":293},{"nome":"Teatro das Artes","distancia":317},{"nome":"Teatro do Jockey","distancia":372},{"nome":"Teatro dos Quatro","distancia":294},{"nome":"Teatro Vanucci","distancia":312}]},{"linha":"511","descricao_ponto":"Rua Jardim Botanico próximo ao 683","sequencia":"30","latitude":"-22.9658","longitude":"-43.2189","pontos_turisticos":[{"nome":"Teatro Amador O Tablado","distancia":251}]},{"linha":"511","descricao_ponto":"BRS 2 - SANTA CLARA","sequencia":"17","latitude":"-22.9722","longitude":"-43.1877","pontos_turisticos":[]},{"linha":"511","descricao_ponto":"Avenida Pasteur próximo ao 458","sequencia":"24","latitude":"-22.9531","longitude":"-43.1718","pontos_turisticos":[{"nome":"Teatro do Instituto Benjamin Constant","distancia":18}]},{"linha":"511","descricao_ponto":"Avenida Pasteur próximo ao 241","sequencia":"24","latitude":"-22.9531","longitude":"-43.1718","pontos_turisticos":[{"nome":"Teatro do Instituto Benjamin Constant","distancia":18}]},{"linha":"511","descricao_ponto":"BRS 2 - RAUL POMPÉIA","sequencia":"14","latitude":"-22.9833","longitude":"-43.1924","pontos_turisticos":[{"nome":"Parque Peter Pan","distancia":36},{"nome":"Teatro da Praia","distancia":103}]},{"linha":"511","descricao_ponto":"BRS 2 - DJALMA ULRICH","sequencia":"15","latitude":"-22.9794","longitude":"-43.191","pontos_turisticos":[{"nome":"Parque Peter Pan","distancia":435},{"nome":"Teatro Brigitte Blair","distancia":167}]},{"linha":"511","descricao_ponto":"Rua Marechal Cantuaria próximo ao 182","sequencia":"28","latitude":"-22.9492","longitude":"-43.1663","pontos_turisticos":[{"nome":"Praia da Urca","distancia":368}]},{"linha":"511","descricao_ponto":"Rua Jardim Botanico próximo ao 138","sequencia":"29","latitude":"-22.9648","longitude":"-43.218","pontos_turisticos":[{"nome":"Teatro Amador O Tablado","distancia":149}]},{"linha":"511","descricao_ponto":"BRS 2 - GARCIA D ÁVILA","sequencia":"10","latitude":"-22.9839","longitude":"-43.2103","pontos_turisticos":[]},{"linha":"511","descricao_ponto":"BRS 2 - BELFORT ROXO","sequencia":"20","latitude":"-22.9649","longitude":"-43.1763","pontos_turisticos":[{"nome":"Teatro Gláucio Gil","distancia":465},{"nome":"Teatro Princesa Isabel","distancia":293},{"nome":"Teatro Villa Lobos","distancia":413}]},{"linha":"511","descricao_ponto":"Rua Candido Gaffree próximo ao 143","sequencia":"32","latitude":"-22.9438","longitude":"-43.1602","pontos_turisticos":[]},{"linha":"511","descricao_ponto":"Rua Marechal Cantuaria próximo ao 48","sequencia":"29","latitude":"-22.9483","longitude":"-43.1644","pontos_turisticos":[{"nome":"Praia da Urca","distancia":149}]},{"linha":"511","descricao_ponto":"BRS 2 - JOANA ANGÉLICA","sequencia":"11","latitude":"-22.9842","longitude":"-43.2041","pontos_turisticos":[{"nome":"Centro Cultural Candido Mendes","distancia":122},{"nome":"Praia de Ipanema","distancia":345},{"nome":"Teatro Ipanema","distancia":142}]},{"linha":"511","descricao_ponto":"Avenida Visconde De Albuquerque próximo ao 1335","sequencia":"5","latitude":"-22.9843","longitude":"-43.2291","pontos_turisticos":[]},{"linha":"511","descricao_ponto":"Avenida Pasteur próximo ao 458","sequencia":"25","latitude":"-22.9541","longitude":"-43.1686","pontos_turisticos":[{"nome":"Pão de Açúcar","distancia":242},{"nome":"Praia Vermelha","distancia":417},{"nome":"Teatro do Instituto Benjamin Constant","distancia":364}]},{"linha":"511","descricao_ponto":"Avenida Portugal próximo ao 546","sequencia":"4","latitude":"-22.9481","longitude":"-43.1642","pontos_turisticos":[{"nome":"Praia da Urca","distancia":122}]},{"linha":"511","descricao_ponto":"Avenida Visconde De Albuquerque próximo ao 1","sequencia":"37","latitude":"-22.9882","longitude":"-43.2283","pontos_turisticos":[]},{"linha":"511","descricao_ponto":"BRS 2 - BULHÕES DE CARVALHO","sequencia":"13","latitude":"-22.9843","longitude":"-43.1946","pontos_turisticos":[{"nome":"Parque Peter Pan","distancia":287},{"nome":"Teatro da Praia","distancia":149}]},{"linha":"511","descricao_ponto":"Avenida Visconde De Albuquerque próximo ao 961","sequencia":"35","latitude":"-22.9833","longitude":"-43.2282","pontos_turisticos":[]}]