[{"linha":"584","descricao_ponto":"Rua Marq De Abrantes próximo ao 126","sequencia":"11","latitude":"-22.9369","longitude":"-43.1775","pontos_turisticos":[]},{"linha":"584","descricao_ponto":"Rua Das Laranjeiras próximo ao 402","sequencia":"32","latitude":"-22.9378","longitude":"-43.1904","pontos_turisticos":[]},{"linha":"584","descricao_ponto":"Rua Da Passagem próximo ao 98","sequencia":"18","latitude":"-22.9526","longitude":"-43.182","pontos_turisticos":[]},{"linha":"584","descricao_ponto":"Avenida Bartolomeu Mitre próximo ao 1281","sequencia":"8","latitude":"-22.9764","longitude":"-43.2251","pontos_turisticos":[{"nome":"Jockey Club Brasileiro","distancia":289},{"nome":"Teatro Casa da Gávea","distancia":324},{"nome":"Teatro Casa do Riso","distancia":457},{"nome":"Teatro Clara Nunes","distancia":316},{"nome":"Teatro das Artes","distancia":334},{"nome":"Teatro do Jockey","distancia":69},{"nome":"Teatro dos Quatro","distancia":309},{"nome":"Teatro Vanucci","distancia":334}]},{"linha":"584","descricao_ponto":"Rua Cosme Velho próximo ao 174","sequencia":"35","latitude":"-22.9391","longitude":"-43.1961","pontos_turisticos":[{"nome":"Cristo Redentor (Corcovado)","distancia":286}]},{"linha":"584","descricao_ponto":"BRS 2 - HENRIQUE DUMONT","sequencia":"1","latitude":"-22.9849","longitude":"-43.213","pontos_turisticos":[]},{"linha":"584","descricao_ponto":"Rua Jardim Botanico próximo ao 243","sequencia":"19","latitude":"-22.9603","longitude":"-43.2046","pontos_turisticos":[]},{"linha":"584","descricao_ponto":"Rua Jardim Botanico próximo ao 291","sequencia":"17","latitude":"-22.9609","longitude":"-43.2103","pontos_turisticos":[{"nome":"Parque Lage","distancia":291}]},{"linha":"584","descricao_ponto":"Rua Das Laranjeiras próximo ao 218","sequencia":"30","latitude":"-22.9337","longitude":"-43.1863","pontos_turisticos":[{"nome":"Parque Eduardo Guinle","distancia":467}]},{"linha":"584","descricao_ponto":"BRS 2 - BOLÍVAR","sequencia":"26","latitude":"-22.9754","longitude":"-43.1922","pontos_turisticos":[{"nome":"Teatro Brigitte Blair","distancia":295}]},{"linha":"584","descricao_ponto":"Rua Das Laranjeiras próximo ao 275","sequencia":"7","latitude":"-22.9347","longitude":"-43.1879","pontos_turisticos":[]},{"linha":"584","descricao_ponto":"Avenida Bartolomeu Mitre próximo ao 680","sequencia":"5","latitude":"-22.9821","longitude":"-43.2237","pontos_turisticos":[{"nome":"Teatro Casa do Riso","distancia":267},{"nome":"Teatro Leblon","distancia":175}]},{"linha":"584","descricao_ponto":"BRS 2 - CARLOS GOIS","sequencia":"33","latitude":"-22.9848","longitude":"-43.2193","pontos_turisticos":[{"nome":"Praia do Leblon","distancia":384},{"nome":"Teatro Café Pequeno","distancia":178}]},{"linha":"584","descricao_ponto":"Avenida Rodrigo Otavio próximo ao 1003","sequencia":"40","latitude":"-22.9735","longitude":"-43.2255","pontos_turisticos":[{"nome":"Jardim Botânico","distancia":369},{"nome":"Jockey Club Brasileiro","distancia":46},{"nome":"Teatro Casa da Gávea","distancia":164},{"nome":"Teatro Clara Nunes","distancia":353},{"nome":"Teatro das Artes","distancia":378},{"nome":"Teatro do Jockey","distancia":393},{"nome":"Teatro dos Quatro","distancia":354},{"nome":"Teatro Vanucci","distancia":372}]},{"linha":"584","descricao_ponto":"Rua Jardim Botanico próximo ao 739","sequencia":"12","latitude":"-22.9671","longitude":"-43.22","pontos_turisticos":[{"nome":"Teatro Amador O Tablado","distancia":416}]},{"linha":"584","descricao_ponto":"BRS 2 - FARME DE AMOEDO","sequencia":"30","latitude":"-22.9854","longitude":"-43.2019","pontos_turisticos":[{"nome":"Casa Laura Alvin","distancia":307},{"nome":"Casa Laura Alvin","distancia":307},{"nome":"Centro Cultural Candido Mendes","distancia":329},{"nome":"Praia de Ipanema","distancia":242},{"nome":"Teatro Ipanema","distancia":296}]},{"linha":"584","descricao_ponto":"Rua Cosme Velho próximo ao 430","sequencia":"36","latitude":"-22.9405","longitude":"-43.1977","pontos_turisticos":[{"nome":"Cristo Redentor (Corcovado)","distancia":81}]},{"linha":"584","descricao_ponto":"Avenida Bartolomeu Mitre próximo ao 990","sequencia":"7","latitude":"-22.9788","longitude":"-43.2243","pontos_turisticos":[{"nome":"Teatro Casa do Riso","distancia":202},{"nome":"Teatro do Jockey","distancia":211},{"nome":"Teatro Leblon","distancia":284}]},{"linha":"584","descricao_ponto":"Rua Jardim Botanico próximo ao 414","sequencia":"16","latitude":"-22.9612","longitude":"-43.2132","pontos_turisticos":[{"nome":"Parque Lage","distancia":13}]},{"linha":"584","descricao_ponto":"Rua Das Laranjeiras próximo ao 478","sequencia":"33","latitude":"-22.9385","longitude":"-43.1928","pontos_turisticos":[]},{"linha":"584","descricao_ponto":"BRS 1,I - DEZENOVE DE FEVEREIRO","sequencia":"25","latitude":"-22.9523","longitude":"-43.1868","pontos_turisticos":[{"nome":"Fundação Casa de Rui Barbosa","distancia":318},{"nome":"Museu do Índio","distancia":463}]},{"linha":"584","descricao_ponto":"Rua Cosme Velho próximo ao 433","sequencia":"2","latitude":"-22.9405","longitude":"-43.198","pontos_turisticos":[{"nome":"Cristo Redentor (Corcovado)","distancia":50}]},{"linha":"584","descricao_ponto":"BRS 2 - REPÚBLICA DO PERU","sequencia":"23","latitude":"-22.9662","longitude":"-43.182","pontos_turisticos":[{"nome":"Praia de Copacabana","distancia":398},{"nome":"Sala Baden Powell","distancia":175},{"nome":"Teatro Gláucio Gil","distancia":152}]},{"linha":"584","descricao_ponto":"Avenida Bartolomeu Mitre próximo ao 630","sequencia":"36","latitude":"-22.9807","longitude":"-43.2238","pontos_turisticos":[{"nome":"Teatro Casa do Riso","distancia":144},{"nome":"Teatro do Jockey","distancia":428},{"nome":"Teatro Leblon","distancia":119}]},{"linha":"584","descricao_ponto":"BRS 2 - SOUSA LIMA","sequencia":"27","latitude":"-22.9817","longitude":"-43.1924","pontos_turisticos":[{"nome":"Parque Peter Pan","distancia":169},{"nome":"Teatro Brigitte Blair","distancia":435},{"nome":"Teatro da Praia","distancia":236}]},{"linha":"584","descricao_ponto":"Avenida Bartolomeu Mitre próximo ao 95","sequencia":"9","latitude":"-22.9751","longitude":"-43.2258","pontos_turisticos":[{"nome":"Jockey Club Brasileiro","distancia":138},{"nome":"Teatro Casa da Gávea","distancia":167},{"nome":"Teatro Clara Nunes","distancia":240},{"nome":"Teatro das Artes","distancia":264},{"nome":"Teatro do Jockey","distancia":229},{"nome":"Teatro dos Quatro","distancia":236},{"nome":"Teatro Vanucci","distancia":260}]},{"linha":"584","descricao_ponto":"Rua Marq De Abrantes próximo ao 255","sequencia":"9","latitude":"-22.9339","longitude":"-43.1773","pontos_turisticos":[{"nome":"Oi Futuro","distancia":444}]},{"linha":"584","descricao_ponto":"BRS 3, I - VISCONDE DE OURO PRETO","sequencia":"16","latitude":"-22.9464","longitude":"-43.1826","pontos_turisticos":[{"nome":"Praia de Botafogo","distancia":230},{"nome":"Teatro Bibi Ferreira","distancia":282}]},{"linha":"584","descricao_ponto":"Rua Jardim Botanico próximo ao 728","sequencia":"13","latitude":"-22.966","longitude":"-43.2191","pontos_turisticos":[{"nome":"Teatro Amador O Tablado","distancia":278}]},{"linha":"584","descricao_ponto":"Rua Jardim Botanico próximo ao 67","sequencia":"18","latitude":"-22.9606","longitude":"-43.2072","pontos_turisticos":[]},{"linha":"584","descricao_ponto":"BRS 2 - GARCIA D ÁVILA","sequencia":"31","latitude":"-22.9851","longitude":"-43.2087","pontos_turisticos":[{"nome":"Centro Cultural Candido Mendes","distancia":374},{"nome":"Teatro Ipanema","distancia":401}]},{"linha":"584","descricao_ponto":"Rua Das Laranjeiras próximo ao 515","sequencia":"5","latitude":"-22.9385","longitude":"-43.1925","pontos_turisticos":[]},{"linha":"584","descricao_ponto":"Rua Marq De Abrantes próximo ao 78","sequencia":"10","latitude":"-22.9356","longitude":"-43.1772","pontos_turisticos":[]},{"linha":"584","descricao_ponto":"Rua Jardim Botanico próximo ao 308","sequencia":"15","latitude":"-22.9622","longitude":"-43.2155","pontos_turisticos":[{"nome":"Parque Lage","distancia":265},{"nome":"Teatro Amador O Tablado","distancia":339}]},{"linha":"584","descricao_ponto":"BRS 1,I - NELSON MANDELA","sequencia":"26","latitude":"-22.9511","longitude":"-43.1836","pontos_turisticos":[{"nome":"Fundação Casa de Rui Barbosa","distancia":386}]},{"linha":"584","descricao_ponto":"Viaduto Engenheiro Noronha próximo ao 172","sequencia":"29","latitude":"-22.9334","longitude":"-43.1845","pontos_turisticos":[{"nome":"Parque Eduardo Guinle","distancia":303}]},{"linha":"584","descricao_ponto":"BRS 1, 2, 3, I - DUVIVIER","sequencia":"22","latitude":"-22.9638","longitude":"-43.1784","pontos_turisticos":[{"nome":"Sala Baden Powell","distancia":434},{"nome":"Teatro Gláucio Gil","distancia":303},{"nome":"Teatro Princesa Isabel","distancia":428},{"nome":"Teatro Villa Lobos","distancia":423}]},{"linha":"584","descricao_ponto":"BRS 2 - HENRIQUE DUMONT","sequencia":"32","latitude":"-22.9849","longitude":"-43.213","pontos_turisticos":[]},{"linha":"584","descricao_ponto":"BRS 2 - FIGUEIREDO MAGALHÃES","sequencia":"24","latitude":"-22.9688","longitude":"-43.186","pontos_turisticos":[]},{"linha":"584","descricao_ponto":"Avenida Bartolomeu Mitre próximo ao 310","sequencia":"3","latitude":"-22.9838","longitude":"-43.2233","pontos_turisticos":[{"nome":"Praia do Leblon","distancia":412},{"nome":"Teatro Casa do Riso","distancia":440},{"nome":"Teatro Leblon","distancia":335}]},{"linha":"584","descricao_ponto":"Rua Marq De Abrantes próximo ao 192","sequencia":"12","latitude":"-22.9398","longitude":"-43.1783","pontos_turisticos":[]},{"linha":"584","descricao_ponto":"Rua Da Passagem próximo ao 122","sequencia":"19","latitude":"-22.9536","longitude":"-43.1815","pontos_turisticos":[]},{"linha":"584","descricao_ponto":"Rua Jardim Botanico próximo ao 943","sequencia":"11","latitude":"-22.9701","longitude":"-43.2225","pontos_turisticos":[{"nome":"Jardim Botânico","distancia":118}]},{"linha":"584","descricao_ponto":"Rua Jardim Botanico próximo ao 200","sequencia":"11","latitude":"-22.9701","longitude":"-43.2225","pontos_turisticos":[{"nome":"Jardim Botânico","distancia":118}]},{"linha":"584","descricao_ponto":"Rua Cosme Velho próximo ao 155","sequencia":"3","latitude":"-22.9394","longitude":"-43.1961","pontos_turisticos":[{"nome":"Cristo Redentor (Corcovado)","distancia":270}]},{"linha":"584","descricao_ponto":"Rua Da Passagem próximo ao 146","sequencia":"20","latitude":"-22.9549","longitude":"-43.1808","pontos_turisticos":[]},{"linha":"584","descricao_ponto":"Avenida Bartolomeu Mitre próximo ao 1281","sequencia":"38","latitude":"-22.9764","longitude":"-43.2251","pontos_turisticos":[{"nome":"Jockey Club Brasileiro","distancia":289},{"nome":"Teatro Casa da Gávea","distancia":324},{"nome":"Teatro Casa do Riso","distancia":457},{"nome":"Teatro Clara Nunes","distancia":316},{"nome":"Teatro das Artes","distancia":334},{"nome":"Teatro do Jockey","distancia":69},{"nome":"Teatro dos Quatro","distancia":309},{"nome":"Teatro Vanucci","distancia":334}]},{"linha":"584","descricao_ponto":"Rua Farani próximo ao 8","sequencia":"28","latitude":"-22.9412","longitude":"-43.182","pontos_turisticos":[{"nome":"Praia de Botafogo","distancia":451}]},{"linha":"584","descricao_ponto":"Avenida Bartolomeu Mitre próximo ao 630","sequencia":"6","latitude":"-22.9807","longitude":"-43.2238","pontos_turisticos":[{"nome":"Teatro Casa do Riso","distancia":144},{"nome":"Teatro do Jockey","distancia":428},{"nome":"Teatro Leblon","distancia":119}]},{"linha":"584","descricao_ponto":"Rua Das Laranjeiras próximo ao 540","sequencia":"4","latitude":"-22.9385","longitude":"-43.1942","pontos_turisticos":[{"nome":"Cristo Redentor (Corcovado)","distancia":489}]},{"linha":"584","descricao_ponto":"BRS 1 - MARQUÊS DE OLINDA","sequencia":"15","latitude":"-22.9448","longitude":"-43.1823","pontos_turisticos":[{"nome":"Praia de Botafogo","distancia":153},{"nome":"Teatro Bibi Ferreira","distancia":341}]},{"linha":"584","descricao_ponto":"Rua Cosme Velho próximo ao 563","sequencia":"34","latitude":"-22.9383","longitude":"-43.1947","pontos_turisticos":[{"nome":"Cristo Redentor (Corcovado)","distancia":454}]},{"linha":"584","descricao_ponto":"BRS 2 - RAUL POMPÉIA","sequencia":"28","latitude":"-22.9852","longitude":"-43.192","pontos_turisticos":[{"nome":"Forte de Copacabana","distancia":431},{"nome":"Parque Peter Pan","distancia":224},{"nome":"Praia do Arpoador","distancia":418},{"nome":"Teatro da Praia","distancia":222}]},{"linha":"584","descricao_ponto":"Avenida Bartolomeu Mitre próximo ao 310","sequencia":"34","latitude":"-22.9838","longitude":"-43.2233","pontos_turisticos":[{"nome":"Praia do Leblon","distancia":412},{"nome":"Teatro Casa do Riso","distancia":440},{"nome":"Teatro Leblon","distancia":335}]},{"linha":"584","descricao_ponto":"Avenida Bartolomeu Mitre próximo ao 95","sequencia":"39","latitude":"-22.9751","longitude":"-43.2258","pontos_turisticos":[{"nome":"Jockey Club Brasileiro","distancia":138},{"nome":"Teatro Casa da Gávea","distancia":167},{"nome":"Teatro Clara Nunes","distancia":240},{"nome":"Teatro das Artes","distancia":264},{"nome":"Teatro do Jockey","distancia":229},{"nome":"Teatro dos Quatro","distancia":236},{"nome":"Teatro Vanucci","distancia":260}]},{"linha":"584","descricao_ponto":"Rua Das Laranjeiras próximo ao 336","sequencia":"31","latitude":"-22.9357","longitude":"-43.1895","pontos_turisticos":[]},{"linha":"584","descricao_ponto":"Avenida Bartolomeu Mitre próximo ao 409","sequencia":"4","latitude":"-22.9827","longitude":"-43.2236","pontos_turisticos":[{"nome":"Teatro Casa do Riso","distancia":327},{"nome":"Teatro Leblon","distancia":227}]},{"linha":"584","descricao_ponto":"Avenida Bartolomeu Mitre próximo ao 680","sequencia":"35","latitude":"-22.9821","longitude":"-43.2237","pontos_turisticos":[{"nome":"Teatro Casa do Riso","distancia":267},{"nome":"Teatro Leblon","distancia":175}]},{"linha":"584","descricao_ponto":"BRS 1,2 - VISCONDE DE OURO PRETO","sequencia":"17","latitude":"-22.9472","longitude":"-43.1825","pontos_turisticos":[{"nome":"Praia de Botafogo","distancia":287},{"nome":"Teatro Bibi Ferreira","distancia":316}]},{"linha":"584","descricao_ponto":"BRS 1,2,3,I - MACEDO SOBRINHO","sequencia":"21","latitude":"-22.9572","longitude":"-43.1988","pontos_turisticos":[{"nome":"Espaço Cultura Sergio Porto","distancia":147}]},{"linha":"584","descricao_ponto":"Rua General Goes Monteiro próximo ao 146","sequencia":"21","latitude":"-22.9556","longitude":"-43.1785","pontos_turisticos":[]},{"linha":"584","descricao_ponto":"Rua Jardim Botanico próximo ao 633","sequencia":"14","latitude":"-22.9649","longitude":"-43.2182","pontos_turisticos":[{"nome":"Teatro Amador O Tablado","distancia":168}]},{"linha":"584","descricao_ponto":"BRS 1,2A,3,I - ENG. MARQUES PORTO","sequencia":"20","latitude":"-22.9596","longitude":"-43.2015","pontos_turisticos":[{"nome":"Espaço Cultura Sergio Porto","distancia":244}]},{"linha":"584","descricao_ponto":"Avenida Bartolomeu Mitre próximo ao 990","sequencia":"37","latitude":"-22.9788","longitude":"-43.2243","pontos_turisticos":[{"nome":"Teatro Casa do Riso","distancia":202},{"nome":"Teatro do Jockey","distancia":211},{"nome":"Teatro Leblon","distancia":284}]},{"linha":"584","descricao_ponto":"BRS 2 - RAIMUNDO CORREIA","sequencia":"25","latitude":"-22.9717","longitude":"-43.1897","pontos_turisticos":[]},{"linha":"584","descricao_ponto":"Avenida Rodrigo Otavio próximo ao 1003","sequencia":"10","latitude":"-22.9735","longitude":"-43.2255","pontos_turisticos":[{"nome":"Jardim Botânico","distancia":369},{"nome":"Jockey Club Brasileiro","distancia":46},{"nome":"Teatro Casa da Gávea","distancia":164},{"nome":"Teatro Clara Nunes","distancia":353},{"nome":"Teatro das Artes","distancia":378},{"nome":"Teatro do Jockey","distancia":393},{"nome":"Teatro dos Quatro","distancia":354},{"nome":"Teatro Vanucci","distancia":372}]},{"linha":"584","descricao_ponto":"BRS 2 - CARLOS GOIS","sequencia":"2","latitude":"-22.9848","longitude":"-43.2193","pontos_turisticos":[{"nome":"Praia do Leblon","distancia":384},{"nome":"Teatro Café Pequeno","distancia":178}]},{"linha":"584","descricao_ponto":"BRS 1,I - CONDE DE IRAJÁ","sequencia":"22","latitude":"-22.9551","longitude":"-43.195","pontos_turisticos":[]},{"linha":"584","descricao_ponto":"BRS 1,2,3,I - VISCONDE DE OURO PRETO","sequencia":"27","latitude":"-22.9472","longitude":"-43.1822","pontos_turisticos":[{"nome":"Praia de Botafogo","distancia":270},{"nome":"Teatro Bibi Ferreira","distancia":344}]},{"linha":"584","descricao_ponto":"BRS 2 - VISCONDE DE OURO PRETO","sequencia":"27","latitude":"-22.9472","longitude":"-43.1822","pontos_turisticos":[{"nome":"Praia de Botafogo","distancia":270},{"nome":"Teatro Bibi Ferreira","distancia":344}]}]