[{"nome":"Arcos da Lapa","latitude":"-22.912867","longitude":"-43.179908","endereco":"Praça Cardeal Câmara, s/n - Lapa"},{"nome":"Biblioteca Nacional","latitude":"-22.909770","longitude":"-43.175689","endereco":"Avenida Rio Branco, 219 - Centro"},{"nome":"Campo de Santana","latitude":"-22.906667","longitude":"-43.188333","endereco":"Avenida Presidente Vargas, s/n - Centro"},{"nome":"Casa França Brasil","latitude":"-22.900394","longitude":"-43.175986","endereco":"Rua Visconde de Itaboraí, 78 - Centro"},{"nome":"Catedral Metropolitana","latitude":"-22.910887","longitude":"-43.180728","endereco":"Avenida República do Chile, 245 - Centro"},{"nome":"Centro Cultural Banco do Brasil","latitude":"-22.900606","longitude":"-43.176517","endereco":"Rua Primeiro de Março, 66 - Centro"},{"nome":"Centro Cultural dos Correios","latitude":"-22.901291","longitude":"-43.175839","endereco":"Rua Visconde de Itaboraí, 20 - Centro"},{"nome":"Cidade do Samba","latitude":"-22.894338","longitude":"-43.197015","endereco":"Rua Rivadávia Correia, 60 - Gamboa"},{"nome":"Confeitaria Colombo","latitude":"-22.905249","longitude":"-43.178803","endereco":"Rua Gonçalves Dias, 32 - Centro"},{"nome":"Espaço Cultural da Marinha","latitude":"-22.901083","longitude":"-43.174447","endereco":"Avenida Alfred Agache, s/n - Centro"},{"nome":"Igreja de São Francisco da Penitência","latitude":"-22.906907","longitude":"-43.179261","endereco":"Largo da Carioca, 5 - Centro"},{"nome":"Igreja e Convento de Santa Teresa","latitude":"-22.915657","longitude":"-43.180307","endereco":"Ladeira de Santa Teresa, 52 - Santa Teresa"},{"nome":"Igreja Nossa Senhora da Candelária","latitude":"-22.900735","longitude":"-43.177643","endereco":"Praça Pio X, s/n - Centro"},{"nome":"Igreja Nossa Senhora da Glória do Outeiro","latitude":"-22.921327","longitude":"-43.175339","endereco":"Ladeira da Glória, s/n - Glória"},{"nome":"Igreja Nossa Senhora do Carmo da Antiga Sé","latitude":"-22.903240","longitude":"-43.175264","endereco":"Rua 7 de Setembro, 12 - Centro"},{"nome":"Ilha Fiscal","latitude":"-22.896944","longitude":"-43.166111","endereco":"Avenida Alfred Agache, s/n - Centro"},{"nome":"Memorial dos Pretos Novos","latitude":"-22.896071","longitude":"-43.192958","endereco":"Rua Pedro Ernesto, 34 - Gamboa"},{"nome":"Monumento aos Pracinhas","latitude":"-22.916495","longitude":"-43.174055","endereco":"Aterro do Flamengo, s/n - Flamengo"},{"nome":"Mosteiro de São Bento","latitude":"-22.896747","longitude":"-43.177885","endereco":"Rua Dom Gerardo, 68 - Centro"},{"nome":"Museu de Arte do Rio","latitude":"-22.896174","longitude":"-43.181736","endereco":"Praça Mauá, 5 - Centro"},{"nome":"Museu da Chácara do Céu","latitude":"-22.917345","longitude":"-43.184135","endereco":"Rua Murtinho Nobre, 93 - Santa Teresa"},{"nome":"Museu de Arte Moderna","latitude":"-22.913817","longitude":"-43.173207","endereco":"Avenida Infante Dom Henrique, 85 - Flamengo"},{"nome":"Museu do Clube Naval","latitude":"-22.908181","longitude":"-43.176617","endereco":"Avenida almirante Barroso, 63 - Centro"},{"nome":"Museu Histórico Nacional","latitude":"-22.905556","longitude":"-43.169444","endereco":"Praça Marechal Âncora, s/n - Centro"},{"nome":"Museu Nacional de Belas Artes","latitude":"-22.908900","longitude":"-43.176096","endereco":"Avenida Rio Branco, 199 - Centro"},{"nome":"Paço Imperial","latitude":"-22.903544","longitude":"-43.174265","endereco":"Praça XV, s/n - Centro"},{"nome":"Palácio Tiradentes","latitude":"-22.904107","longitude":"-43.174227","endereco":"Rua Primeiro de Março, s/n - Centro"},{"nome":"Parque das Ruínas","latitude":"-22.917560","longitude":"-43.182462","endereco":"Rua Murtinho Nobre, 169 - Santa Teresa"},{"nome":"Praça Paris","latitude":"-22.917222","longitude":"-43.175833","endereco":"Avenida Augusto Severo, s/n - Glória"},{"nome":"Real Gabinete Português de Leitura","latitude":"-22.905466","longitude":"-43.182171","endereco":"Rua Luís de Camões, 30 - Centro"},{"nome":"Sala Cecília Meireles","latitude":"-22.914348","longitude":"-43.178233","endereco":"Rua da Lapa, 47 - Lapa"},{"nome":"Sambódromo","latitude":"-22.911470","longitude":"-43.196838","endereco":"Rua Marquês de Sapucaí, s/n - Santo Cristo"},{"nome":"Teatro Carlos Gomes","latitude":"-22.907223","longitude":"-43.182519","endereco":"Rua Pedro Primeiro, 4A - Centro"},{"nome":"Teatro Dulcina","latitude":"-22.910700","longitude":"-43.177058","endereco":"Rua Alcindo Guanabara, 17 - Centro"},{"nome":"Teatro Glauce Rocha","latitude":"-22.907265","longitude":"-43.176726","endereco":"Avenida Rio Branco, 179 - Centro"},{"nome":"Teatro João Caetano","latitude":"-22.906390","longitude":"-43.182289","endereco":"Praça Tiradentes, s/n - Centro"},{"nome":"Teatro Municipal","latitude":"-22.909392","longitude":"-43.176388","endereco":"Praça Marechal Floriano, s/n - Centro"},{"nome":"Teatro Rival Petrobras","latitude":"-22.911194","longitude":"-43.176263","endereco":"Rua Álvaro Alvim, 33 - Cinelândia"},{"nome":"Espaço Cultura Sergio Porto","latitude":"-22.958328","longitude":"-43.199558","endereco":"Rua Humaitá, 163 - Humaitá"},{"nome":"Fundação Casa de Rui Barbosa","latitude":"-22.949440","longitude":"-43.186908","endereco":"Rua São Clemente, 134 - Botafogo"},{"nome":"Mirante Dona Marta","latitude":"-22.945913","longitude":"-43.197438","endereco":"Estrada Mirante Dona Marta, s/n - Santa Teresa"},{"nome":"Museu Carmem Miranda","latitude":"-22.941391","longitude":"-43.172410","endereco":"Avenida Rui Barbosa, s/n - Flamengo"},{"nome":"Museu do Índio","latitude":"-22.952010","longitude":"-43.191312","endereco":"Rua das Palmeiras, 55 - Botafogo"},{"nome":"Pão de Açúcar","latitude":"-22.955588","longitude":"-43.166875","endereco":"Avenida Pasteur, 520 - Urca"},{"nome":"Praia de Botafogo","latitude":"-22.945115","longitude":"-43.180842","endereco":"Avenida das Nações Unidas, s/n - Botafogo"},{"nome":"Praia de Copacabana","latitude":"-22.968588","longitude":"-43.179109","endereco":"Avenida Atlântica, s/n - Copacabana"},{"nome":"Praia Leme","latitude":"-22.963194","longitude":"-43.166596","endereco":"Avenida Atlântica, s/n - Leme"},{"nome":"Praia Vermelha","latitude":"-22.955079","longitude":"-43.164673","endereco":"Praça General Tibúrcio, s/n - Urca"},{"nome":"Sala Baden Powell","latitude":"-22.967121","longitude":"-43.180619","endereco":"Avenida Nossa Senhora de Copacabana, 360 - Copacabana"},{"nome":"Teatro Bibi Ferreira","latitude":"-22.946069","longitude":"-43.185328","endereco":"Rua Visconde de Ouro Preto, 78 - Botafogo"},{"nome":"Teatro do Instituto Benjamin Constant","latitude":"-22.953049","longitude":"-43.171969","endereco":"Avenida Pasteur, 350 - Urca"},{"nome":"Teatro Gláucio Gil","latitude":"-22.965395","longitude":"-43.180805","endereco":"Praça Cardeal Arcoverde, s/n - Copacabana"},{"nome":"Teatro Princesa Isabel","latitude":"-22.963013","longitude":"-43.174309","endereco":"Avenida Princesa Isabel, 186 - Copacabana"},{"nome":"Teatro Villa Lobos","latitude":"-22.961308","longitude":"-43.175283","endereco":"Avenida Princesa Isabel, 440 - Copacabana"},{"nome":"Fortaleza de São João","latitude":"-22.940278","longitude":"-43.151389","endereco":"Avenida João Luís Alves, s/n - Urca"},{"nome":"Praia da Urca","latitude":"-22.947778","longitude":"-43.163056","endereco":"Avenida João Luís Alves, 33 - Urca"},{"nome":"Aterro do Flamengo","latitude":"-22.928990","longitude":"-43.171813","endereco":"Avenida Infante Dom Henrique, s/n - Flamengo"},{"nome":"Museu da República","latitude":"-22.925868","longitude":"-43.176447","endereco":"Rua do Catete, 160 - Catete"},{"nome":"Museu de Folclore Edison Carneiro","latitude":"-22.926054","longitude":"-43.176409","endereco":"Rua do Catete, 181 - Catete"},{"nome":"Oi Futuro","latitude":"-22.930000","longitude":"-43.176389","endereco":"Rua Dois de Dezembro, 63 - Flamengo"},{"nome":"Parque Eduardo Guinle","latitude":"-22.931401","longitude":"-43.182485","endereco":"Rua Gago Coutinho, 66 - Laranjeiras"},{"nome":"Praia do Flamengo","latitude":"-22.929425","longitude":"-43.171299","endereco":"Avenida Infante Dom Henrique, s/n - Flamengo"},{"nome":"Teatro Glória","latitude":"-22.922971","longitude":"-43.172697","endereco":"Rua do Russel, 632 - Glória"},{"nome":"Academia Brasileira de Letras","latitude":"-22.910877","longitude":"-43.172971","endereco":"Avenida Presidente Wilson, 203 - Centro"},{"nome":"Cristo Redentor (Corcovado)","latitude":"-22.940436","longitude":"-43.198484","endereco":"Rua Cosme Velho, 513 - Cosme Velho"}]