[{"nome":"Jardim Zoológico (Riozoo)","latitude":"-22.904393","longitude":"-43.228820","endereco":"Quinta da Boa Vista, s/n - São Cristóvão"},{"nome":"Quinta da Boa Vista/Museu Nacional","latitude":"-22.905441","longitude":"-43.224884","endereco":"Quinta da Boa Vista, s/n - São Cristóvão"},{"nome":"Teatro Mário Lago","latitude":"-22.899178","longitude":"-43.220859","endereco":"Campo de São Cristóvão, 177 - São Cristóvão"},{"nome":"Centro Luiz Gonzaga de Tradições Nordestinas","latitude":"-22.896809","longitude":"-43.219341","endereco":"Pavilhão de São Cristóvão, s/n - São Cristóvão"},{"nome":"Cidade do Samba","latitude":"-22.894338","longitude":"-43.197015","endereco":"Rua Rivadávia Correia, 60 - Gamboa"},{"nome":"Memorial dos Pretos Novos","latitude":"-22.896071","longitude":"-43.192958","endereco":"Rua Pedro Ernesto, 34 - Gamboa"},{"nome":"Sambódromo","latitude":"-22.911470","longitude":"-43.196838","endereco":"Rua Marquês de Sapucaí, s/n - Santo Cristo"}]