[{"nome":"Cristo Redentor (Corcovado)","latitude":"-22.940436","longitude":"-43.198484","endereco":"Rua Cosme Velho, 513 - Cosme Velho"},{"nome":"Fundação Casa de Rui Barbosa","latitude":"-22.949440","longitude":"-43.186908","endereco":"Rua São Clemente, 134 - Botafogo"},{"nome":"Mirante Dona Marta","latitude":"-22.945913","longitude":"-43.197438","endereco":"Estrada Mirante Dona Marta, s/n - Santa Teresa"},{"nome":"Museu Carmem Miranda","latitude":"-22.941391","longitude":"-43.172410","endereco":"Avenida Rui Barbosa, s/n - Flamengo"},{"nome":"Museu da República","latitude":"-22.925868","longitude":"-43.176447","endereco":"Rua do Catete, 160 - Catete"},{"nome":"Museu de Folclore Edison Carneiro","latitude":"-22.926054","longitude":"-43.176409","endereco":"Rua do Catete, 181 - Catete"},{"nome":"Museu do Índio","latitude":"-22.952010","longitude":"-43.191312","endereco":"Rua das Palmeiras, 55 - Botafogo"},{"nome":"Oi Futuro","latitude":"-22.930000","longitude":"-43.176389","endereco":"Rua Dois de Dezembro, 63 - Flamengo"},{"nome":"Parque Eduardo Guinle","latitude":"-22.931401","longitude":"-43.182485","endereco":"Rua Gago Coutinho, 66 - Laranjeiras"},{"nome":"Praia de Botafogo","latitude":"-22.945115","longitude":"-43.180842","endereco":"Avenida das Nações Unidas, s/n - Botafogo"},{"nome":"Praia do Flamengo","latitude":"-22.929425","longitude":"-43.171299","endereco":"Avenida Infante Dom Henrique, s/n - Flamengo"},{"nome":"Santa Teresa","latitude":"-22.931944","longitude":"-43.198056","endereco":"Santa Teresa, s/n - Santa Teresa"},{"nome":"Teatro Bibi Ferreira","latitude":"-22.946069","longitude":"-43.185328","endereco":"Rua Visconde de Ouro Preto, 78 - Botafogo"},{"nome":"Teatro do Instituto Benjamin Constant","latitude":"-22.953049","longitude":"-43.171969","endereco":"Avenida Pasteur, 350 - Urca"},{"nome":"Aterro do Flamengo","latitude":"-22.928990","longitude":"-43.171813","endereco":"Avenida Infante Dom Henrique, s/n - Flamengo"},{"nome":"Pão de Açúcar","latitude":"-22.955588","longitude":"-43.166875","endereco":"Avenida Pasteur, 520 - Urca"},{"nome":"Praia da Urca","latitude":"-22.947778","longitude":"-43.163056","endereco":"Avenida João Luís Alves, 33 - Urca"},{"nome":"Casa Laura Alvin","latitude":"-22.986681","longitude":"-43.199243","endereco":"Avenida Vieira Souto, 176 - Ipanema"},{"nome":"Centro Cultural Candido Mendes","latitude":"-22.984857","longitude":"-43.205058","endereco":"Rua Joana Angélica, 63 - Ipanema"},{"nome":"Forte de Copacabana","latitude":"-22.985822","longitude":"-43.187846","endereco":"Praça Coronel Eugênio Franco, 1 - Copacabana"},{"nome":"Fundação Eva Klabin Rapaport","latitude":"-22.975969","longitude":"-43.198141","endereco":"Avenida Epitácio Pessoa, 2480 - Lagoa"},{"nome":"Parque Peter Pan","latitude":"-22.983185","longitude":"-43.192067","endereco":"Rua Francisco Sá, s/n - Copacabana"},{"nome":"Praia de Ipanema","latitude":"-22.987197","longitude":"-43.203228","endereco":"Avenida Vieira Souto, s/n - Ipanema"},{"nome":"Praia do Arpoador","latitude":"-22.988889","longitude":"-43.192778","endereco":"Avenida Francisco Bering, s/n - Ipanema"},{"nome":"Teatro Brigitte Blair","latitude":"-22.977920","longitude":"-43.191293","endereco":"Rua Miguel Lemos, 51 - Copacabana"},{"nome":"Teatro da Praia","latitude":"-22.983633","longitude":"-43.193341","endereco":"Rua Francisco Sá, 88 - Copacabana"},{"nome":"Teatro Ipanema","latitude":"-22.985310","longitude":"-43.204790","endereco":"Rua Prudente de Morais, 824 - Ipanema"},{"nome":"Centro Luiz Gonzaga de Tradições Nordestinas","latitude":"-22.896809","longitude":"-43.219341","endereco":"Pavilhão de São Cristóvão, s/n - São Cristóvão"},{"nome":"Jardim Zoológico (Riozoo)","latitude":"-22.904393","longitude":"-43.228820","endereco":"Quinta da Boa Vista, s/n - São Cristóvão"},{"nome":"Quinta da Boa Vista/Museu Nacional","latitude":"-22.905441","longitude":"-43.224884","endereco":"Quinta da Boa Vista, s/n - São Cristóvão"},{"nome":"Teatro Mário Lago","latitude":"-22.899178","longitude":"-43.220859","endereco":"Campo de São Cristóvão, 177 - São Cristóvão"},{"nome":"Teatro Noel Rosa","latitude":"-22.910731","longitude":"-43.237617","endereco":"Rua São Francisco Xavier, 524 - Maracanã"},{"nome":"Teatro Odylo Costa Filho","latitude":"-22.910556","longitude":"-43.235000","endereco":"Rua São Francisco Xavier, 524 - Maracanã"},{"nome":"Jardim Botânico","latitude":"-22.970885","longitude":"-43.223279","endereco":"Rua Jardim Botânico, 1008 - Jardim Botânico"},{"nome":"Jockey Club Brasileiro","latitude":"-22.973863","longitude":"-43.225714","endereco":"Praça Santos Dumont, s/n - Gávea"},{"nome":"Planetário","latitude":"-22.978839","longitude":"-43.230247","endereco":"Rua Vice-governador Rubens Berardo, 100 - Gávea"},{"nome":"Praia do Leblon","latitude":"-22.987276","longitude":"-43.221914","endereco":"Avenida Delfim Moreira, s/n - Leblon"},{"nome":"Teatro Café Pequeno","latitude":"-22.983817","longitude":"-43.217927","endereco":"Avenida Ataulfo de Paiva, 269 - Leblon"},{"nome":"Teatro Casa da Gávea","latitude":"-22.974058","longitude":"-43.226980","endereco":"Praça Santos Dumont, 116 - Gávea"},{"nome":"Teatro Casa do Riso","latitude":"-22.979878","longitude":"-43.222715","endereco":"Rua Adalberto Ferreira, 32 - Leblon"},{"nome":"Teatro Clara Nunes","latitude":"-22.975621","longitude":"-43.228071","endereco":"Rua Marquês de São Vicente, 52 - Gávea"},{"nome":"Teatro das Artes","latitude":"-22.975730","longitude":"-43.228284","endereco":"Rua Marquês de São Vicente, 52 - Gávea"},{"nome":"Teatro do Jockey","latitude":"-22.976997","longitude":"-43.224933","endereco":"Rua Bartolomeu Mitre, 1110 - Jardim Botânico"},{"nome":"Teatro dos Quatro","latitude":"-22.975678","longitude":"-43.228018","endereco":"Rua Marquês de São Vicente, 52 - Gávea"},{"nome":"Teatro Leblon","latitude":"-22.980851","longitude":"-43.222653","endereco":"Rua Conde de Bernadotte, 26 - Leblon"},{"nome":"Teatro Maria Clara Machado","latitude":"-22.978844","longitude":"-43.230249","endereco":"Avenida Padre Leonel Franca, 240 - Gávea"},{"nome":"Teatro Vanucci","latitude":"-22.975678","longitude":"-43.228262","endereco":"Rua Marquês de São Vicente, 52 - Gávea"},{"nome":"Estádio do Maracanã","latitude":"-22.913604","longitude":"-43.231068","endereco":"Rua Professor Eurico Rabelo, s/n - Maracanã"},{"nome":"Teatro Ziembinski","latitude":"-22.920947","longitude":"-43.223917","endereco":"Avenida Heitor Beltrão, s/n - Tijuca"},{"nome":"Parque da Cidade","latitude":"-22.977500","longitude":"-43.245556","endereco":"Estrada Santa Marinha, 505 - Gávea"},{"nome":"Vista Chinesa","latitude":"-22.973255","longitude":"-43.249548","endereco":"Estrada da Vista Chinesa, 789 - Alto da Boa Vista"},{"nome":"Teatro Miguel Falabella","latitude":"-22.887453","longitude":"-43.283012","endereco":"Avenida Dom Hélder Câmara, 5474 - Cachambi"},{"nome":"Igreja Nossa Senhora da Glória do Outeiro","latitude":"-22.921327","longitude":"-43.175339","endereco":"Ladeira da Glória, s/n - Glória"},{"nome":"Museu da Chácara do Céu","latitude":"-22.917345","longitude":"-43.184135","endereco":"Rua Murtinho Nobre, 93 - Santa Teresa"},{"nome":"Parque das Ruínas","latitude":"-22.917560","longitude":"-43.182462","endereco":"Rua Murtinho Nobre, 169 - Santa Teresa"},{"nome":"Teatro Glória","latitude":"-22.922971","longitude":"-43.172697","endereco":"Rua do Russel, 632 - Glória"},{"nome":"Espaço Cultura Sergio Porto","latitude":"-22.958328","longitude":"-43.199558","endereco":"Rua Humaitá, 163 - Humaitá"},{"nome":"Praia de Copacabana","latitude":"-22.968588","longitude":"-43.179109","endereco":"Avenida Atlântica, s/n - Copacabana"},{"nome":"Sala Baden Powell","latitude":"-22.967121","longitude":"-43.180619","endereco":"Avenida Nossa Senhora de Copacabana, 360 - Copacabana"},{"nome":"Teatro Gláucio Gil","latitude":"-22.965395","longitude":"-43.180805","endereco":"Praça Cardeal Arcoverde, s/n - Copacabana"},{"nome":"Lagoa Rodrigo de Freitas","latitude":"-22.971314","longitude":"-43.211725","endereco":"Avenida Epitácio Pessoa, s/n - Lagoa"},{"nome":"Campo de Santana","latitude":"-22.906667","longitude":"-43.188333","endereco":"Avenida Presidente Vargas, s/n - Centro"},{"nome":"Catedral Metropolitana","latitude":"-22.910887","longitude":"-43.180728","endereco":"Avenida República do Chile, 245 - Centro"},{"nome":"Cidade do Samba","latitude":"-22.894338","longitude":"-43.197015","endereco":"Rua Rivadávia Correia, 60 - Gamboa"},{"nome":"Memorial dos Pretos Novos","latitude":"-22.896071","longitude":"-43.192958","endereco":"Rua Pedro Ernesto, 34 - Gamboa"},{"nome":"Real Gabinete Português de Leitura","latitude":"-22.905466","longitude":"-43.182171","endereco":"Rua Luís de Camões, 30 - Centro"},{"nome":"Sambódromo","latitude":"-22.911470","longitude":"-43.196838","endereco":"Rua Marquês de Sapucaí, s/n - Santo Cristo"},{"nome":"Teatro Carlos Gomes","latitude":"-22.907223","longitude":"-43.182519","endereco":"Rua Pedro Primeiro, 4A - Centro"},{"nome":"Teatro João Caetano","latitude":"-22.906390","longitude":"-43.182289","endereco":"Praça Tiradentes, s/n - Centro"},{"nome":"Arcos da Lapa","latitude":"-22.912867","longitude":"-43.179908","endereco":"Praça Cardeal Câmara, s/n - Lapa"},{"nome":"Confeitaria Colombo","latitude":"-22.905249","longitude":"-43.178803","endereco":"Rua Gonçalves Dias, 32 - Centro"},{"nome":"Igreja de São Francisco da Penitência","latitude":"-22.906907","longitude":"-43.179261","endereco":"Largo da Carioca, 5 - Centro"},{"nome":"Igreja e Convento de Santa Teresa","latitude":"-22.915657","longitude":"-43.180307","endereco":"Ladeira de Santa Teresa, 52 - Santa Teresa"},{"nome":"Praia Vermelha","latitude":"-22.955079","longitude":"-43.164673","endereco":"Praça General Tibúrcio, s/n - Urca"},{"nome":"Teatro Princesa Isabel","latitude":"-22.963013","longitude":"-43.174309","endereco":"Avenida Princesa Isabel, 186 - Copacabana"},{"nome":"Teatro Villa Lobos","latitude":"-22.961308","longitude":"-43.175283","endereco":"Avenida Princesa Isabel, 440 - Copacabana"},{"nome":"Praia Leme","latitude":"-22.963194","longitude":"-43.166596","endereco":"Avenida Atlântica, s/n - Leme"},{"nome":"Teatro Amador O Tablado","latitude":"-22.965087","longitude":"-43.216575","endereco":"Avenida Lineu de Paula Machado, 795 - Lagoa"}]