[{"nome":"Praia de São Conrado","latitude":"-23.000348","longitude":"-43.268882","endereco":"Estrada Lagoa Barra, s/n - São Conrado"},{"nome":"Museu do Açude","latitude":"-22.963619","longitude":"-43.282738","endereco":"Estrada do Açude, 764 - Alto da Boa Vista"},{"nome":"Parque Nacional da Tijuca","latitude":"-22.959831","longitude":"-43.278288","endereco":"Estrada da Cascatinha, 850 - Alto da Boa Vista"},{"nome":"Praia do Pepino","latitude":"-23.000926","longitude":"-43.271189","endereco":"Estrada Lagoa Barra, s/n - São Conrado"},{"nome":"Parque da Cidade","latitude":"-22.977500","longitude":"-43.245556","endereco":"Estrada Santa Marinha, 505 - Gávea"},{"nome":"Pedra da Gávea","latitude":"-22.997666","longitude":"-43.283865","endereco":"Estrada Do Joá, 1045 - Barra da Tijuca"}]