[{"nome":"Praia do Pepê","latitude":"-23.015442","longitude":"-43.305255","endereco":"Avenida do Pepê, s/n - Barra da Tijuca"},{"nome":"Centro Cultural Anglo Americano (Suassuna)","latitude":"-23.000965","longitude":"-43.334382","endereco":"Avenida das Américas, 2603 - Barra da Tijuca"},{"nome":"Pedra da Gávea","latitude":"-22.997666","longitude":"-43.283865","endereco":"Estrada Do Joá, 1045 - Barra da Tijuca"},{"nome":"Praia de São Conrado","latitude":"-23.000348","longitude":"-43.268882","endereco":"Estrada Lagoa Barra, s/n - São Conrado"},{"nome":"Praia do Pepino","latitude":"-23.000926","longitude":"-43.271189","endereco":"Estrada Lagoa Barra, s/n - São Conrado"},{"nome":"Praia da Joatinga","latitude":"-23.015000","longitude":"-43.290833","endereco":"Estrada do Joá, s/n - Joatinga"},{"nome":"Cidade das Artes","latitude":"-22.998611","longitude":"-43.365556","endereco":"Avenida das Américas, s/n - Barra da Tijuca"},{"nome":"Teatro dos Grandes Atores","latitude":"-23.000442","longitude":"-43.349943","endereco":"Avenida das Américas,  3555 - Barra da Tijuca"},{"nome":"Bosque da Barra","latitude":"-22.999839","longitude":"-43.371817","endereco":"Avenida das Américas, KM6.5 - Barra da Tijuca"},{"nome":"Praia da Barra da Tijuca","latitude":"-23.011216","longitude":"-43.366134","endereco":"Avenida Lúcio Costa, s/n - Barra da Tijuca"},{"nome":"Teatro CEC Antonio Fagundes","latitude":"-22.990025","longitude":"-43.366205","endereco":"Avenida Ayrton Senna, 2541A - Barra da Tijuca"},{"nome":"Jardim Botânico","latitude":"-22.970885","longitude":"-43.223279","endereco":"Rua Jardim Botânico, 1008 - Jardim Botânico"},{"nome":"Jockey Club Brasileiro","latitude":"-22.973863","longitude":"-43.225714","endereco":"Praça Santos Dumont, s/n - Gávea"},{"nome":"Lagoa Rodrigo de Freitas","latitude":"-22.971314","longitude":"-43.211725","endereco":"Avenida Epitácio Pessoa, s/n - Lagoa"},{"nome":"Planetário","latitude":"-22.978839","longitude":"-43.230247","endereco":"Rua Vice-governador Rubens Berardo, 100 - Gávea"},{"nome":"Praia do Leblon","latitude":"-22.987276","longitude":"-43.221914","endereco":"Avenida Delfim Moreira, s/n - Leblon"},{"nome":"Teatro Amador O Tablado","latitude":"-22.965087","longitude":"-43.216575","endereco":"Avenida Lineu de Paula Machado, 795 - Lagoa"},{"nome":"Teatro Café Pequeno","latitude":"-22.983817","longitude":"-43.217927","endereco":"Avenida Ataulfo de Paiva, 269 - Leblon"},{"nome":"Teatro Casa da Gávea","latitude":"-22.974058","longitude":"-43.226980","endereco":"Praça Santos Dumont, 116 - Gávea"},{"nome":"Teatro Casa do Riso","latitude":"-22.979878","longitude":"-43.222715","endereco":"Rua Adalberto Ferreira, 32 - Leblon"},{"nome":"Teatro Clara Nunes","latitude":"-22.975621","longitude":"-43.228071","endereco":"Rua Marquês de São Vicente, 52 - Gávea"},{"nome":"Teatro das Artes","latitude":"-22.975730","longitude":"-43.228284","endereco":"Rua Marquês de São Vicente, 52 - Gávea"},{"nome":"Teatro do Jockey","latitude":"-22.976997","longitude":"-43.224933","endereco":"Rua Bartolomeu Mitre, 1110 - Jardim Botânico"},{"nome":"Teatro dos Quatro","latitude":"-22.975678","longitude":"-43.228018","endereco":"Rua Marquês de São Vicente, 52 - Gávea"},{"nome":"Teatro Leblon","latitude":"-22.980851","longitude":"-43.222653","endereco":"Rua Conde de Bernadotte, 26 - Leblon"},{"nome":"Teatro Maria Clara Machado","latitude":"-22.978844","longitude":"-43.230249","endereco":"Avenida Padre Leonel Franca, 240 - Gávea"},{"nome":"Teatro Vanucci","latitude":"-22.975678","longitude":"-43.228262","endereco":"Rua Marquês de São Vicente, 52 - Gávea"},{"nome":"Parque da Cidade","latitude":"-22.977500","longitude":"-43.245556","endereco":"Estrada Santa Marinha, 505 - Gávea"}]