[{"nome":"Casa Laura Alvin","latitude":"-22.986681","longitude":"-43.199243","endereco":"Avenida Vieira Souto, 176 - Ipanema"},{"nome":"Centro Cultural Candido Mendes","latitude":"-22.984857","longitude":"-43.205058","endereco":"Rua Joana Angélica, 63 - Ipanema"},{"nome":"Jardim Botânico","latitude":"-22.970885","longitude":"-43.223279","endereco":"Rua Jardim Botânico, 1008 - Jardim Botânico"},{"nome":"Jockey Club Brasileiro","latitude":"-22.973863","longitude":"-43.225714","endereco":"Praça Santos Dumont, s/n - Gávea"},{"nome":"Lagoa Rodrigo de Freitas","latitude":"-22.971314","longitude":"-43.211725","endereco":"Avenida Epitácio Pessoa, s/n - Lagoa"},{"nome":"Planetário","latitude":"-22.978839","longitude":"-43.230247","endereco":"Rua Vice-governador Rubens Berardo, 100 - Gávea"},{"nome":"Praia de Ipanema","latitude":"-22.987197","longitude":"-43.203228","endereco":"Avenida Vieira Souto, s/n - Ipanema"},{"nome":"Praia do Leblon","latitude":"-22.987276","longitude":"-43.221914","endereco":"Avenida Delfim Moreira, s/n - Leblon"},{"nome":"Teatro Café Pequeno","latitude":"-22.983817","longitude":"-43.217927","endereco":"Avenida Ataulfo de Paiva, 269 - Leblon"},{"nome":"Teatro Casa da Gávea","latitude":"-22.974058","longitude":"-43.226980","endereco":"Praça Santos Dumont, 116 - Gávea"},{"nome":"Teatro Casa do Riso","latitude":"-22.979878","longitude":"-43.222715","endereco":"Rua Adalberto Ferreira, 32 - Leblon"},{"nome":"Teatro Clara Nunes","latitude":"-22.975621","longitude":"-43.228071","endereco":"Rua Marquês de São Vicente, 52 - Gávea"},{"nome":"Teatro das Artes","latitude":"-22.975730","longitude":"-43.228284","endereco":"Rua Marquês de São Vicente, 52 - Gávea"},{"nome":"Teatro do Jockey","latitude":"-22.976997","longitude":"-43.224933","endereco":"Rua Bartolomeu Mitre, 1110 - Jardim Botânico"},{"nome":"Teatro dos Quatro","latitude":"-22.975678","longitude":"-43.228018","endereco":"Rua Marquês de São Vicente, 52 - Gávea"},{"nome":"Teatro Ipanema","latitude":"-22.985310","longitude":"-43.204790","endereco":"Rua Prudente de Morais, 824 - Ipanema"},{"nome":"Teatro Leblon","latitude":"-22.980851","longitude":"-43.222653","endereco":"Rua Conde de Bernadotte, 26 - Leblon"},{"nome":"Teatro Maria Clara Machado","latitude":"-22.978844","longitude":"-43.230249","endereco":"Avenida Padre Leonel Franca, 240 - Gávea"},{"nome":"Teatro Vanucci","latitude":"-22.975678","longitude":"-43.228262","endereco":"Rua Marquês de São Vicente, 52 - Gávea"},{"nome":"Forte de Copacabana","latitude":"-22.985822","longitude":"-43.187846","endereco":"Praça Coronel Eugênio Franco, 1 - Copacabana"},{"nome":"Fundação Eva Klabin Rapaport","latitude":"-22.975969","longitude":"-43.198141","endereco":"Avenida Epitácio Pessoa, 2480 - Lagoa"},{"nome":"Parque Peter Pan","latitude":"-22.983185","longitude":"-43.192067","endereco":"Rua Francisco Sá, s/n - Copacabana"},{"nome":"Praia do Arpoador","latitude":"-22.988889","longitude":"-43.192778","endereco":"Avenida Francisco Bering, s/n - Ipanema"},{"nome":"Teatro Brigitte Blair","latitude":"-22.977920","longitude":"-43.191293","endereco":"Rua Miguel Lemos, 51 - Copacabana"},{"nome":"Teatro da Praia","latitude":"-22.983633","longitude":"-43.193341","endereco":"Rua Francisco Sá, 88 - Copacabana"},{"nome":"Parque da Cidade","latitude":"-22.977500","longitude":"-43.245556","endereco":"Estrada Santa Marinha, 505 - Gávea"}]