[{"nome":"Fundação Eva Klabin Rapaport","latitude":"-22.975969","longitude":"-43.198141","endereco":"Avenida Epitácio Pessoa, 2480 - Lagoa"},{"nome":"Parque Peter Pan","latitude":"-22.983185","longitude":"-43.192067","endereco":"Rua Francisco Sá, s/n - Copacabana"},{"nome":"Praia de Copacabana","latitude":"-22.968588","longitude":"-43.179109","endereco":"Avenida Atlântica, s/n - Copacabana"},{"nome":"Sala Baden Powell","latitude":"-22.967121","longitude":"-43.180619","endereco":"Avenida Nossa Senhora de Copacabana, 360 - Copacabana"},{"nome":"Teatro Brigitte Blair","latitude":"-22.977920","longitude":"-43.191293","endereco":"Rua Miguel Lemos, 51 - Copacabana"},{"nome":"Teatro da Praia","latitude":"-22.983633","longitude":"-43.193341","endereco":"Rua Francisco Sá, 88 - Copacabana"},{"nome":"Teatro Gláucio Gil","latitude":"-22.965395","longitude":"-43.180805","endereco":"Praça Cardeal Arcoverde, s/n - Copacabana"},{"nome":"Teatro Princesa Isabel","latitude":"-22.963013","longitude":"-43.174309","endereco":"Avenida Princesa Isabel, 186 - Copacabana"},{"nome":"Teatro Villa Lobos","latitude":"-22.961308","longitude":"-43.175283","endereco":"Avenida Princesa Isabel, 440 - Copacabana"},{"nome":"Casa Laura Alvin","latitude":"-22.986681","longitude":"-43.199243","endereco":"Avenida Vieira Souto, 176 - Ipanema"},{"nome":"Centro Cultural Candido Mendes","latitude":"-22.984857","longitude":"-43.205058","endereco":"Rua Joana Angélica, 63 - Ipanema"},{"nome":"Forte de Copacabana","latitude":"-22.985822","longitude":"-43.187846","endereco":"Praça Coronel Eugênio Franco, 1 - Copacabana"},{"nome":"Praia de Ipanema","latitude":"-22.987197","longitude":"-43.203228","endereco":"Avenida Vieira Souto, s/n - Ipanema"},{"nome":"Praia do Arpoador","latitude":"-22.988889","longitude":"-43.192778","endereco":"Avenida Francisco Bering, s/n - Ipanema"},{"nome":"Teatro Ipanema","latitude":"-22.985310","longitude":"-43.204790","endereco":"Rua Prudente de Morais, 824 - Ipanema"},{"nome":"Jardim Botânico","latitude":"-22.970885","longitude":"-43.223279","endereco":"Rua Jardim Botânico, 1008 - Jardim Botânico"},{"nome":"Jockey Club Brasileiro","latitude":"-22.973863","longitude":"-43.225714","endereco":"Praça Santos Dumont, s/n - Gávea"},{"nome":"Lagoa Rodrigo de Freitas","latitude":"-22.971314","longitude":"-43.211725","endereco":"Avenida Epitácio Pessoa, s/n - Lagoa"},{"nome":"Planetário","latitude":"-22.978839","longitude":"-43.230247","endereco":"Rua Vice-governador Rubens Berardo, 100 - Gávea"},{"nome":"Praia do Leblon","latitude":"-22.987276","longitude":"-43.221914","endereco":"Avenida Delfim Moreira, s/n - Leblon"},{"nome":"Teatro Café Pequeno","latitude":"-22.983817","longitude":"-43.217927","endereco":"Avenida Ataulfo de Paiva, 269 - Leblon"},{"nome":"Teatro Casa da Gávea","latitude":"-22.974058","longitude":"-43.226980","endereco":"Praça Santos Dumont, 116 - Gávea"},{"nome":"Teatro Casa do Riso","latitude":"-22.979878","longitude":"-43.222715","endereco":"Rua Adalberto Ferreira, 32 - Leblon"},{"nome":"Teatro Clara Nunes","latitude":"-22.975621","longitude":"-43.228071","endereco":"Rua Marquês de São Vicente, 52 - Gávea"},{"nome":"Teatro das Artes","latitude":"-22.975730","longitude":"-43.228284","endereco":"Rua Marquês de São Vicente, 52 - Gávea"},{"nome":"Teatro do Jockey","latitude":"-22.976997","longitude":"-43.224933","endereco":"Rua Bartolomeu Mitre, 1110 - Jardim Botânico"},{"nome":"Teatro dos Quatro","latitude":"-22.975678","longitude":"-43.228018","endereco":"Rua Marquês de São Vicente, 52 - Gávea"},{"nome":"Teatro Leblon","latitude":"-22.980851","longitude":"-43.222653","endereco":"Rua Conde de Bernadotte, 26 - Leblon"},{"nome":"Teatro Maria Clara Machado","latitude":"-22.978844","longitude":"-43.230249","endereco":"Avenida Padre Leonel Franca, 240 - Gávea"},{"nome":"Teatro Vanucci","latitude":"-22.975678","longitude":"-43.228262","endereco":"Rua Marquês de São Vicente, 52 - Gávea"},{"nome":"Espaço Cultura Sergio Porto","latitude":"-22.958328","longitude":"-43.199558","endereco":"Rua Humaitá, 163 - Humaitá"},{"nome":"Fundação Casa de Rui Barbosa","latitude":"-22.949440","longitude":"-43.186908","endereco":"Rua São Clemente, 134 - Botafogo"},{"nome":"Museu do Índio","latitude":"-22.952010","longitude":"-43.191312","endereco":"Rua das Palmeiras, 55 - Botafogo"},{"nome":"Praia de São Conrado","latitude":"-23.000348","longitude":"-43.268882","endereco":"Estrada Lagoa Barra, s/n - São Conrado"},{"nome":"Praia do Pepino","latitude":"-23.000926","longitude":"-43.271189","endereco":"Estrada Lagoa Barra, s/n - São Conrado"},{"nome":"Praia Leme","latitude":"-22.963194","longitude":"-43.166596","endereco":"Avenida Atlântica, s/n - Leme"},{"nome":"Praia da Joatinga","latitude":"-23.015000","longitude":"-43.290833","endereco":"Estrada do Joá, s/n - Joatinga"},{"nome":"Praia do Pepê","latitude":"-23.015442","longitude":"-43.305255","endereco":"Avenida do Pepê, s/n - Barra da Tijuca"},{"nome":"Parque da Cidade","latitude":"-22.977500","longitude":"-43.245556","endereco":"Estrada Santa Marinha, 505 - Gávea"},{"nome":"Centro Cultural Anglo Americano (Suassuna)","latitude":"-23.000965","longitude":"-43.334382","endereco":"Avenida das Américas, 2603 - Barra da Tijuca"},{"nome":"Pedra da Gávea","latitude":"-22.997666","longitude":"-43.283865","endereco":"Estrada Do Joá, 1045 - Barra da Tijuca"}]