[{"nome":"Teatro Noel Rosa","latitude":"-22.910731","longitude":"-43.237617","endereco":"Rua São Francisco Xavier, 524 - Maracanã"},{"nome":"Estádio do Maracanã","latitude":"-22.913604","longitude":"-43.231068","endereco":"Rua Professor Eurico Rabelo, s/n - Maracanã"},{"nome":"Teatro Odylo Costa Filho","latitude":"-22.910556","longitude":"-43.235000","endereco":"Rua São Francisco Xavier, 524 - Maracanã"},{"nome":"Teatro Ziembinski","latitude":"-22.920947","longitude":"-43.223917","endereco":"Avenida Heitor Beltrão, s/n - Tijuca"},{"nome":"Teatro Miguel Falabella","latitude":"-22.887453","longitude":"-43.283012","endereco":"Avenida Dom Hélder Câmara, 5474 - Cachambi"},{"nome":"Quinta da Boa Vista/Museu Nacional","latitude":"-22.905441","longitude":"-43.224884","endereco":"Quinta da Boa Vista, s/n - São Cristóvão"}]