[{"nome":"Teatro Miguel Falabella","latitude":"-22.887453","longitude":"-43.283012","endereco":"Avenida Dom Hélder Câmara, 5474 - Cachambi"},{"nome":"Praia de Ramos","latitude":"-22.838716","longitude":"-43.250386","endereco":"Rua Gérson Ferreira, s/n - Maré"},{"nome":"Jardim Zoológico (Riozoo)","latitude":"-22.904393","longitude":"-43.228820","endereco":"Quinta da Boa Vista, s/n - São Cristóvão"},{"nome":"Teatro Noel Rosa","latitude":"-22.910731","longitude":"-43.237617","endereco":"Rua São Francisco Xavier, 524 - Maracanã"},{"nome":"Teatro Odylo Costa Filho","latitude":"-22.910556","longitude":"-43.235000","endereco":"Rua São Francisco Xavier, 524 - Maracanã"},{"nome":"Quinta da Boa Vista/Museu Nacional","latitude":"-22.905441","longitude":"-43.224884","endereco":"Quinta da Boa Vista, s/n - São Cristóvão"}]