[{"nome":"Teatro dos Grandes Atores","latitude":"-23.000442","longitude":"-43.349943","endereco":"Avenida das Américas,  3555 - Barra da Tijuca"},{"nome":"Praia Recreio dos Bandeirantes","latitude":"-23.026462","longitude":"-43.459303","endereco":"Avenida Lúcio Costa, s/n - Recreio dos Bandeirantes"},{"nome":"Centro Cultural Anglo Americano (Suassuna)","latitude":"-23.000965","longitude":"-43.334382","endereco":"Avenida das Américas, 2603 - Barra da Tijuca"},{"nome":"Praia da Macumba","latitude":"-23.033769","longitude":"-43.486358","endereco":"Estrada do Pontal, s/n - Recreio dos Bandeirantes"},{"nome":"Teatro Thiago de Mello","latitude":"-23.020125","longitude":"-43.501737","endereco":"Avenida das Américas, 19400 - Recreio dos Bandeirantes"},{"nome":"Bosque da Barra","latitude":"-22.999839","longitude":"-43.371817","endereco":"Avenida das Américas, KM6.5 - Barra da Tijuca"},{"nome":"Cidade das Artes","latitude":"-22.998611","longitude":"-43.365556","endereco":"Avenida das Américas, s/n - Barra da Tijuca"},{"nome":"Praia da Barra da Tijuca","latitude":"-23.011216","longitude":"-43.366134","endereco":"Avenida Lúcio Costa, s/n - Barra da Tijuca"},{"nome":"Teatro CEC Antonio Fagundes","latitude":"-22.990025","longitude":"-43.366205","endereco":"Avenida Ayrton Senna, 2541A - Barra da Tijuca"},{"nome":"Prainha","latitude":"-23.040344","longitude":"-43.504503","endereco":"Avenida Estado da Guanabara, s/n - Recreio dos Bandeirantes"},{"nome":"Museu de Arte Popular da Casa do Pontal","latitude":"-23.024675","longitude":"-43.509948","endereco":"Estrada do Pontal, 3295 - Recreio dos Bandeirantes"},{"nome":"Praia do Pepê","latitude":"-23.015442","longitude":"-43.305255","endereco":"Avenida do Pepê, s/n - Barra da Tijuca"},{"nome":"Praia da Joatinga","latitude":"-23.015000","longitude":"-43.290833","endereco":"Estrada do Joá, s/n - Joatinga"}]